;header_stamp_secs;pose_position_x;pose_position_y;pose_position_z;seconds
0;1449482769;2.10799098015;0.86903822422;0.0333238877356;0
1;1449482769;2.10831999779;0.869011700153;0.033514007926;0
2;1449482769;2.10814476013;0.869493722916;0.0329500585794;0
3;1449482769;2.10771870613;0.869319319725;0.0332386083901;0
4;1449482769;2.10788035393;0.869139909744;0.0331361852586;0
5;1449482769;2.10795164108;0.869015395641;0.0333154909313;0
6;1449482769;2.10796093941;0.868986725807;0.033214058727;0
7;1449482769;2.10872483253;0.868313670158;0.0334252938628;0
8;1449482769;2.10845255852;0.868724822998;0.0336910523474;0
9;1449482769;2.1081609726;0.869094789028;0.0332854390144;0
10;1449482769;2.10817432404;0.869312524796;0.0344339907169;0
11;1449482769;2.10811281204;0.869489252567;0.0328820310533;0
12;1449482769;2.10724449158;0.868832349777;0.0335174240172;0
13;1449482769;2.10830450058;0.869487047195;0.0332566089928;0
14;1449482769;2.10825967789;0.868634283543;0.0334557257593;0
15;1449482769;2.10794878006;0.869189023972;0.0337631739676;0
16;1449482769;2.10846734047;0.868829369545;0.0328214392066;0
17;1449482769;2.10811495781;0.868924081326;0.0332542695105;0
18;1449482769;2.10785150528;0.868803322315;0.0330552011728;0
19;1449482769;2.10801267624;0.869173228741;0.0333665423095;0
20;1449482769;2.10842967033;0.868788480759;0.0331868603826;0
21;1449482769;2.1079454422;0.869064748287;0.0332530587912;0
22;1449482769;2.10823082924;0.869028329849;0.0331463254988;0
23;1449482769;2.10806465149;0.868939578533;0.0333057790995;0
24;1449482769;2.10829639435;0.868771851063;0.0331280194223;0
25;1449482769;2.10849881172;0.868479132652;0.0334889031947;0
26;1449482769;2.10775089264;0.869293630123;0.0333209186792;0
27;1449482769;2.10824227333;0.868894457817;0.0331993587315;0
28;1449482769;2.1080057621;0.869290471077;0.0331529267132;0
29;1449482769;2.10809755325;0.869162917137;0.0333525165915;0
30;1449482769;2.10790419579;0.868981003761;0.033261436969;0
31;1449482769;2.10816001892;0.86901396513;0.0334218628705;0
32;1449482769;2.10814094543;0.869144678116;0.0330146849155;0
33;1449482769;2.10799002647;0.86915320158;0.0335733443499;0
34;1449482769;2.10818362236;0.868886709213;0.0333102419972;0
35;1449482769;2.10772633553;0.868893861771;0.034041672945;0
36;1449482769;2.10848093033;0.868907153606;0.0331830456853;0
37;1449482769;2.1079955101;0.869021713734;0.0333765223622;0
38;1449482769;2.10804820061;0.869273483753;0.0333290062845;0
39;1449482769;2.10808968544;0.869334161282;0.0332698561251;0
40;1449482769;2.10805273056;0.869110643864;0.0334211997688;0
41;1449482769;2.1084420681;0.868982732296;0.0332879014313;0
42;1449482769;2.10795426369;0.869014084339;0.0331520065665;0
43;1449482769;2.1082777977;0.868864536285;0.0328552052379;0
44;1449482769;2.10819101334;0.868850886822;0.033229328692;0
45;1449482769;2.108522892;0.869111597538;0.0327102579176;0
46;1449482769;2.10795235634;0.868857443333;0.0329386591911;0
47;1449482769;2.10823869705;0.869200646877;0.033100925386;0
48;1449482769;2.10802173615;0.869244515896;0.0329072885215;0
49;1449482769;2.10809063911;0.869121611118;0.0333303064108;0
50;1449482769;2.1079955101;0.868984699249;0.0333791263402;0
51;1449482769;2.10763192177;0.869135081768;0.0334751568735;0
52;1449482769;2.10808444023;0.869011700153;0.0333587676287;0
53;1449482769;2.10815358162;0.868882060051;0.033284612;0
54;1449482769;2.10776567459;0.869323015213;0.0333312228322;0
55;1449482769;2.10799002647;0.868969380856;0.0333798006177;0
56;1449482769;2.10772323608;0.869185566902;0.0333125591278;0
57;1449482769;2.1082868576;0.868772268295;0.0332616455853;0
58;1449482769;2.10841536522;0.869062125683;0.0336895175278;0
59;1449482769;2.10851955414;0.868711590767;0.0332815572619;0
60;1449482769;2.10829162598;0.868851304054;0.0331156663597;0
61;1449482769;2.1082379818;0.868840575218;0.0332787372172;0
62;1449482769;2.10865783691;0.868714749813;0.0327124148607;0
63;1449482769;2.10777688026;0.869210898876;0.0333508737385;0
64;1449482769;2.10817289352;0.868917763233;0.0333235450089;0
65;1449482769;2.10836482048;0.868963181973;0.0332695096731;0
66;1449482769;2.10798740387;0.868966400623;0.0333836190403;0
67;1449482769;2.10790896416;0.869131803513;0.0332992449403;0
68;1449482769;2.10802578926;0.868732869625;0.0330517403781;0
69;1449482769;2.10812115669;0.86899960041;0.0331545472145;0
70;1449482769;2.1085088253;0.868960857391;0.0328800790012;0
71;1449482769;2.1078851223;0.868973374367;0.0332781933248;0
72;1449482769;2.10803842545;0.868959546089;0.0331107825041;0
73;1449482769;2.10797119141;0.869049012661;0.0333174280822;0
74;1449482769;2.108117342;0.868901431561;0.0333096273243;0
75;1449482769;2.10836911201;0.868822574615;0.0331019237638;0
76;1449482769;2.10887336731;0.868466615677;0.0331709757447;0
77;1449482769;2.10811829567;0.868889033794;0.0332978442311;0
78;1449482769;2.1082880497;0.869186758995;0.0332096368074;0
79;1449482769;2.10800695419;0.869017660618;0.0333430767059;0
80;1449482769;2.10798931122;0.869045734406;0.0330725945532;0
81;1449482769;2.10823822021;0.868708014488;0.0334524586797;0
82;1449482769;2.10779166222;0.869420230389;0.0332453511655;0
83;1449482769;2.10796260834;0.868977189064;0.0333510823548;0
84;1449482769;2.108304739;0.869133234024;0.0324937999249;0
85;1449482769;2.10804319382;0.869018673897;0.0330342911184;0
86;1449482769;2.10785627365;0.868969321251;0.0332800596952;0
87;1449482769;2.10786104202;0.868882834911;0.0329895839095;0
88;1449482769;2.10816121101;0.868965864182;0.0335973985493;0
89;1449482769;2.10807299614;0.868926644325;0.0327923744917;0
90;1449482769;2.10796284676;0.868697524071;0.0331112407148;0
91;1449482769;2.10778355598;0.86908519268;0.0333143770695;0
92;1449482769;2.10812783241;0.868893444538;0.0332846231759;0
93;1449482769;2.10724663734;0.868805229664;0.0335353501141;0
94;1449482769;2.10798144341;0.868817567825;0.03353016451;0
95;1449482769;2.10724377632;0.868822157383;0.0335390083492;0
96;1449482769;2.10812520981;0.868819773197;0.033666819334;0
97;1449482769;2.10809254646;0.868952989578;0.0330754034221;0
98;1449482769;2.10803413391;0.869055688381;0.0330703295767;0
99;1449482769;2.10779237747;0.869246065617;0.0333096832037;0
100;1449482769;2.10814881325;0.869055628777;0.0330842025578;0
101;1449482769;2.10845851898;0.868940591812;0.0331077054143;0
102;1449482769;2.10773634911;0.869271397591;0.0333139449358;0
103;1449482769;2.10826134682;0.869167029858;0.033234462142;0
104;1449482769;2.10804104805;0.868958592415;0.0342545509338;0
105;1449482769;2.10807323456;0.868879199028;0.03335288167;0
106;1449482769;2.10832977295;0.869054973125;0.0333027467132;0
107;1449482769;2.10911870003;0.868958115578;0.033248282969;0
108;1449482769;2.10841560364;0.868796646595;0.0335944220424;0
109;1449482769;2.10817551613;0.86885124445;0.0332597829401;0
110;1449482769;2.1082971096;0.869057893753;0.0336514376104;0
111;1449482769;2.1082470417;0.868764102459;0.0332094877958;0
112;1449482769;2.10804748535;0.869145512581;0.0332362018526;0
113;1449482769;2.10798764229;0.868982613087;0.0332836918533;0
114;1449482769;2.10829877853;0.868927359581;0.0331283770502;0
115;1449482769;2.10802769661;0.869146883488;0.0333861745894;0
116;1449482769;2.10811185837;0.869132041931;0.0330467708409;0
117;1449482769;2.10724282265;0.868810653687;0.0335058644414;0
118;1449482769;2.10833930969;0.868980228901;0.0333885625005;0
119;1449482769;2.10823655128;0.86894506216;0.0332083329558;0
120;1449482769;2.10787057877;0.868827283382;0.0329800024629;0
121;1449482769;2.10823154449;0.869089543819;0.0329657793045;0
122;1449482769;2.10810256004;0.869045078754;0.0332584865391;0
123;1449482769;2.1080429554;0.869192421436;0.0330790244043;0
124;1449482769;2.10834860802;0.86885458231;0.0333561077714;0
125;1449482769;2.10797739029;0.869231283665;0.0335015319288;0
126;1449482769;2.10788631439;0.868796408176;0.0330154374242;0
127;1449482769;2.10854148865;0.868898391724;0.032739341259;0
128;1449482769;2.1074757576;0.869005382061;0.0332035683095;0
129;1449482769;2.1072499752;0.868811428547;0.0335111394525;0
130;1449482769;2.10829997063;0.86877566576;0.0331449992955;0
131;1449482769;2.10848736763;0.868935823441;0.0326877906919;0
132;1449482769;2.10783720016;0.869273066521;0.0333145596087;0
133;1449482769;2.10848784447;0.868743181229;0.0330773927271;0
134;1449482769;2.10860800743;0.868965744972;0.0330830700696;0
135;1449482769;2.10811853409;0.869261741638;0.0331954360008;0
136;1449482769;2.10802936554;0.869009852409;0.0331720523536;0
137;1449482769;2.10780978203;0.869611442089;0.0342786572874;0
138;1449482769;2.1080391407;0.86909198761;0.0332847982645;0
139;1449482769;2.10796523094;0.868908703327;0.0332802981138;0
140;1449482769;2.10815572739;0.868886232376;0.0332724936306;0
141;1449482769;2.10831904411;0.86920517683;0.0330649763346;0
142;1449482769;2.10837697983;0.868828892708;0.0334364101291;0
143;1449482769;2.10791778564;0.869079113007;0.0332640968263;0
144;1449482769;2.10835242271;0.868921875954;0.032968133688;0
145;1449482769;2.10783934593;0.869259536266;0.0332998558879;0
146;1449482769;2.10803580284;0.869275808334;0.033137563616;0
147;1449482769;2.10800719261;0.868806362152;0.0330190248787;0
148;1449482769;2.10835433006;0.868647217751;0.0326276011765;0
149;1449482769;2.10774898529;0.86937057972;0.03334890306;0
150;1449482769;2.1077413559;0.869205534458;0.0335102565587;0
151;1449482769;2.10802412033;0.869254469872;0.033306542784;0
152;1449482769;2.10795497894;0.868927240372;0.0327539108694;0
153;1449482769;2.10725951195;0.868829250336;0.0335537046194;0
154;1449482769;2.10813474655;0.868498623371;0.0331091247499;0
155;1449482769;2.10748410225;0.86916577816;0.0334757007658;0
156;1449482769;2.10808324814;0.868927240372;0.033294275403;0
157;1449482769;2.10811519623;0.869204640388;0.0333375819027;0
158;1449482769;2.10799741745;0.869115650654;0.0333257094026;0
159;1449482769;2.10837697983;0.868718028069;0.0332364030182;0
160;1449482769;2.10819387436;0.869089186192;0.03299542889;0
161;1449482769;2.10828328133;0.869056284428;0.032933820039;0
162;1449482769;2.10783004761;0.869291603565;0.0337708704174;0
163;1449482769;2.10802292824;0.869168996811;0.0334276147187;0
164;1449482769;2.10888504982;0.869007349014;0.0331073887646;0
165;1449482769;2.10789656639;0.868933439255;0.0331836976111;0
166;1449482769;2.10728335381;0.868831336498;0.0335680246353;0
167;1449482769;2.10836267471;0.869008004665;0.0336113758385;0
168;1449482769;2.10829329491;0.868985772133;0.0330009832978;0
169;1449482769;2.10805559158;0.869061231613;0.0333754681051;0
170;1449482769;2.10798668861;0.869003117085;0.0335441790521;0
171;1449482769;2.10793614388;0.869092166424;0.0333166569471;0
172;1449482769;2.10795998573;0.869096457958;0.0333798862994;0
173;1449482769;2.10848283768;0.868950247765;0.0328649170697;0
174;1449482769;2.10825324059;0.868861973286;0.0334899909794;0
175;1449482769;2.10839438438;0.86889976263;0.033378303051;0
176;1449482769;2.10819077492;0.868924081326;0.0334406346083;0
177;1449482769;2.10764312744;0.869352996349;0.0331307314336;0
178;1449482769;2.10809826851;0.868900060654;0.0333058424294;0
179;1449482769;2.10806107521;0.868805229664;0.0332433283329;0
180;1449482769;2.10812067986;0.868819177151;0.0336317121983;0
181;1449482769;2.10805749893;0.869164586067;0.0335072129965;0
182;1449482769;2.10809135437;0.868820607662;0.0330700166523;0
183;1449482769;2.10802578926;0.86894774437;0.0332764238119;0
184;1449482769;2.10867547989;0.868900477886;0.0330420397222;0
185;1449482769;2.10836338997;0.868813633919;0.0329097770154;0
186;1449482769;2.10811638832;0.868935585022;0.0331782847643;0
187;1449482769;2.10792374611;0.869027674198;0.0333332531154;0
188;1449482769;2.10877037048;0.868660211563;0.0332243256271;0
189;1449482769;2.10774302483;0.869244277477;0.0333448275924;0
190;1449482769;2.10773611069;0.869313359261;0.0333176925778;0
191;1449482769;2.10825705528;0.86898714304;0.0331246443093;0
192;1449482769;2.10783886909;0.869288623333;0.0333104170859;0
193;1449482769;2.10812330246;0.869184434414;0.0335544794798;0
194;1449482769;2.1075026989;0.86943012476;0.0340334139764;0
195;1449482769;2.10858416557;0.868964016438;0.0331979207695;0
196;1449482769;2.10817527771;0.869185209274;0.0329805202782;0
197;1449482769;2.10798978806;0.869310975075;0.0333380140364;0
198;1449482769;2.10814428329;0.868871152401;0.0332714579999;0
199;1449482769;2.1083240509;0.868867874146;0.0335797779262;0
200;1449482769;2.10825133324;0.868872225285;0.0330170169473;0
201;1449482769;2.10783934593;0.868740916252;0.0332508794963;0
202;1449482769;2.10772156715;0.869318127632;0.0333155356348;0
203;1449482770;2.10771369934;0.869303643703;0.0332931242883;1
204;1449482770;2.10793638229;0.869354605675;0.0332774631679;1
205;1449482770;2.10768437386;0.868691563606;0.0327324718237;1
206;1449482770;2.10830640793;0.868963181973;0.0329432822764;1
207;1449482770;2.1078107357;0.869044303894;0.0332911014557;1
208;1449482770;2.10817122459;0.868937373161;0.0332205817103;1
209;1449482770;2.10814714432;0.868869006634;0.0332643650472;1
210;1449482770;2.10798192024;0.86902654171;0.0333069749177;1
211;1449482770;2.1079750061;0.869274795055;0.0337911173701;1
212;1449482770;2.10802149773;0.869081735611;0.0333265252411;1
213;1449482770;2.10800242424;0.868968069553;0.0333403386176;1
214;1449482770;2.10813093185;0.869108557701;0.0328250229359;1
215;1449482770;2.10839295387;0.869070231915;0.0343667306006;1
216;1449482770;2.10812783241;0.869014620781;0.0334182307124;1
217;1449482770;2.10868430138;0.868801474571;0.0327714420855;1
218;1449482770;2.10848689079;0.868711590767;0.033295225352;1
219;1449482770;2.10813641548;0.868687391281;0.0331577509642;1
220;1449482770;2.10815668106;0.869085550308;0.0329709351063;1
221;1449482770;2.10789227486;0.869084775448;0.0332460589707;1
222;1449482770;2.10798716545;0.86905503273;0.0332711525261;1
223;1449482770;2.10817790031;0.868764281273;0.0329832732677;1
224;1449482770;2.10801124573;0.868925452232;0.033264990896;1
225;1449482770;2.10836434364;0.868997693062;0.0335940010846;1
226;1449482770;2.10798382759;0.869307696819;0.0332740433514;1
227;1449482770;2.10813951492;0.868942439556;0.0332524999976;1
228;1449482770;2.10797810555;0.869110763073;0.0333091281354;1
229;1449482770;2.10836195946;0.869087696075;0.0334991961718;1
230;1449482770;2.10807442665;0.869103312492;0.0333482176065;1
231;1449482770;2.10779595375;0.869222283363;0.0332861542702;1
232;1449482770;2.1082804203;0.868829488754;0.0333785004914;1
233;1449482770;2.10824918747;0.869009017944;0.033094022423;1
234;1449482770;2.10723948479;0.868823289871;0.033507373184;1
235;1449482770;2.10841393471;0.86861038208;0.0335808992386;1
236;1449482770;2.10746717453;0.869495034218;0.0341247171164;1
237;1449482770;2.10815215111;0.869378745556;0.0335415266454;1
238;1449482770;2.10794043541;0.869031429291;0.0333147272468;1
239;1449482770;2.10789513588;0.869103848934;0.033221706748;1
240;1449482770;2.10812163353;0.868493974209;0.0330157652497;1
241;1449482770;2.10797429085;0.869015991688;0.0333063788712;1
242;1449482770;2.1079416275;0.868862807751;0.0328404977918;1
243;1449482770;2.10787439346;0.868974983692;0.0332199856639;1
244;1449482770;2.10820674896;0.868997752666;0.0332220606506;1
245;1449482770;2.10813450813;0.869007408619;0.0330027118325;1
246;1449482770;2.10802316666;0.869046270847;0.0333155170083;1
247;1449482770;2.10816907883;0.869138717651;0.0336516238749;1
248;1449482770;2.10837054253;0.869083106518;0.033523555845;1
249;1449482770;2.10839915276;0.868779599667;0.033533256501;1
250;1449482770;2.10759115219;0.869076132774;0.0330917574465;1
251;1449482770;2.10809373856;0.869180738926;0.0333677381277;1
252;1449482770;2.10806703568;0.868873894215;0.0329210795462;1
253;1449482770;2.10770630836;0.869345128536;0.0332895070314;1
254;1449482770;2.10792088509;0.869126439095;0.0329927876592;1
255;1449482770;2.10790729523;0.869354367256;0.0331206545234;1
256;1449482770;2.10797715187;0.869146227837;0.0334087759256;1
257;1449482770;2.10793352127;0.869005441666;0.0333480089903;1
258;1449482770;2.10842299461;0.868851065636;0.0333909206092;1
259;1449482770;2.10782647133;0.868246972561;0.0340723320842;1
260;1449482770;2.10786104202;0.869202673435;0.0335407815874;1
261;1449482770;2.1079993248;0.869543135166;0.0333196818829;1
262;1449482770;2.10804772377;0.869082212448;0.0328263565898;1
263;1449482770;2.10773515701;0.86936122179;0.03333915025;1
264;1449482770;2.10807657242;0.86917757988;0.0333657339215;1
265;1449482770;2.10823845863;0.868947923183;0.0332188941538;1
266;1449482770;2.10829138756;0.868732869625;0.0335962772369;1
267;1449482770;2.10798573494;0.868868291378;0.0324718467891;1
268;1449482770;2.10796880722;0.869022667408;0.0333656519651;1
269;1449482770;2.10791325569;0.869071364403;0.0332884341478;1
270;1449482770;2.10815501213;0.869000792503;0.033540405333;1
271;1449482770;2.10805368423;0.868941426277;0.0333122573793;1
272;1449482770;2.10798931122;0.86907762289;0.0331045240164;1
273;1449482770;2.1080019474;0.869276225567;0.0328711792827;1
274;1449482770;2.10811328888;0.869105637074;0.0333007164299;1
275;1449482770;2.10812759399;0.86916911602;0.033400606364;1
276;1449482770;2.10784721375;0.869224607944;0.0335784628987;1
277;1449482770;2.10793972015;0.868986010551;0.0333764962852;1
278;1449482770;2.1081340313;0.869080901146;0.0330321080983;1
279;1449482770;2.10806775093;0.869031012058;0.033393073827;1
280;1449482770;2.10819458961;0.868890583515;0.0332499518991;1
281;1449482770;2.10813498497;0.868869423866;0.0332797057927;1
282;1449482770;2.10811400414;0.868888735771;0.0333109758794;1
283;1449482770;2.1078555584;0.869119882584;0.0332754552364;1
284;1449482770;2.10795855522;0.869211196899;0.0333403870463;1
285;1449482770;2.10773515701;0.869261443615;0.0333184972405;1
286;1449482770;2.10829114914;0.86915242672;0.0334264189005;1
287;1449482770;2.10807442665;0.868931233883;0.0333605967462;1
288;1449482770;2.10796332359;0.869297802448;0.0332306437194;1
289;1449482770;2.10784125328;0.869257628918;0.0333692878485;1
290;1449482770;2.10815358162;0.868755877018;0.0335158072412;1
291;1449482770;2.10800004005;0.869047164917;0.03332022205;1
292;1449482770;2.10815930367;0.868978321552;0.0330392047763;1
293;1449482770;2.10795617104;0.868774473667;0.0330542251468;1
294;1449482770;2.10813355446;0.86863476038;0.0334431305528;1
295;1449482770;2.10772418976;0.869291365147;0.0333096534014;1
296;1449482770;2.10801768303;0.868973910809;0.0333581641316;1
297;1449482770;2.10798621178;0.869112432003;0.0334177203476;1
298;1449482770;2.10825014114;0.868601083755;0.0336946547031;1
299;1449482770;2.10822153091;0.869130551815;0.0333634242415;1
300;1449482770;2.1080789566;0.869105696678;0.0328130982816;1
301;1449482770;2.10783743858;0.868753910065;0.0332373455167;1
302;1449482770;2.10841870308;0.868827939034;0.0331864543259;1
303;1449482770;2.10804891586;0.8690559268;0.0328819788992;1
304;1449482770;2.10818743706;0.869242250919;0.032791312784;1
305;1449482770;2.10836243629;0.868570864201;0.033401440829;1
306;1449482770;2.10820674896;0.869009375572;0.0332608744502;1
307;1449482770;2.10821628571;0.86875975132;0.0332639031112;1
308;1449482770;2.10804605484;0.869003772736;0.0332813374698;1
309;1449482770;2.10824680328;0.869029581547;0.0335769914091;1
310;1449482770;2.10826420784;0.86888229847;0.0331832170486;1
311;1449482770;2.10763406754;0.869392216206;0.0331085398793;1
312;1449482770;2.10777211189;0.869239270687;0.0333122611046;1
313;1449482770;2.10812401772;0.869180262089;0.0335335321724;1
314;1449482770;2.10719156265;0.869173109531;0.0347076952457;1
315;1449482770;2.10841155052;0.868676483631;0.0337314121425;1
316;1449482770;2.10823321342;0.869117438793;0.033244010061;1
317;1449482770;2.10817742348;0.868931770325;0.0332733467221;1
318;1449482770;2.10809874535;0.868826627731;0.0339158587158;1
319;1449482770;2.10769271851;0.869364619255;0.0333099924028;1
320;1449482770;2.10811758041;0.869154155254;0.0329704396427;1
321;1449482770;2.10809278488;0.8688621521;0.0330025218427;1
322;1449482770;2.10788536072;0.868983209133;0.0330442711711;1
323;1449482770;2.10795974731;0.869304180145;0.0332802608609;1
324;1449482770;2.10864305496;0.868401706219;0.0338620133698;1
325;1449482770;2.10810065269;0.868919730186;0.0332804359496;1
326;1449482770;2.10787439346;0.868995010853;0.0331445708871;1
327;1449482770;2.10827565193;0.86893093586;0.0333987250924;1
328;1449482770;2.10776138306;0.868485510349;0.0332686826587;1
329;1449482770;2.10787343979;0.86905092001;0.0334748253226;1
330;1449482770;2.10815453529;0.869184792042;0.0329964235425;1
331;1449482770;2.10809993744;0.868874311447;0.0324752442539;1
332;1449482770;2.10814571381;0.868915200233;0.0332558751106;1
333;1449482770;2.10810422897;0.86918514967;0.0326970592141;1
334;1449482770;2.10819673538;0.868963181973;0.0331691540778;1
335;1449482770;2.10818743706;0.869089603424;0.0330322161317;1
336;1449482770;2.10816025734;0.868949115276;0.0332999862731;1
337;1449482770;2.10786867142;0.869286596775;0.0333453379571;1
338;1449482770;2.10879325867;0.869028687477;0.0329694375396;1
339;1449482770;2.10820794106;0.869374573231;0.0331299640238;1
340;1449482770;2.10772299767;0.86883097887;0.0330935791135;1
341;1449482770;2.10829997063;0.868694782257;0.0335232354701;1
342;1449482770;2.10837602615;0.868893146515;0.0331306159496;1
343;1449482770;2.10818696022;0.868838012218;0.0332436859608;1
344;1449482770;2.10762906075;0.869287371635;0.0338241271675;1
345;1449482770;2.10794353485;0.86925560236;0.033409204334;1
346;1449482770;2.10783982277;0.869029760361;0.0327589437366;1
347;1449482770;2.10823225975;0.869024097919;0.0332606360316;1
348;1449482770;2.10766530037;0.869149267673;0.0332432352006;1
349;1449482770;2.10776090622;0.868486702442;0.0331570208073;1
350;1449482770;2.10831522942;0.869011282921;0.0334160663188;1
351;1449482770;2.10814619064;0.869198083878;0.0331221632659;1
352;1449482770;2.10778665543;0.8689494133;0.0331584811211;1
353;1449482770;2.10831356049;0.868874907494;0.032985907048;1
354;1449482770;2.10776543617;0.869307816029;0.0332962758839;1
355;1449482770;2.10804891586;0.868974030018;0.0333045013249;1
356;1449482770;2.10830140114;0.86893504858;0.0332115478814;1
357;1449482770;2.10725951195;0.868848085403;0.033525865525;1
358;1449482770;2.10786366463;0.869197666645;0.0332963988185;1
359;1449482770;2.10789704323;0.869106829166;0.0333267636597;1
360;1449482770;2.10767126083;0.869138777256;0.0336111225188;1
361;1449482770;2.10770630836;0.869164407253;0.0339607968926;1
362;1449482770;2.10823321342;0.869008302689;0.0329142473638;1
363;1449482770;2.10811042786;0.868748784065;0.0333305746317;1
364;1449482770;2.10857653618;0.869046032429;0.0331015400589;1
365;1449482770;2.10779833794;0.869243323803;0.0332959294319;1
366;1449482770;2.10826277733;0.86903989315;0.033454477787;1
367;1449482770;2.10786986351;0.868985295296;0.0332289710641;1
368;1449482770;2.10806179047;0.869781136513;0.034444026649;1
369;1449482770;2.10797667503;0.869178473949;0.0334180928767;1
370;1449482770;2.10793447495;0.868782281876;0.0330225601792;1
371;1449482770;2.1083843708;0.869287610054;0.0327177792788;1
372;1449482770;2.10793995857;0.869256913662;0.0329925827682;1
373;1449482770;2.10807013512;0.86901062727;0.0332799740136;1
374;1449482770;2.10780262947;0.869126796722;0.0338955782354;1
375;1449482770;2.10811090469;0.868749380112;0.0333593450487;1
376;1449482770;2.10882043839;0.868854224682;0.0337721295655;1
377;1449482770;2.10825324059;0.869052529335;0.0329925864935;1
378;1449482770;2.10843992233;0.868880927563;0.032973933965;1
379;1449482770;2.10812425613;0.868996798992;0.0333024673164;1
380;1449482770;2.10863280296;0.868811905384;0.0339239612222;1
381;1449482770;2.10770511627;0.869211792946;0.0334396287799;1
382;1449482770;2.10786604881;0.869036614895;0.0339840836823;1
383;1449482770;2.10825490952;0.869058012962;0.0332019329071;1
384;1449482770;2.10796141624;0.868961811066;0.0331973284483;1
385;1449482770;2.10803818703;0.869269788265;0.0332630798221;1
386;1449482770;2.10802483559;0.868968307972;0.0333406515419;1
387;1449482770;2.10812973976;0.868756055832;0.0332111641765;1
388;1449482770;2.10785245895;0.869244337082;0.0332369469106;1
389;1449482770;2.10808134079;0.86900138855;0.0333225131035;1
390;1449482770;2.10806751251;0.868976414204;0.0333279855549;1
391;1449482770;2.1082804203;0.868875265121;0.0330068990588;1
392;1449482770;2.10816335678;0.868943691254;0.0333137512207;1
393;1449482770;2.10820484161;0.868926882744;0.0332252681255;1
394;1449482770;2.10826015472;0.869228422642;0.0332282111049;1
395;1449482770;2.10832190514;0.869105994701;0.0336094908416;1
396;1449482770;2.10789847374;0.86932528019;0.0332428775728;1
397;1449482770;2.10798811913;0.86900383234;0.0332770720124;1
398;1449482770;2.10786676407;0.869146645069;0.0333387479186;1
399;1449482770;2.1080634594;0.868954062462;0.0333415828645;1
400;1449482770;2.10831522942;0.868990302086;0.0328905954957;1
401;1449482770;2.10779809952;0.869211614132;0.0333462283015;1
402;1449482770;2.10791563988;0.86907595396;0.0332448072731;1
403;1449482770;2.10794520378;0.869209825993;0.0333973690867;1
404;1449482770;2.10796809196;0.8693343997;0.0334661304951;1
405;1449482770;2.1080083847;0.869004786015;0.0334025397897;1
406;1449482770;2.1077029705;0.869071960449;0.0336022675037;1
407;1449482770;2.1079595089;0.869342088699;0.0333686433733;1
408;1449482770;2.10791897774;0.869051516056;0.0331562906504;1
409;1449482770;2.10821819305;0.869283854961;0.0336961559951;1
410;1449482770;2.10801124573;0.868942975998;0.0335794277489;1
411;1449482770;2.1077671051;0.869353234768;0.0333973430097;1
412;1449482770;2.10797810555;0.868985533714;0.0333937816322;1
413;1449482770;2.10844826698;0.869117438793;0.0331233479083;1
414;1449482770;2.10812735558;0.869136035442;0.0334430523217;1
415;1449482770;2.10835456848;0.86905092001;0.0328587219119;1
416;1449482770;2.10776734352;0.869202613831;0.0333301126957;1
417;1449482770;2.10825824738;0.868914663792;0.0329988747835;1
418;1449482770;2.10807514191;0.869116842747;0.033440425992;1
419;1449482770;2.10800361633;0.868821203709;0.0331624895334;1
420;1449482770;2.10827350616;0.868803858757;0.0330575853586;1
421;1449482770;2.10805559158;0.869072198868;0.033318143338;1
422;1449482770;2.10776853561;0.869234502316;0.0333258397877;1
423;1449482770;2.10801243782;0.86901652813;0.0333866849542;1
424;1449482770;2.10800790787;0.868991911411;0.033316347748;1
425;1449482770;2.10728216171;0.868827998638;0.0335660390556;1
426;1449482770;2.10841059685;0.868491590023;0.0337613523006;1
427;1449482770;2.1082804203;0.868904232979;0.0331253968179;1
428;1449482770;2.10805225372;0.868917286396;0.0331813842058;1
429;1449482770;2.10801362991;0.869014918804;0.0333621874452;1
430;1449482770;2.10775828362;0.869295477867;0.0332987122238;1
431;1449482770;2.10861039162;0.868515253067;0.0336007475853;1
432;1449482770;2.10827565193;0.868701279163;0.0336591824889;1
433;1449482770;2.10808897018;0.869147777557;0.0333066545427;1
434;1449482770;2.10817480087;0.86891412735;0.0332723483443;1
435;1449482770;2.10815763474;0.868924796581;0.0332955159247;1
436;1449482770;2.10866832733;0.869022905827;0.0331012606621;1
437;1449482770;2.1077105999;0.869395256042;0.0333612002432;1
438;1449482770;2.10791659355;0.868734478951;0.0330790728331;1
439;1449482770;2.10829949379;0.86886292696;0.0334706418216;1
440;1449482770;2.10789775848;0.869331598282;0.0336720496416;1
441;1449482770;2.10812115669;0.869071543217;0.0332844033837;1
442;1449482770;2.10845255852;0.868962943554;0.0329433456063;1
443;1449482771;2.10788226128;0.868987619877;0.0333656072617;2
444;1449482771;2.10820579529;0.868934929371;0.0337417088449;2
445;1449482771;2.10787320137;0.869228363037;0.0339468456805;2
446;1449482771;2.1082816124;0.868906021118;0.0336455665529;2
447;1449482771;2.10817122459;0.868925750256;0.0335619933903;2
448;1449482771;2.10828304291;0.869062364101;0.0331191122532;2
449;1449482771;2.10798001289;0.868899106979;0.0332370772958;2
450;1449482771;2.10725498199;0.868833720684;0.0335247181356;2
451;1449482771;2.10797762871;0.869221806526;0.0332877784967;2
452;1449482771;2.10773420334;0.869333565235;0.0332865901291;2
453;1449482771;2.1080300808;0.869054198265;0.0330080129206;2
454;1449482771;2.10772633553;0.869389593601;0.0330670252442;2
455;1449482771;2.10820126534;0.868820846081;0.0332246050239;2
456;1449482771;2.10825443268;0.868579864502;0.0336024463177;2
457;1449482771;2.10881471634;0.868765354156;0.032798293978;2
458;1449482771;2.10773706436;0.869259417057;0.0332967117429;2
459;1449482771;2.10823154449;0.868819832802;0.0335807427764;2
460;1449482771;2.10809135437;0.86894005537;0.0332377627492;2
461;1449482771;2.10833740234;0.869010984898;0.0330378599465;2
462;1449482771;2.10840916634;0.868944525719;0.0330781675875;2
463;1449482771;2.10786604881;0.869357943535;0.0333500057459;2
464;1449482771;2.10859012604;0.868700504303;0.0331114456058;2
465;1449482771;2.10813951492;0.868892133236;0.0333379097283;2
466;1449482771;2.10772657394;0.869291186333;0.0332837477326;2
467;1449482771;2.10792565346;0.869088411331;0.0332634039223;2
468;1449482771;2.10793495178;0.869097232819;0.0329392924905;2
469;1449482771;2.10787081718;0.868958294392;0.0332278013229;2
470;1449482771;2.10879254341;0.868875741959;0.0339109487832;2
471;1449482771;2.10810303688;0.868956029415;0.03329725191;2
472;1449482771;2.10829377174;0.868919312954;0.0331473201513;2
473;1449482771;2.10814738274;0.868920922279;0.0332306809723;2
474;1449482771;2.1084523201;0.868796050549;0.0330790020525;2
475;1449482771;2.10793614388;0.868893265724;0.0331937968731;2
476;1449482771;2.10803031921;0.869548618793;0.0331927724183;2
477;1449482771;2.108096838;0.869339168072;0.032961986959;2
478;1449482771;2.10875916481;0.868553161621;0.0329677760601;2
479;1449482771;2.10835695267;0.869320869446;0.0336839705706;2
480;1449482771;2.10824656487;0.869318783283;0.0336872749031;2
481;1449482771;2.10803937912;0.869203686714;0.0332530923188;2
482;1449482771;2.10801839828;0.868968069553;0.0333179272711;2
483;1449482771;2.10817193985;0.869202256203;0.0331490896642;2
484;1449482771;2.10777378082;0.86929756403;0.0333162657917;2
485;1449482771;2.10818982124;0.869071185589;0.0333934091032;2
486;1449482771;2.10789036751;0.868993163109;0.0332437232137;2
487;1449482771;2.10786747932;0.869102597237;0.0333239808679;2
488;1449482771;2.10805392265;0.869020819664;0.0331774428487;2
489;1449482771;2.10833406448;0.868962526321;0.033116530627;2
490;1449482771;2.10818338394;0.868896484375;0.033253505826;2
491;1449482771;2.10830426216;0.869048118591;0.0333480238914;2
492;1449482771;2.10755181313;0.869186758995;0.0332584530115;2
493;1449482771;2.10847043991;0.868826746941;0.0329125933349;2
494;1449482771;2.1085395813;0.868912041187;0.0328378118575;2
495;1449482771;2.10803842545;0.869136154652;0.0332536622882;2
496;1449482771;2.1077208519;0.869261622429;0.0333127602935;2
497;1449482771;2.10772967339;0.869249403477;0.0332915969193;2
498;1449482771;2.10778617859;0.869291424751;0.0333279706538;2
499;1449482771;2.1083214283;0.868899524212;0.0330834463239;2
500;1449482771;2.10847854614;0.868945360184;0.0331673957407;2
501;1449482771;2.10815477371;0.868894457817;0.0334536135197;2
502;1449482771;2.10821342468;0.868904650211;0.0332702323794;2
503;1449482771;2.10815739632;0.868859350681;0.0332540906966;2
504;1449482771;2.10846686363;0.868574023247;0.0336168296635;2
505;1449482771;2.1081635952;0.868990659714;0.0333759114146;2
506;1449482771;2.10797262192;0.868607580662;0.0332267358899;2
507;1449482771;2.10725545883;0.86882185936;0.0335605815053;2
508;1449482771;2.10857629776;0.868532538414;0.0336034931242;2
509;1449482771;2.10791730881;0.869091570377;0.0339025221765;2
510;1449482771;2.10726380348;0.868805587292;0.0335532426834;2
511;1449482771;2.10810542107;0.86896777153;0.033333837986;2
512;1449482771;2.1086192131;0.868808865547;0.0331431217492;2
513;1449482771;2.10806798935;0.869043886662;0.0331645905972;2
514;1449482771;2.10774254799;0.869250893593;0.033335570246;2
515;1449482771;2.10780072212;0.869154393673;0.0330542251468;2
516;1449482771;2.10807538033;0.868660211563;0.0331599526107;2
517;1449482771;2.10826539993;0.868754446507;0.0335208401084;2
518;1449482771;2.10806298256;0.868759095669;0.0332098416984;2
519;1449482771;2.10845327377;0.869056522846;0.0328340940177;2
520;1449482771;2.10776805878;0.869330585003;0.0333324074745;2
521;1449482771;2.10820555687;0.86908519268;0.0334793366492;2
522;1449482771;2.10799002647;0.869129896164;0.0330604985356;2
523;1449482771;2.1079223156;0.869164288044;0.033352188766;2
524;1449482771;2.10811710358;0.869417726994;0.0332975387573;2
525;1449482771;2.10794091225;0.868974804878;0.0334554500878;2
526;1449482771;2.10773921013;0.869349062443;0.0333313830197;2
527;1449482771;2.10827493668;0.868852615356;0.0333637483418;2
528;1449482771;2.10779094696;0.869253516197;0.0333243459463;2
529;1449482771;2.10892033577;0.868246436119;0.0332565940917;2
530;1449482771;2.10777831078;0.869270920753;0.0331747345626;2
531;1449482771;2.1082470417;0.868666827679;0.033209040761;2
532;1449482771;2.10833787918;0.868854165077;0.0333318710327;2
533;1449482771;2.10828733444;0.868952155113;0.0329431630671;2
534;1449482771;2.10796070099;0.869087398052;0.0333757214248;2
535;1449482771;2.10811591148;0.868969678879;0.0333258807659;2
536;1449482771;2.10788607597;0.869346141815;0.0337243117392;2
537;1449482771;2.10818219185;0.868911743164;0.0333027690649;2
538;1449482771;2.10815191269;0.869162857533;0.0337979160249;2
539;1449482771;2.10814213753;0.869000554085;0.033361800015;2
540;1449482771;2.10799646378;0.869293808937;0.0329556018114;2
541;1449482771;2.1079428196;0.86897200346;0.0329209454358;2
542;1449482771;2.10783910751;0.869217514992;0.0333791635931;2
543;1449482771;2.10779070854;0.869257092476;0.0333353318274;2
544;1449482771;2.10780262947;0.869270920753;0.0333346612751;2
545;1449482771;2.1072640419;0.868824958801;0.0335432142019;2
546;1449482771;2.10819077492;0.869186043739;0.033219140023;2
547;1449482771;2.10790467262;0.869084596634;0.033274166286;2
548;1449482771;2.10806250572;0.869210839272;0.0335896611214;2
549;1449482771;2.1079621315;0.869030058384;0.0333544537425;2
550;1449482771;2.10793328285;0.869106292725;0.0332699790597;2
551;1449482771;2.10795164108;0.869009613991;0.033349826932;2
552;1449482771;2.10796976089;0.868968307972;0.0333222746849;2
553;1449482771;2.10828709602;0.868912518024;0.0332231558859;2
554;1449482771;2.10754275322;0.868747770786;0.033956117928;2
555;1449482771;2.10840845108;0.868934452534;0.0331413522363;2
556;1449482771;2.10769033432;0.869229853153;0.0332934074104;2
557;1449482771;2.10845041275;0.869051456451;0.0331294797361;2
558;1449482771;2.10794854164;0.868919432163;0.0333288796246;2
559;1449482771;2.10783791542;0.868898272514;0.0330971963704;2
560;1449482771;2.10819935799;0.86849707365;0.0335314683616;2
561;1449482771;2.1079556942;0.869004905224;0.0333447977901;2
562;1449482771;2.10868597031;0.868558287621;0.0332333408296;2
563;1449482771;2.10725188255;0.868816375732;0.0335132181644;2
564;1449482771;2.10804843903;0.869287073612;0.0331177935004;2
565;1449482771;2.10777711868;0.869282245636;0.0332939252257;2
566;1449482771;2.10855007172;0.868847668171;0.0329891406;2
567;1449482771;2.10798573494;0.869205594063;0.0333730839193;2
568;1449482771;2.10796570778;0.869193792343;0.0333039201796;2
569;1449482771;2.10817432404;0.868917822838;0.0330216139555;2
570;1449482771;2.10823154449;0.869498372078;0.0331832021475;2
571;1449482771;2.10815191269;0.869081139565;0.033455979079;2
572;1449482771;2.10807871819;0.869096755981;0.032897606492;2
573;1449482771;2.10795998573;0.868973970413;0.0333271324635;2
574;1449482771;2.10785245895;0.869041204453;0.0332170315087;2
575;1449482771;2.10784363747;0.869249343872;0.0330971367657;2
576;1449482771;2.10798573494;0.868789494038;0.0330300033092;2
577;1449482771;2.10765123367;0.869259238243;0.0334188453853;2
578;1449482771;2.10789608955;0.869328737259;0.0335748046637;2
579;1449482771;2.1080327034;0.869041383266;0.0331066846848;2
580;1449482771;2.10788106918;0.869240403175;0.0332936905324;2
581;1449482771;2.10828638077;0.868820726871;0.0329970307648;2
582;1449482771;2.10785531998;0.868957340717;0.0332115851343;2
583;1449482771;2.10825300217;0.868805587292;0.0332650691271;2
584;1449482771;2.10835027695;0.868721365929;0.0332563556731;2
585;1449482771;2.1081328392;0.8690341115;0.0333427414298;2
586;1449482771;2.10841727257;0.868846356869;0.0327738858759;2
587;1449482771;2.10847997665;0.868585169315;0.0330226831138;2
588;1449482771;2.10805392265;0.869100213051;0.033376198262;2
589;1449482771;2.10821056366;0.869026303291;0.0332262776792;2
590;1449482771;2.10802149773;0.86897623539;0.0333450958133;2
591;1449482771;2.10724902153;0.868836581707;0.0335182733834;2
592;1449482771;2.10724854469;0.868822395802;0.0335151590407;2
593;1449482771;2.108076334;0.869077563286;0.0330314561725;2
594;1449482771;2.10830640793;0.868755936623;0.0331922657788;2
595;1449482771;2.10724139214;0.868828356266;0.0335282236338;2
596;1449482771;2.10822534561;0.868893623352;0.0332819931209;2
597;1449482771;2.10828757286;0.86924892664;0.0329857505858;2
598;1449482771;2.10803747177;0.869090616703;0.0329951941967;2
599;1449482771;2.10797524452;0.869013845921;0.033355306834;2
600;1449482771;2.10805892944;0.869572937489;0.0334014706314;2
601;1449482771;2.10792541504;0.869271278381;0.0333256050944;2
602;1449482771;2.10812020302;0.868868649006;0.0329957343638;2
603;1449482771;2.10755109787;0.869497001171;0.0332276448607;2
604;1449482771;2.10831856728;0.868718326092;0.0332523360848;2
605;1449482771;2.10831403732;0.868842959404;0.0334415920079;2
606;1449482771;2.10804891586;0.869180798531;0.0331391096115;2
607;1449482771;2.10820436478;0.869096517563;0.0331017561257;2
608;1449482771;2.10725426674;0.868822991848;0.0335368141532;2
609;1449482771;2.10856151581;0.868616223335;0.0328864492476;2
610;1449482771;2.10793304443;0.868994772434;0.0332497656345;2
611;1449482771;2.10808801651;0.868996798992;0.0334141477942;2
612;1449482771;2.10773611069;0.869243323803;0.0333095379174;2
613;1449482771;2.10800004005;0.869248867035;0.033107150346;2
614;1449482771;2.10725688934;0.868820846081;0.0335577614605;2
615;1449482771;2.10797524452;0.868952274323;0.033375300467;2
616;1449482771;2.10807156563;0.869006454945;0.033089607954;2
617;1449482771;2.10805726051;0.868858098984;0.0332276597619;2
618;1449482771;2.10814595222;0.868748366833;0.0330225862563;2
619;1449482771;2.10798597336;0.869072139263;0.0329633913934;2
620;1449482771;2.10798120499;0.868955254555;0.0333333536983;2
621;1449482771;2.10775732994;0.869242072105;0.0333198569715;2
622;1449482771;2.10777187347;0.869217455387;0.0333187095821;2
623;1449482771;2.10814547539;0.868927776814;0.0332564674318;2
624;1449482771;2.10807943344;0.86897778511;0.0329236239195;2
625;1449482771;2.10792684555;0.869083225727;0.033289603889;2
626;1449482771;2.10861039162;0.869469225407;0.032780200243;2
627;1449482771;2.1079120636;0.869173169136;0.0330973565578;2
628;1449482771;2.10832953453;0.868667125702;0.0332944616675;2
629;1449482771;2.10803818703;0.868949472904;0.0333245843649;2
630;1449482771;2.10789680481;0.868716299534;0.0333688333631;2
631;1449482771;2.10792064667;0.869214475155;0.0332922898233;2
632;1449482771;2.10822534561;0.868801355362;0.0340550765395;2
633;1449482771;2.10821509361;0.869132697582;0.033011905849;2
634;1449482771;2.10841441154;0.868858456612;0.0328099355102;2
635;1449482771;2.10822200775;0.869100749493;0.0331344045699;2
636;1449482771;2.10796546936;0.868949592113;0.0333463251591;2
637;1449482771;2.10793805122;0.868736386299;0.0330625064671;2
638;1449482771;2.10781335831;0.868682384491;0.0330988951027;2
639;1449482771;2.10800337791;0.869064092636;0.0333314090967;2
640;1449482771;2.10760307312;0.86973965168;0.0340287424624;2
641;1449482771;2.10810923576;0.868904948235;0.0332716628909;2
642;1449482771;2.10807871819;0.869139134884;0.033751796931;2
643;1449482771;2.10827946663;0.868662655354;0.0328861363232;2
644;1449482771;2.10835671425;0.869025528431;0.0334436744452;2
645;1449482771;2.10806155205;0.869130194187;0.0334913469851;2
646;1449482771;2.1078004837;0.869174838066;0.0333590805531;2
647;1449482771;2.10837888718;0.868908822536;0.0328239835799;2
648;1449482771;2.10785055161;0.869116961956;0.0331021770835;2
649;1449482771;2.10776972771;0.869092941284;0.0329499468207;2
650;1449482771;2.10808849335;0.868865013123;0.0332775972784;2
651;1449482771;2.10802054405;0.869177818298;0.0334334298968;2
652;1449482771;2.10786414146;0.868841052055;0.0330175682902;2
653;1449482771;2.10782051086;0.868963778019;0.0332584120333;2
654;1449482771;2.10810494423;0.869202435017;0.0331555306911;2
655;1449482771;2.10801768303;0.869103610516;0.0332590565085;2
656;1449482771;2.10772204399;0.869057834148;0.0330460481346;2
657;1449482771;2.10818505287;0.868549287319;0.0335249565542;2
658;1449482771;2.10802745819;0.869179725647;0.0331242419779;2
659;1449482771;2.10814905167;0.869185328484;0.0332796089351;2
660;1449482771;2.10772657394;0.869219660759;0.0331843160093;2
661;1449482771;2.10837769508;0.868835330009;0.0334211140871;2
662;1449482771;2.10794496536;0.868982672691;0.0333717949688;2
663;1449482771;2.10774159431;0.869263827801;0.0327981077135;2
664;1449482771;2.10819101334;0.868899643421;0.0327777452767;2
665;1449482771;2.10798788071;0.869142413139;0.0333931446075;2
666;1449482771;2.10836315155;0.869081020355;0.0334490202367;2
667;1449482771;2.10825562477;0.868871092796;0.0334588624537;2
668;1449482771;2.10864138603;0.868485450745;0.0329286046326;2
669;1449482771;2.10802078247;0.869240880013;0.0329276956618;2
670;1449482771;2.10771012306;0.869110047817;0.0329017415643;2
671;1449482771;2.10851740837;0.868860185146;0.0332927852869;2
672;1449482771;2.10738945007;0.869314074516;0.0339544005692;2
673;1449482771;2.10837745667;0.86941498518;0.033296264708;2
674;1449482771;2.10805749893;0.869321405888;0.0331217236817;2
675;1449482771;2.10802364349;0.868783473969;0.0330067314208;2
676;1449482771;2.10807490349;0.869129061699;0.0330544449389;2
677;1449482771;2.10777115822;0.868940293789;0.032998688519;2
678;1449482771;2.10802030563;0.869016110897;0.0333385616541;2
679;1449482771;2.10771870613;0.869310975075;0.032593626529;2
680;1449482771;2.10811877251;0.868986904621;0.0332800149918;2
681;1449482771;2.10804438591;0.868966281414;0.0331245474517;2
682;1449482771;2.10790944099;0.869298934937;0.0333700291812;2
683;1449482772;2.10810852051;0.869140744209;0.0330556482077;3
684;1449482772;2.10793018341;0.868983566761;0.0329967737198;3
685;1449482772;2.10805535316;0.868840873241;0.0330546572804;3
686;1449482772;2.10825037956;0.868655502796;0.0335494615138;3
687;1449482772;2.10877466202;0.868685364723;0.0336062386632;3
688;1449482772;2.10794401169;0.86918002367;0.0333548635244;3
689;1449482772;2.1081738472;0.869008898735;0.0331356339157;3
690;1449482772;2.10800981522;0.869226038456;0.0325911045074;3
691;1449482772;2.10792899132;0.869107067585;0.0332604907453;3
692;1449482772;2.10820007324;0.86856251955;0.0333859063685;3
693;1449482772;2.10835313797;0.868947267532;0.0327503047884;3
694;1449482772;2.10800695419;0.869305670261;0.0333259440958;3
695;1449482772;2.10815048218;0.868908703327;0.033248398453;3
696;1449482772;2.10808420181;0.869163691998;0.0333039499819;3
697;1449482772;2.1082110405;0.868951916695;0.0341326147318;3
698;1449482772;2.10812544823;0.869037091732;0.0331642329693;3
699;1449482772;2.10841703415;0.868718802929;0.0328803211451;3
700;1449482772;2.10823774338;0.869743108749;0.0331714041531;3
701;1449482772;2.10783147812;0.869283437729;0.0333207435906;3
702;1449482772;2.10834980011;0.869509637356;0.0333787426353;3
703;1449482772;2.10836267471;0.86947876215;0.0334159247577;3
704;1449482772;2.10804533958;0.868970274925;0.0333164893091;3
705;1449482772;2.1083521843;0.869006991386;0.0330036319792;3
706;1449482772;2.10838770866;0.869175672531;0.0335391238332;3
707;1449482772;2.10796070099;0.868939995766;0.0332939811051;3
708;1449482772;2.10833787918;0.868625998497;0.0333873294294;3
709;1449482772;2.1084356308;0.868710577488;0.0327595211565;3
710;1449482772;2.1079659462;0.869093358517;0.0332904532552;3
711;1449482772;2.10793304443;0.869236290455;0.0332946069539;3
712;1449482772;2.10797333717;0.869082629681;0.0333480909467;3
713;1449482772;2.10798668861;0.869091033936;0.0333207808435;3
714;1449482772;2.10808253288;0.869004547596;0.0333244875073;3
715;1449482772;2.10777425766;0.869301974773;0.0333089195192;3
716;1449482772;2.10789299011;0.869261920452;0.0333516746759;3
717;1449482772;2.10810399055;0.868969738483;0.0330188535154;3
718;1449482772;2.10806250572;0.869326174259;0.0331050045788;3
719;1449482772;2.10726428032;0.868828117847;0.0335515774786;3
720;1449482772;2.10773015022;0.869429588318;0.0333634614944;3
721;1449482772;2.10786318779;0.868965923786;0.0332404747605;3
722;1449482772;2.1080493927;0.869006514549;0.0330180004239;3
723;1449482772;2.1072769165;0.868831336498;0.0335524864495;3
724;1449482772;2.10800433159;0.868987202644;0.0333559438586;3
725;1449482772;2.10815429688;0.869118452072;0.0329868532717;3
726;1449482772;2.10797834396;0.869038403034;0.0333133451641;3
727;1449482772;2.10811805725;0.868933975697;0.0333166569471;3
728;1449482772;2.10775780678;0.869238078594;0.0333282612264;3
729;1449482772;2.10787296295;0.868782877922;0.0330407544971;3
730;1449482772;2.10840272903;0.868904352188;0.0330723337829;3
731;1449482772;2.10830450058;0.868775486946;0.0333182327449;3
732;1449482772;2.10798597336;0.868982851505;0.0334056429565;3
733;1449482772;2.10805511475;0.869097709656;0.0334808677435;3
734;1449482772;2.10796642303;0.868996441364;0.0333948358893;3
735;1449482772;2.10826992989;0.868905246258;0.0345711372793;3
736;1449482772;2.10792517662;0.869158148766;0.0336593948305;3
737;1449482772;2.10807681084;0.869109153748;0.033272318542;3
738;1449482772;2.10796451569;0.868972063065;0.0334092825651;3
739;1449482772;2.10797071457;0.869320988655;0.0336628034711;3
740;1449482772;2.10840964317;0.869420349598;0.0330988802016;3
741;1449482772;2.10776758194;0.869348406792;0.0333726704121;3
742;1449482772;2.10816049576;0.868932008743;0.0332361161709;3
743;1449482772;2.10767626762;0.869346737862;0.0340472534299;3
744;1449482772;2.10805940628;0.868952929974;0.0333567559719;3
745;1449482772;2.10793352127;0.869328081608;0.0335901640356;3
746;1449482772;2.10817694664;0.869203865528;0.033362776041;3
747;1449482772;2.10807585716;0.869127333164;0.0332794412971;3
748;1449482772;2.10806846619;0.869000256062;0.033301718533;3
749;1449482772;2.1076734066;0.869273483753;0.0333984605968;3
750;1449482772;2.10783076286;0.869328856468;0.0333825387061;3
751;1449482772;2.10826826096;0.869258463383;0.0327884964645;3
752;1449482772;2.10808730125;0.869086921215;0.0333407893777;3
753;1449482772;2.10788416862;0.869254291058;0.0333911292255;3
754;1449482772;2.10821509361;0.868859529495;0.0332714579999;3
755;1449482772;2.10780239105;0.869285106659;0.0332736633718;3
756;1449482772;2.1083381176;0.868813514709;0.0334567353129;3
757;1449482772;2.10790061951;0.869184672832;0.0335926152766;3
758;1449482772;2.10822200775;0.86918336153;0.0333749353886;3
759;1449482772;2.10771131516;0.869340956211;0.0333245657384;3
760;1449482772;2.10776209831;0.869118392467;0.0331657528877;3
761;1449482772;2.10814189911;0.869320869446;0.0331046283245;3
762;1449482772;2.10726165771;0.868822753429;0.0335632748902;3
763;1449482772;2.10814237595;0.86902654171;0.0333686731756;3
764;1449482772;2.10725498199;0.868825495243;0.0335671044886;3
765;1449482772;2.10820317268;0.868892610073;0.0328173153102;3
766;1449482772;2.10816407204;0.869212150574;0.03338785097;3
767;1449482772;2.10883617401;0.86844176054;0.0338299870491;3
768;1449482772;2.10864925385;0.868702709675;0.0333863981068;3
769;1449482772;2.10803985596;0.868990778923;0.033373337239;3
770;1449482772;2.10820031166;0.869053125381;0.0331195369363;3
771;1449482772;2.10819578171;0.869061887264;0.033215790987;3
772;1449482772;2.10787296295;0.869236826897;0.0333257131279;3
773;1449482772;2.10825562477;0.868852138519;0.0332852527499;3
774;1449482772;2.10779905319;0.869391977787;0.0331654064357;3
775;1449482772;2.10816478729;0.868955612183;0.0331718958914;3
776;1449482772;2.10872626305;0.868899405003;0.0330501459539;3
777;1449482772;2.10834145546;0.86892747879;0.0332446470857;3
778;1449482772;2.1077876091;0.86920696497;0.0333053506911;3
779;1449482772;2.10849261284;0.868914604187;0.0330263450742;3
780;1449482772;2.10811948776;0.869208693504;0.0332809798419;3
781;1449482772;2.10802912712;0.868915975094;0.0332266539335;3
782;1449482772;2.10840892792;0.86859703064;0.0331713669002;3
783;1449482772;2.10726308823;0.868819475174;0.0335408002138;3
784;1449482772;2.10796070099;0.869150042534;0.0333688221872;3
785;1449482772;2.10793828964;0.869277894497;0.0332719758153;3
786;1449482772;2.10768532753;0.869285166264;0.0334178730845;3
787;1449482772;2.10820889473;0.868945717812;0.0331945084035;3
788;1449482772;2.10809779167;0.869027972221;0.0330942198634;3
789;1449482772;2.10816764832;0.868890464306;0.0329054445028;3
790;1449482772;2.10821700096;0.869124114513;0.0329592488706;3
791;1449482772;2.10771942139;0.869332432747;0.0332826673985;3
792;1449482772;2.10809135437;0.868903636932;0.0329583510756;3
793;1449482772;2.10801529884;0.869089603424;0.0332758910954;3
794;1449482772;2.1081776619;0.868950009346;0.033502958715;3
795;1449482772;2.10800409317;0.869089007378;0.0333669707179;3
796;1449482772;2.10833907127;0.868929982185;0.0330285765231;3
797;1449482772;2.1081237793;0.869348704815;0.033030115068;3
798;1449482772;2.10799717903;0.869001924992;0.0333086177707;3
799;1449482772;2.10782146454;0.869287252426;0.0332841835916;3
800;1449482772;2.10844159126;0.868290662766;0.0331122763455;3
801;1449482772;2.10834002495;0.86870008707;0.0335563346744;3
802;1449482772;2.10810136795;0.868942201138;0.0332531481981;3
803;1449482772;2.10817980766;0.869462549686;0.0334547571838;3
804;1449482772;2.10800504684;0.869200289249;0.0333988144994;3
805;1449482772;2.10846424103;0.868846535683;0.0335219837725;3
806;1449482772;2.10796165466;0.868825912476;0.0332384034991;3
807;1449482772;2.10830259323;0.868971347809;0.0331300571561;3
808;1449482772;2.1080019474;0.869073748589;0.033153090626;3
809;1449482772;2.10808348656;0.86911970377;0.0332822389901;3
810;1449482772;2.10806298256;0.868898510933;0.0333115980029;3
811;1449482772;2.1086909771;0.869086742401;0.0330896265805;3
812;1449482772;2.10793590546;0.868991017342;0.0333446152508;3
813;1449482772;2.10814237595;0.86865401268;0.0330543145537;3
814;1449482772;2.10789465904;0.868791997433;0.0330208018422;3
815;1449482772;2.10793590546;0.868977665901;0.0333369299769;3
816;1449482772;2.10781216621;0.869013726711;0.0330430977046;3
817;1449482772;2.10823917389;0.869007885456;0.0332771167159;3
818;1449482772;2.10804176331;0.8692933321;0.0334167443216;3
819;1449482772;2.1076900959;0.869338929653;0.0332830660045;3
820;1449482772;2.1081199646;0.868897676468;0.0332568734884;3
821;1449482772;2.10812783241;0.868939578533;0.0332727022469;3
822;1449482772;2.10725259781;0.868818700314;0.0335217639804;3
823;1449482772;2.10833787918;0.868925571442;0.0331813730299;3
824;1449482772;2.10842490196;0.869105696678;0.0329811312258;3
825;1449482772;2.10808634758;0.868931472301;0.0332825556397;3
826;1449482772;2.10809421539;0.868973076344;0.0331284999847;3
827;1449482772;2.1078979969;0.869104743004;0.0328582413495;3
828;1449482772;2.10789632797;0.869093298912;0.033275488764;3
829;1449482772;2.1083843708;0.868894457817;0.0332758575678;3
830;1449482772;2.10848021507;0.868960916996;0.0330966003239;3
831;1449482772;2.10807776451;0.868959009647;0.0332546643913;3
832;1449482772;2.1077773571;0.869271278381;0.0333108119667;3
833;1449482772;2.10822558403;0.869085788727;0.0331980995834;3
834;1449482772;2.10789251328;0.86908185482;0.0332729779184;3
835;1449482772;2.10840749741;0.868783652782;0.0331351198256;3
836;1449482772;2.10794091225;0.868984997272;0.03328743577;3
837;1449482772;2.10832428932;0.868674278259;0.0329137854278;3
838;1449482772;2.10785841942;0.869098067284;0.0332597121596;3
839;1449482772;2.10850214958;0.868807196617;0.033173263073;3
840;1449482772;2.10790777206;0.868846774101;0.033058129251;3
841;1449482772;2.10810160637;0.868904650211;0.0332014784217;3
842;1449482772;2.10830497742;0.868561387062;0.0333413593471;3
843;1449482772;2.10810923576;0.868902921677;0.0332777872682;3
844;1449482772;2.10808181763;0.868735849857;0.0333652943373;3
845;1449482772;2.10836458206;0.868826210499;0.0334998182952;3
846;1449482772;2.10839605331;0.86941587925;0.0329858288169;3
847;1449482772;2.10789656639;0.869158923626;0.0331915095448;3
848;1449482772;2.1082649231;0.869008004665;0.0329244099557;3
849;1449482772;2.10815382004;0.868788301945;0.0334701985121;3
850;1449482772;2.10814762115;0.869028806686;0.0333148762584;3
851;1449482772;2.10820484161;0.868950486183;0.0328629873693;3
852;1449482772;2.1079390049;0.868775844574;0.0328756459057;3
853;1449482772;2.10862565041;0.868778884411;0.0339613035321;3
854;1449482772;2.10776972771;0.868959486485;0.0338372662663;3
855;1449482772;2.10820436478;0.869155049324;0.0336008705199;3
856;1449482772;2.10784006119;0.869099080563;0.0327664874494;3
857;1449482772;2.10877394676;0.86841827631;0.0332011580467;3
858;1449482772;2.10793590546;0.868888378143;0.0331277959049;3
859;1449482772;2.10775756836;0.869376599789;0.0331536233425;3
860;1449482772;2.10800623894;0.868921995163;0.0333425290883;3
861;1449482772;2.10837984085;0.868849098682;0.0336952470243;3
862;1449482772;2.10828661919;0.868882954121;0.0332670211792;3
863;1449482772;2.10822963715;0.86899715662;0.0334846153855;3
864;1449482772;2.10835886002;0.868861079216;0.032810933888;3
865;1449482772;2.10754919052;0.869383692741;0.033712323755;3
866;1449482772;2.10833287239;0.869193315506;0.0335249491036;3
867;1449482772;2.10838055611;0.869093358517;0.0335443355143;3
868;1449482772;2.10788416862;0.868922352791;0.034901060164;3
869;1449482772;2.10787272453;0.869233071804;0.0333413183689;3
870;1449482772;2.10815930367;0.868895232677;0.0333183296025;3
871;1449482772;2.10826277733;0.868848562241;0.0332105234265;3
872;1449482772;2.10787534714;0.869186401367;0.0334332101047;3
873;1449482772;2.10826778412;0.869361042976;0.0329961962998;3
874;1449482772;2.10811495781;0.868667423725;0.0335847474635;3
875;1449482772;2.10800600052;0.868757486343;0.0331638418138;3
876;1449482772;2.1081571579;0.869183003902;0.0334584973752;3
877;1449482772;2.10850977898;0.869027495384;0.0331869646907;3
878;1449482772;2.10831189156;0.868924319744;0.0332788527012;3
879;1449482772;2.10823154449;0.869163572788;0.0334497094154;3
880;1449482772;2.10805344582;0.868961691856;0.0333754792809;3
881;1449482772;2.10812854767;0.868940472603;0.0333327651024;3
882;1449482772;2.10784173012;0.869348824024;0.0333661474288;3
883;1449482772;2.10811209679;0.868966400623;0.0333548076451;3
884;1449482772;2.10808777809;0.869416058064;0.0332042202353;3
885;1449482772;2.10802388191;0.869014501572;0.0333813801408;3
886;1449482772;2.10837817192;0.868733525276;0.0329576954246;3
887;1449482772;2.10838937759;0.869033455849;0.03302128613;3
888;1449482772;2.1078710556;0.869205653667;0.0333654098213;3
889;1449482772;2.10796403885;0.868981182575;0.0332510285079;3
890;1449482772;2.10800981522;0.869158148766;0.0330215170979;3
891;1449482772;2.10819935799;0.869299590588;0.0337604694068;3
892;1449482772;2.1081161499;0.869095921516;0.0333927832544;3
893;1449482772;2.10801386833;0.868968844414;0.0333387441933;3
894;1449482772;2.10780835152;0.869326710701;0.0333015546203;3
895;1449482772;2.10795664787;0.868956327438;0.0329784825444;3
896;1449482772;2.10826325417;0.868799686432;0.0334344543517;3
897;1449482772;2.10821270943;0.868862271309;0.0333129838109;3
898;1449482772;2.1076939106;0.869257509708;0.0332739055157;3
899;1449482772;2.10820674896;0.869267880917;0.0331239625812;3
900;1449482772;2.10837197304;0.868936300278;0.0333845168352;3
901;1449482772;2.10859870911;0.868844687939;0.0330496989191;3
902;1449482772;2.10825109482;0.86889487505;0.0329994745553;3
903;1449482772;2.10808968544;0.869065582752;0.0333745889366;3
904;1449482772;2.10818219185;0.868796348572;0.0331095941365;3
905;1449482772;2.10810184479;0.868989765644;0.0332873277366;3
906;1449482772;2.10791230202;0.868374526501;0.0334927178919;3
907;1449482772;2.10815119743;0.869154274464;0.0333259925246;3
908;1449482772;2.10803699493;0.869098782539;0.0332944095135;3
909;1449482772;2.10789132118;0.869248270988;0.0333380736411;3
910;1449482772;2.10802102089;0.869124889374;0.032873891294;3
911;1449482772;2.10804271698;0.869078576565;0.0335300900042;3
912;1449482772;2.10828542709;0.868835866451;0.0329832471907;3
913;1449482772;2.10724544525;0.868817746639;0.033517729491;3
914;1449482772;2.10798811913;0.868879139423;0.033242456615;3
915;1449482772;2.10795497894;0.868985712528;0.0333469510078;3
916;1449482772;2.10797762871;0.869592428207;0.0330041386187;3
917;1449482772;2.10826277733;0.868860542774;0.0336361378431;3
918;1449482772;2.10801768303;0.869277775288;0.0333060435951;3
919;1449482772;2.1079480648;0.869054973125;0.033281404525;3
920;1449482772;2.1079390049;0.869014978409;0.033385746181;3
921;1449482772;2.10837721825;0.8686632514;0.0335597172379;3
922;1449482772;2.10798239708;0.869058012962;0.0332823880017;3
923;1449482773;2.108045578;0.86907851696;0.033351700753;4
924;1449482773;2.10836243629;0.868860840797;0.0334593653679;4
925;1449482773;2.108314991;0.869246780872;0.0327732898295;4
926;1449482773;2.10814571381;0.86909288168;0.0331129208207;4
927;1449482773;2.10797977448;0.869103848934;0.0332241952419;4
928;1449482773;2.10829901695;0.868897259235;0.0332099795341;4
929;1449482773;2.10829162598;0.868751049042;0.0332063511014;4
930;1449482773;2.10831594467;0.869113683701;0.033470377326;4
931;1449482773;2.1077477932;0.869361937046;0.0332841575146;4
932;1449482773;2.10807728767;0.86957526207;0.0339609235525;4
933;1449482773;2.10779929161;0.869208872318;0.0332940705121;4
934;1449482773;2.10813069344;0.869279623032;0.0331727638841;4
935;1449482773;2.10838198662;0.869447112083;0.0333897918463;4
936;1449482773;2.10780119896;0.86940908432;0.0329361148179;4
937;1449482773;2.10825276375;0.869341731071;0.032662589103;4
938;1449482773;2.10815167427;0.869112789631;0.0325980857015;4
939;1449482773;2.10809659958;0.868954539299;0.0333211198449;4
940;1449482773;2.10814428329;0.868926346302;0.0332994945347;4
941;1449482773;2.10817575455;0.868932127953;0.0332701690495;4
942;1449482773;2.10861825943;0.8690508008;0.0326658077538;4
943;1449482773;2.10791420937;0.869398593903;0.0338586419821;4
944;1449482773;2.10803866386;0.868973195553;0.0333209000528;4
945;1449482773;2.10849952698;0.868674576283;0.0337739288807;4
946;1449482773;2.10808873177;0.869078159332;0.0333209782839;4
947;1449482773;2.10801506042;0.869048833847;0.0333860479295;4
948;1449482773;2.10835671425;0.868969261646;0.0328059494495;4
949;1449482773;2.10821223259;0.869105875492;0.0334222279489;4
950;1449482773;2.10774254799;0.869240283966;0.0333135388792;4
951;1449482773;2.10818839073;0.86906260252;0.0333697348833;4
952;1449482773;2.10813975334;0.868984460831;0.0333042368293;4
953;1449482773;2.10802507401;0.86898458004;0.0334746912122;4
954;1449482773;2.10833764076;0.86899793148;0.0331558585167;4
955;1449482773;2.10821676254;0.869235694408;0.0330195128918;4
956;1449482773;2.10808229446;0.869374930859;0.0331818461418;4
957;1449482773;2.10807466507;0.869179606438;0.0334080643952;4
958;1449482773;2.10780882835;0.86930513382;0.0331960320473;4
959;1449482773;2.10806393623;0.869094014168;0.0329851657152;4
960;1449482773;2.10812497139;0.869247019291;0.0338610596955;4
961;1449482773;2.10795092583;0.869104921818;0.0332863926888;4
962;1449482773;2.10799694061;0.869168639183;0.0330245867372;4
963;1449482773;2.1081392765;0.869057416916;0.0333497896791;4
964;1449482773;2.10834789276;0.869179010391;0.0328817740083;4
965;1449482773;2.10796427727;0.869237542152;0.03340799734;4
966;1449482773;2.10847663879;0.868939638138;0.0334797427058;4
967;1449482773;2.10839629173;0.869112551212;0.0335111580789;4
968;1449482773;2.10781764984;0.869264066219;0.0333521068096;4
969;1449482773;2.10840964317;0.86910623312;0.0335320606828;4
970;1449482773;2.10800933838;0.868938088417;0.0332778021693;4
971;1449482773;2.10792994499;0.869287490845;0.0333479233086;4
972;1449482773;2.10821604729;0.869022250175;0.0331248864532;4
