;Unnamed: 0;header_stamp_secs;pose_position_x;pose_position_y;pose_position_z;seconds;drop_values;flight_number;label;dtw
0;0;1449485517;2.14212322235;0.775256633759;0.0688615143299;0;True;10;2;107.93438780307108
1;1;1449485517;2.1421041488599997;0.775245785713;0.0688707977533;0;True;10;2;107.93438780307108
2;2;1449485517;2.14208698273;0.775389194489;0.068672336638;0;True;10;2;107.93438780307108
3;3;1449485517;2.14187884331;0.775219142437;0.068999864161;0;True;10;2;107.93438780307108
4;4;1449485517;2.1416897773700003;0.775045096874;0.0689674541354;0;True;10;2;107.93438780307108
5;5;1449485517;2.1421391964;0.7752712368970001;0.0688460022211;0;True;10;2;107.93438780307108
6;6;1449485517;2.1420314312;0.775500059128;0.06876913458110001;0;True;10;2;107.93438780307108
7;7;1449485517;2.1420712471;0.775397360325;0.0686514303088;0;True;10;2;107.93438780307108
8;8;1449485517;2.14208817482;0.775386929512;0.0687242820859;0;True;10;2;107.93438780307108
9;9;1449485517;2.1420888900799997;0.775248646736;0.0686504095793;0;True;10;2;107.93438780307108
10;10;1449485517;2.1421194076499996;0.77546018362;0.0686635673046;0;True;10;2;107.93438780307108
11;11;1449485517;2.14207291603;0.775381624699;0.0686447247863;0;True;10;2;107.93438780307108
12;12;1449485517;2.14197540283;0.7753380537029999;0.0686568319798;0;True;10;2;107.93438780307108
13;13;1449485517;2.14221525192;0.7755092978479999;0.06867501139639999;0;True;10;2;107.93438780307108
14;14;1449485517;2.14208698273;0.775393128395;0.0686091035604;0;True;10;2;107.93438780307108
15;15;1449485517;2.14202141762;0.7752445936200001;0.0686568617821;0;True;10;2;107.93438780307108
16;16;1449485517;2.14192867279;0.775331377983;0.068864017725;0;True;10;2;107.93438780307108
17;17;1449485517;2.14184498787;0.775299787521;0.0689244866371;0;True;10;2;107.93438780307108
18;18;1449485517;2.14203381538;0.775346636772;0.06877171248200001;0;True;10;2;107.93438780307108
19;19;1449485517;2.1419968605;0.775336503983;0.0686919391155;0;True;10;2;107.93438780307108
20;20;1449485517;2.14188528061;0.7751895785330001;0.06880857050419999;0;True;10;2;107.93438780307108
21;21;1449485517;2.1420519352;0.775573313236;0.0688787922263;0;True;10;2;107.93438780307108
22;22;1449485517;2.14208173752;0.7754079103470001;0.0686217620969;0;True;10;2;107.93438780307108
23;23;1449485517;2.1419234275799997;0.775403320789;0.0688508749008;0;True;10;2;107.93438780307108
24;24;1449485517;2.14207410812;0.7753936648370001;0.0687008649111;0;True;10;2;107.93438780307108
25;25;1449485517;2.14205169678;0.775486588478;0.0687605366111;0;True;10;2;107.93438780307108
26;26;1449485517;2.1417031288099997;0.775355219841;0.0689909011126;0;True;10;2;107.93438780307108
27;27;1449485517;2.14205813408;0.775278389454;0.06889334321019999;0;True;10;2;107.93438780307108
28;28;1449485517;2.1418910026599995;0.775425136089;0.0688780099154;0;True;10;2;107.93438780307108
29;29;1449485517;2.14186477661;0.775185763836;0.0688447803259;0;True;10;2;107.93438780307108
30;30;1449485517;2.14197993279;0.775474846363;0.0687287822366;0;True;10;2;107.93438780307108
31;31;1449485517;2.1420893669099996;0.775392234325;0.06865964829919999;0;True;10;2;107.93438780307108
32;32;1449485517;2.14199590683;0.7753808498379999;0.0688789114356;0;True;10;2;107.93438780307108
33;33;1449485517;2.1420755386400003;0.775513470173;0.068778835237;0;True;10;2;107.93438780307108
34;34;1449485517;2.14192271233;0.77539730072;0.06896897405389998;0;True;10;2;107.93438780307108
35;35;1449485517;2.1419928073900003;0.775435507298;0.06882137060169999;0;True;10;2;107.93438780307108
36;36;1449485517;2.1417863369;0.7753320336339999;0.068965703249;0;True;10;2;107.93438780307108
37;37;1449485517;2.14208197594;0.77568924427;0.06873293221;0;True;10;2;107.93438780307108
38;38;1449485517;2.1419076919599997;0.775201499462;0.0689144283533;0;True;10;2;107.93438780307108
39;39;1449485517;2.14209222794;0.775342166424;0.0686957612634;0;True;10;2;107.93438780307108
40;40;1449485517;2.14206671715;0.7752759456630001;0.068945556879;0;True;10;2;107.93438780307108
41;41;1449485517;2.14195561409;0.775249242783;0.0687716677785;0;True;10;2;107.93438780307108
42;42;1449485517;2.14209151268;0.7756672501559999;0.0687878876925;0;True;10;2;107.93438780307108
43;43;1449485517;2.14209699631;0.7753619551659999;0.0687023326755;0;True;10;2;107.93438780307108
44;44;1449485517;2.14168047905;0.775280416012;0.06907711178060001;0;True;10;2;107.93438780307108
45;45;1449485517;2.1420662403099997;0.775359094143;0.0689542815089;0;True;10;2;107.93438780307108
46;46;1449485517;2.14208197594;0.7755202651019999;0.06882146000860001;0;True;10;2;107.93438780307108
47;47;1449485517;2.14203548431;0.7756001949310001;0.0689614713192;0;True;10;2;107.93438780307108
48;48;1449485517;2.14197063446;0.775420308113;0.06900826841589999;0;True;10;2;107.93438780307108
49;49;1449485517;2.14205884933;0.775322198868;0.0688602924347;0;True;10;2;107.93438780307108
50;50;1449485517;2.14201951027;0.775264799595;0.0688868314028;0;True;10;2;107.93438780307108
51;51;1449485517;2.14222025871;0.7757443785670001;0.0688042789698;0;True;10;2;107.93438780307108
52;52;1449485517;2.14211702347;0.775434613228;0.0687499940395;0;True;10;2;107.93438780307108
53;53;1449485517;2.14190578461;0.775369644165;0.06897216290239999;0;True;10;2;107.93438780307108
54;54;1449485517;2.14204692841;0.775272250175;0.06890241056680001;0;True;10;2;107.93438780307108
55;55;1449485517;2.1421289444;0.7754884362219999;0.06873597949739998;0;True;10;2;107.93438780307108
56;56;1449485517;2.14211249352;0.7756298184389999;0.0689740031958;0;True;10;2;107.93438780307108
57;57;1449485517;2.14209318161;0.775407254696;0.06885065138339999;0;True;10;2;107.93438780307108
58;58;1449485517;2.14200854301;0.775570631027;0.068961635232;0;True;10;2;107.93438780307108
59;59;1449485517;2.1420319080400003;0.7753527760510001;0.06899687647819999;0;True;10;2;107.93438780307108
60;60;1449485517;2.14214420319;0.7753561735150001;0.06881725043060001;0;True;10;2;107.93438780307108
61;61;1449485517;2.14196133614;0.7753174304960001;0.0689626708627;0;True;10;2;107.93438780307108
62;62;1449485517;2.14214539528;0.775428414345;0.0687151253223;0;True;10;2;107.93438780307108
63;63;1449485517;2.14195680618;0.775353074074;0.0689959749579;0;True;10;2;107.93438780307108
64;64;1449485517;2.14177155495;0.775234758854;0.0690854415298;0;True;10;2;107.93438780307108
65;65;1449485517;2.1418395042400005;0.775400340557;0.0690464526415;0;True;10;2;107.93438780307108
66;66;1449485517;2.14215993881;0.7753910422329999;0.06872968375680001;0;True;10;2;107.93438780307108
67;67;1449485517;2.14204025269;0.7752535939219999;0.0688234269619;0;True;10;2;107.93438780307108
68;68;1449485517;2.1420443058000003;0.775249063969;0.06904209405180001;0;True;10;2;107.93438780307108
69;69;1449485517;2.14215087891;0.775606632233;0.0687595233321;0;True;10;2;107.93438780307108
70;70;1449485517;2.14205884933;0.775351285934;0.0690261274576;0;True;10;2;107.93438780307108
71;71;1449485517;2.14184498787;0.7750805020329999;0.06889227032660002;0;True;10;2;107.93438780307108
72;72;1449485517;2.14207696915;0.775313973427;0.0689487159252;0;True;10;2;107.93438780307108
73;73;1449485517;2.1421482563;0.775399625301;0.0688052028418;0;True;10;2;107.93438780307108
74;74;1449485517;2.14193201065;0.775250852108;0.0690340921283;0;True;10;2;107.93438780307108
75;75;1449485517;2.14185237885;0.7751763463019999;0.0690153837204;0;True;10;2;107.93438780307108
76;76;1449485517;2.1420075893400004;0.775213897228;0.0689693614841;0;True;10;2;107.93438780307108
77;77;1449485517;2.14215397835;0.7754315137860001;0.0687112957239;0;True;10;2;107.93438780307108
78;78;1449485517;2.14207720757;0.775292754173;0.06884622573850001;0;True;10;2;107.93438780307108
79;79;1449485517;2.1420404911;0.7753547430040001;0.06877216696739999;0;True;10;2;107.93438780307108
80;80;1449485517;2.14214873314;0.775394201279;0.06873457878830001;0;True;10;2;107.93438780307108
81;81;1449485517;2.14217329025;0.775403141975;0.06884100288150001;0;True;10;2;107.93438780307108
82;82;1449485517;2.14213299751;0.775374650955;0.068968385458;0;True;10;2;107.93438780307108
83;83;1449485517;2.14209771156;0.7754941582680001;0.0689557865262;0;True;10;2;107.93438780307108
84;84;1449485517;2.14213180542;0.7753930687899999;0.0687656328082;0;True;10;2;107.93438780307108
85;85;1449485517;2.1419579982799997;0.7753473520280001;0.0689870417118;0;True;10;2;107.93438780307108
86;86;1449485517;2.14203095436;0.775360107422;0.06878291815519999;0;True;10;2;107.93438780307108
87;87;1449485517;2.14196920395;0.775244235992;0.0688916444778;0;True;10;2;107.93438780307108
88;88;1449485517;2.14208865166;0.775282561779;0.0687554180622;0;True;10;2;107.93438780307108
89;89;1449485517;2.1421313285799997;0.7754352688789999;0.0687993094325;0;True;10;2;107.93438780307108
90;90;1449485517;2.14202952385;0.7752855420110001;0.0688725337386;0;True;10;2;107.93438780307108
91;91;1449485517;2.14195680618;0.7752970457080001;0.068933352828;0;True;10;2;107.93438780307108
92;92;1449485517;2.14184165001;0.775208950043;0.0691395625472;0;True;10;2;107.93438780307108
93;93;1449485517;2.14186215401;0.775405347347;0.06894135475160001;0;True;10;2;107.93438780307108
94;94;1449485517;2.1419732570599996;0.7752439975740001;0.06883218139410001;0;True;10;2;107.93438780307108
95;95;1449485517;2.14193129539;0.7753244042399999;0.06895652413369999;0;True;10;2;107.93438780307108
96;96;1449485517;2.14211440086;0.775436043739;0.06873657554389999;0;True;10;2;107.93438780307108
97;97;1449485517;2.14192819595;0.7752953171729999;0.0689314231277;0;True;10;2;107.93438780307108
98;98;1449485517;2.1419360637700002;0.775176584721;0.0689503028989;0;True;10;2;107.93438780307108
99;99;1449485517;2.14212179184;0.775400936604;0.0687093660235;0;True;10;2;107.93438780307108
100;100;1449485517;2.14193153381;0.7751653194429999;0.06894924491639999;0;True;10;2;107.93438780307108
101;101;1449485517;2.14192509651;0.7751769423479999;0.0689526870847;0;True;10;2;107.93438780307108
102;102;1449485517;2.14198851585;0.775400519371;0.0689115226269;0;True;10;2;107.93438780307108
103;103;1449485517;2.1421239376099996;0.7754241228100001;0.0687016546726;0;True;10;2;107.93438780307108
104;104;1449485517;2.14182472229;0.775259912014;0.06902866810560002;0;True;10;2;107.93438780307108
105;105;1449485518;2.1421031951900003;0.775424182415;0.0688053667545;1;True;10;2;107.93438780307108
106;106;1449485518;2.14183354378;0.775280475616;0.069010771811;1;True;10;2;107.93438780307108
107;107;1449485518;2.14207267761;0.775586664677;0.0689448267221;1;True;10;2;107.93438780307108
108;108;1449485518;2.14211297035;0.775516450405;0.0686874762177;1;True;10;2;107.93438780307108
109;109;1449485518;2.14182519913;0.775217831135;0.06910959631199999;1;True;10;2;107.93438780307108
110;110;1449485518;2.14209794998;0.7753442525859999;0.0687805116177;1;True;10;2;107.93438780307108
111;111;1449485518;2.1421113014200004;0.775523304939;0.0688445866108;1;True;10;2;107.93438780307108
112;112;1449485518;2.14210677147;0.7756583094600001;0.068754285574;1;True;10;2;107.93438780307108
113;113;1449485518;2.14200139046;0.775352120399;0.0687675327063;1;True;10;2;107.93438780307108
114;114;1449485518;2.14208817482;0.775502324104;0.0688034072518;1;True;10;2;107.93438780307108
115;115;1449485518;2.14209103584;0.7754813432690001;0.068809248507;1;True;10;2;107.93438780307108
116;116;1449485518;2.14177322388;0.775293171406;0.0690372735262;1;True;10;2;107.93438780307108
117;117;1449485518;2.14210224152;0.775448441505;0.0687647163868;1;True;10;2;107.93438780307108
118;118;1449485518;2.14208436012;0.77548289299;0.0687913075089;1;True;10;2;107.93438780307108
119;119;1449485518;2.14210033417;0.7754868268970001;0.0686777755618;1;True;10;2;107.93438780307108
120;120;1449485518;2.14199018478;0.7754147052760001;0.06884466856719999;1;True;10;2;107.93438780307108
121;121;1449485518;2.14200687408;0.7752942442890001;0.06882693618539999;1;True;10;2;107.93438780307108
122;122;1449485518;2.14207983017;0.775439083576;0.0687366053462;1;True;10;2;107.93438780307108
123;123;1449485518;2.14216852188;0.7755841612819999;0.0687437951565;1;True;10;2;107.93438780307108
124;124;1449485518;2.1419179439500002;0.775206267834;0.06888911873100001;1;True;10;2;107.93438780307108
125;125;1449485518;2.1420755386400003;0.775523781776;0.0686494782567;1;True;10;2;107.93438780307108
126;126;1449485518;2.1417961120599998;0.7752622962000001;0.0689520984888;1;True;10;2;107.93438780307108
127;127;1449485518;2.14186930656;0.775166094303;0.06890029460189999;1;True;10;2;107.93438780307108
128;128;1449485518;2.14206218719;0.775485277176;0.06875474751;1;True;10;2;107.93438780307108
129;129;1449485518;2.14188480377;0.775190711021;0.06888081878419999;1;True;10;2;107.93438780307108
130;130;1449485518;2.1420674324;0.7755221724510001;0.0686330199242;1;True;10;2;107.93438780307108
131;131;1449485518;2.14165782928;0.77498537302;0.0689507424831;1;True;10;2;107.93438780307108
132;132;1449485518;2.14206147194;0.775346636772;0.0686447992921;1;True;10;2;107.93438780307108
133;133;1449485518;2.14201307297;0.7753085494040001;0.0689217373729;1;True;10;2;107.93438780307108
134;134;1449485518;2.14202165604;0.77550137043;0.0686712712049;1;True;10;2;107.93438780307108
135;135;1449485518;2.14204382896;0.7756528258319999;0.0686890929937;1;True;10;2;107.93438780307108
136;136;1449485518;2.1420326232900004;0.7754372954369999;0.0687620267272;1;True;10;2;107.93438780307108
137;137;1449485518;2.14205646515;0.775483548641;0.0686105564237;1;True;10;2;107.93438780307108
138;138;1449485518;2.14205789566;0.7756268382070001;0.0686230137944;1;True;10;2;107.93438780307108
139;139;1449485518;2.14204025269;0.775425851345;0.06864133477210001;1;True;10;2;107.93438780307108
140;140;1449485518;2.14205288887;0.7753793597220001;0.0686236992478;1;True;10;2;107.93438780307108
141;141;1449485518;2.14208269119;0.775419712067;0.0687386393547;1;True;10;2;107.93438780307108
142;142;1449485518;2.14195489883;0.775538146496;0.06882547587160001;1;True;10;2;107.93438780307108
143;143;1449485518;2.14188337326;0.7753856182100001;0.0689197033644;1;True;10;2;107.93438780307108
144;144;1449485518;2.1420645713799997;0.7754058241840001;0.0686675384641;1;True;10;2;107.93438780307108
145;145;1449485518;2.14185285568;0.775339782238;0.0688790380955;1;True;10;2;107.93438780307108
146;146;1449485518;2.14191770554;0.7753676772120001;0.0688789188862;1;True;10;2;107.93438780307108
147;147;1449485518;2.1420640945400002;0.775419652462;0.0686588734388;1;True;10;2;107.93438780307108
148;148;1449485518;2.1420800685900003;0.775413513184;0.068748421967;1;True;10;2;107.93438780307108
149;149;1449485518;2.1419260501900004;0.775281846523;0.0689003542066;1;True;10;2;107.93438780307108
150;150;1449485518;2.1419491767900003;0.7758154273029999;0.0689598023891;1;True;10;2;107.93438780307108
151;151;1449485518;2.1420879364;0.775342404842;0.0689001381397;1;True;10;2;107.93438780307108
152;152;1449485518;2.14208602905;0.7754099965100001;0.0687056034803;1;True;10;2;107.93438780307108
153;153;1449485518;2.1418566703799997;0.7753685116769999;0.06887196004389999;1;True;10;2;107.93438780307108
154;154;1449485518;2.14190745354;0.775180697441;0.0688508525491;1;True;10;2;107.93438780307108
155;155;1449485518;2.1420276165;0.775424718857;0.06865566223860001;1;True;10;2;107.93438780307108
156;156;1449485518;2.1417808532700002;0.775330662727;0.068953089416;1;True;10;2;107.93438780307108
157;157;1449485518;2.1416862011;0.7751551270479999;0.06900324672460001;1;True;10;2;107.93438780307108
158;158;1449485518;2.14204001427;0.775396406651;0.068685978651;1;True;10;2;107.93438780307108
159;159;1449485518;2.1420040130599998;0.775351345539;0.0687082633376;1;True;10;2;107.93438780307108
160;160;1449485518;2.14190411568;0.77523213625;0.0689837634563;1;True;10;2;107.93438780307108
161;161;1449485518;2.14202427864;0.775368750095;0.0688658952713;1;True;10;2;107.93438780307108
162;162;1449485518;2.1420848369599996;0.7753153443340001;0.0687874257565;1;True;10;2;107.93438780307108
163;163;1449485518;2.14201545715;0.7752910852429999;0.0688246265054;1;True;10;2;107.93438780307108
164;164;1449485518;2.14204645157;0.7753625512119999;0.0687155723572;1;True;10;2;107.93438780307108
165;165;1449485518;2.1416103839900003;0.775361895561;0.0690430849791;1;True;10;2;107.93438780307108
166;166;1449485518;2.14200520515;0.77522790432;0.0688704848289;1;True;10;2;107.93438780307108
167;167;1449485518;2.1419889926900004;0.775263249874;0.0689127072692;1;True;10;2;107.93438780307108
168;168;1449485518;2.1421961784400003;0.7756221294399999;0.0689886882901;1;True;10;2;107.93438780307108
169;169;1449485518;2.14199256897;0.775221824646;0.06890141218899999;1;True;10;2;107.93438780307108
170;170;1449485518;2.14209055901;0.7753902673720001;0.0687400996685;1;True;10;2;107.93438780307108
171;171;1449485518;2.1420016288799997;0.7754011154170001;0.0690181478858;1;True;10;2;107.93438780307108
172;172;1449485518;2.14195632935;0.775289177895;0.0689421743155;1;True;10;2;107.93438780307108
173;173;1449485518;2.14193296432;0.7751773595810001;0.0689145922661;1;True;10;2;107.93438780307108
174;174;1449485518;2.1421482563;0.775598168373;0.0688651204109;1;True;10;2;107.93438780307108
175;175;1449485518;2.1418962478599997;0.7752963304520001;0.06899464875460001;1;True;10;2;107.93438780307108
176;176;1449485518;2.14212799072;0.7756111025810001;0.06874698400500001;1;True;10;2;107.93438780307108
177;177;1449485518;2.14213180542;0.775460660458;0.06886176019910001;1;True;10;2;107.93438780307108
178;178;1449485518;2.14213347435;0.7754787206649999;0.06884510815139999;1;True;10;2;107.93438780307108
179;179;1449485518;2.14196920395;0.775185704231;0.0689828470349;1;True;10;2;107.93438780307108
180;180;1449485518;2.1417608261099996;0.775018692017;0.0690108016133;1;True;10;2;107.93438780307108
181;181;1449485518;2.14205002785;0.775256633759;0.0690347924829;1;True;10;2;107.93438780307108
182;182;1449485518;2.14194607735;0.77516245842;0.0690228864551;1;True;10;2;107.93438780307108
183;183;1449485518;2.14210963249;0.7753636837010001;0.06886085867880001;1;True;10;2;107.93438780307108
184;184;1449485518;2.14215040207;0.775609135628;0.0689326375723;1;True;10;2;107.93438780307108
185;185;1449485518;2.1422200202900004;0.7754350900650001;0.06919746845960001;1;True;10;2;107.93438780307108
186;186;1449485518;2.14210271835;0.775659501553;0.06887882947919999;1;True;10;2;107.93438780307108
187;187;1449485518;2.1421225071000003;0.7756071090700001;0.0689207687974;1;True;10;2;107.93438780307108
188;188;1449485518;2.14189052582;0.775124669075;0.0690924823284;1;True;10;2;107.93438780307108
189;189;1449485518;2.1421236991900003;0.7755794525149999;0.0688197165728;1;True;10;2;107.93438780307108
190;190;1449485518;2.14192175865;0.7752493023870001;0.06905850023030001;1;True;10;2;107.93438780307108
191;191;1449485518;2.14214634895;0.775504767895;0.0689461529255;1;True;10;2;107.93438780307108
192;192;1449485518;2.1421749591799997;0.7754725217820001;0.06880351156;1;True;10;2;107.93438780307108
193;193;1449485518;2.14209794998;0.77536046505;0.0689785405993;1;True;10;2;107.93438780307108
194;194;1449485518;2.14202952385;0.7752780914309999;0.0689724460244;1;True;10;2;107.93438780307108
195;195;1449485518;2.1419031619999997;0.775154769421;0.06911047548060001;1;True;10;2;107.93438780307108
196;196;1449485518;2.1420612335199998;0.775234162807;0.06885682046410001;1;True;10;2;107.93438780307108
197;197;1449485518;2.1422431469;0.775428712368;0.0688615590334;1;True;10;2;107.93438780307108
198;198;1449485518;2.14198374748;0.775575757027;0.0692714527249;1;True;10;2;107.93438780307108
199;199;1449485518;2.14201879501;0.775280356407;0.0689765065908;1;True;10;2;107.93438780307108
200;200;1449485518;2.14213728905;0.775600850582;0.06894967705010001;1;True;10;2;107.93438780307108
201;201;1449485518;2.1419916153;0.775190412998;0.06900405138730001;1;True;10;2;107.93438780307108
202;202;1449485518;2.14203691483;0.7751997709270001;0.0689893886447;1;True;10;2;107.93438780307108
203;203;1449485518;2.14215397835;0.775649666786;0.0688909366727;1;True;10;2;107.93438780307108
204;204;1449485518;2.14216709137;0.775479793549;0.0687891840935;1;True;10;2;107.93438780307108
205;205;1449485518;2.14218950272;0.775389194489;0.068797647953;1;True;10;2;107.93438780307108
206;206;1449485518;2.14218258858;0.775468945503;0.0687651783228;1;True;10;2;107.93438780307108
207;207;1449485518;2.14214873314;0.775323748589;0.0690064430237;1;True;10;2;107.93438780307108
208;208;1449485518;2.1421713829;0.7753371596340001;0.068753130734;1;True;10;2;107.93438780307108
209;209;1449485518;2.14217710495;0.775508403778;0.06873586028810001;1;True;10;2;107.93438780307108
210;210;1449485518;2.14216041565;0.775316655636;0.0687501654029;1;True;10;2;107.93438780307108
211;211;1449485518;2.14193582535;0.775146007538;0.06899885833260001;1;True;10;2;107.93438780307108
212;212;1449485518;2.14204740524;0.775298118591;0.06882242858410001;1;True;10;2;107.93438780307108
213;213;1449485518;2.14216017723;0.775396943092;0.0687438696623;1;True;10;2;107.93438780307108
214;214;1449485518;2.1421399116499997;0.7754275202750001;0.0687491372228;1;True;10;2;107.93438780307108
215;215;1449485518;2.1421535015099997;0.775332927704;0.0687184259295;1;True;10;2;107.93438780307108
216;216;1449485518;2.1421484947200002;0.7753720879549999;0.0687082931399;1;True;10;2;107.93438780307108
217;217;1449485518;2.1418838500999997;0.77539473772;0.0690289884806;1;True;10;2;107.93438780307108
218;218;1449485518;2.1420714855200003;0.7755452394490001;0.0687526538968;1;True;10;2;107.93438780307108
219;219;1449485518;2.14211726189;0.775407552719;0.0687835738063;1;True;10;2;107.93438780307108
220;220;1449485518;2.14211654663;0.7753813862800001;0.0687014460564;1;True;10;2;107.93438780307108
221;221;1449485518;2.1421225071000003;0.775383234024;0.0686927884817;1;True;10;2;107.93438780307108
222;222;1449485518;2.14211606979;0.775450766087;0.0687535554171;1;True;10;2;107.93438780307108
223;223;1449485518;2.1420669555700003;0.7751660346979999;0.0690768435597;1;True;10;2;107.93438780307108
224;224;1449485518;2.14183592796;0.7751867771150001;0.06891608983280001;1;True;10;2;107.93438780307108
225;225;1449485518;2.14185404778;0.775347054005;0.0689674317837;1;True;10;2;107.93438780307108
226;226;1449485518;2.14181947708;0.77524381876;0.0691011920571;1;True;10;2;107.93438780307108
227;227;1449485518;2.1417593956;0.775097966194;0.0689725875854;1;True;10;2;107.93438780307108
228;228;1449485518;2.14192080498;0.775175511837;0.0688442140818;1;True;10;2;107.93438780307108
229;229;1449485518;2.1420981884;0.775471508503;0.0686168894172;1;True;10;2;107.93438780307108
230;230;1449485518;2.14205861092;0.775389552116;0.0687803775072;1;True;10;2;107.93438780307108
231;231;1449485518;2.14205002785;0.7753685712809999;0.0686789825559;1;True;10;2;107.93438780307108
232;232;1449485518;2.1419980526;0.775402188301;0.0686738267541;1;True;10;2;107.93438780307108
233;233;1449485518;2.1421191692400003;0.7754347920419999;0.0686930790544;1;True;10;2;107.93438780307108
234;234;1449485518;2.14208173752;0.775415718555;0.06862893700600001;1;True;10;2;107.93438780307108
235;235;1449485518;2.14208459854;0.775610268116;0.06885333359239999;1;True;10;2;107.93438780307108
236;236;1449485518;2.1420612335199998;0.775402903557;0.0686328113079;1;True;10;2;107.93438780307108
237;237;1449485518;2.14204883575;0.7753834724429999;0.0686470195651;1;True;10;2;107.93438780307108
238;238;1449485518;2.14206600189;0.775409817696;0.0686006397009;1;True;10;2;107.93438780307108
239;239;1449485518;2.14208269119;0.77556681633;0.0687549561262;1;True;10;2;107.93438780307108
240;240;1449485518;2.14174389839;0.775455772877;0.0688541978598;1;True;10;2;107.93438780307108
241;241;1449485518;2.1416940689099997;0.775371730328;0.0689658373594;1;True;10;2;107.93438780307108
242;242;1449485518;2.1420595645900002;0.775474607944;0.0685895755887;1;True;10;2;107.93438780307108
243;243;1449485518;2.14196419716;0.775249898434;0.06875360757110001;1;True;10;2;107.93438780307108
244;244;1449485518;2.14210605621;0.7752868533130001;0.0688292905688;1;True;10;2;107.93438780307108
245;245;1449485518;2.14192843437;0.775415062904;0.0686501339078;1;True;10;2;107.93438780307108
246;246;1449485518;2.14206314087;0.775460720062;0.0685989186168;1;True;10;2;107.93438780307108
247;247;1449485518;2.14183712006;0.775219261646;0.0688159540296;1;True;10;2;107.93438780307108
248;248;1449485518;2.14184522629;0.7753192186360001;0.06885952502489999;1;True;10;2;107.93438780307108
249;249;1449485518;2.14203882217;0.775521755219;0.0687997043133;1;True;10;2;107.93438780307108
250;250;1449485518;2.1420981884;0.775269210339;0.0688463822007;1;True;10;2;107.93438780307108
251;251;1449485518;2.14192509651;0.775396764278;0.06893961131569999;1;True;10;2;107.93438780307108
252;252;1449485518;2.14205908775;0.775409758091;0.0686472579837;1;True;10;2;107.93438780307108
253;253;1449485518;2.1419179439500002;0.775422096252;0.0689444169402;1;True;10;2;107.93438780307108
254;254;1449485518;2.14174556732;0.775242745876;0.0690695494413;1;True;10;2;107.93438780307108
255;255;1449485518;2.14206147194;0.775426447392;0.0687503144145;1;True;10;2;107.93438780307108
256;256;1449485518;2.1421153545400005;0.7754698991779999;0.0687293186784;1;True;10;2;107.93438780307108
257;257;1449485518;2.14187192917;0.775183796883;0.0688965767622;1;True;10;2;107.93438780307108
258;258;1449485518;2.14208507538;0.7754787206649999;0.0687574744225;1;True;10;2;107.93438780307108
259;259;1449485518;2.1420893669099996;0.775473892689;0.0687422454357;1;True;10;2;107.93438780307108
260;260;1449485518;2.14190673828;0.775213599205;0.0689069330692;1;True;10;2;107.93438780307108
261;261;1449485518;2.14210224152;0.7753950953479999;0.0686845332384;1;True;10;2;107.93438780307108
262;262;1449485518;2.14209365845;0.775518357754;0.0687778368592;1;True;10;2;107.93438780307108
263;263;1449485518;2.1420814991;0.775631189346;0.0687103793025;1;True;10;2;107.93438780307108
264;264;1449485518;2.14200258255;0.775367975235;0.06897577643389999;1;True;10;2;107.93438780307108
265;265;1449485518;2.1419398784599997;0.7752142548559999;0.0689022317529;1;True;10;2;107.93438780307108
266;266;1449485518;2.14197349548;0.775344014168;0.068906083703;1;True;10;2;107.93438780307108
267;267;1449485518;2.14185833931;0.7751437425609999;0.0689928084612;1;True;10;2;107.93438780307108
268;268;1449485518;2.14196014404;0.7752481102940001;0.0689008682966;1;True;10;2;107.93438780307108
269;269;1449485518;2.1418094635;0.775343775749;0.0690307170153;1;True;10;2;107.93438780307108
270;270;1449485518;2.1418912410699997;0.775319874287;0.069030366838;1;True;10;2;107.93438780307108
271;271;1449485518;2.14193296432;0.7752277851100001;0.06892143934969999;1;True;10;2;107.93438780307108
272;272;1449485518;2.14208745956;0.7754836082459999;0.06878366321330001;1;True;10;2;107.93438780307108
273;273;1449485518;2.14172911644;0.775282502174;0.0690775960684;1;True;10;2;107.93438780307108
274;274;1449485518;2.14207720757;0.775517880917;0.068850710988;1;True;10;2;107.93438780307108
275;275;1449485518;2.14211082458;0.775429368019;0.0687575936317;1;True;10;2;107.93438780307108
276;276;1449485518;2.14210009575;0.775565981865;0.0688486099243;1;True;10;2;107.93438780307108
277;277;1449485518;2.1421239376099996;0.775530934334;0.0687075331807;1;True;10;2;107.93438780307108
278;278;1449485518;2.1418862342800002;0.775235593319;0.0689702406526;1;True;10;2;107.93438780307108
279;279;1449485518;2.14205694199;0.7752864956859999;0.0688771158457;1;True;10;2;107.93438780307108
280;280;1449485518;2.14182567596;0.77534288168;0.0690580531955;1;True;10;2;107.93438780307108
281;281;1449485518;2.1420776844;0.775599360466;0.0689835399389;1;True;10;2;107.93438780307108
282;282;1449485518;2.14212632179;0.7754487395290001;0.0687805637717;1;True;10;2;107.93438780307108
283;283;1449485518;2.1417083740200002;0.7752597332;0.0691102519631;1;True;10;2;107.93438780307108
284;284;1449485518;2.14188551903;0.775360226631;0.06904666870830001;1;True;10;2;107.93438780307108
285;285;1449485518;2.14168405533;0.775267660618;0.0691245272756;1;True;10;2;107.93438780307108
286;286;1449485518;2.1419267654400005;0.775399208069;0.0690138861537;1;True;10;2;107.93438780307108
287;287;1449485518;2.14214086533;0.775332272053;0.0687487870455;1;True;10;2;107.93438780307108
288;288;1449485518;2.1421430110900004;0.775438904762;0.06878218799829999;1;True;10;2;107.93438780307108
289;289;1449485518;2.14188981056;0.775148272514;0.0690454766154;1;True;10;2;107.93438780307108
290;290;1449485518;2.14216947556;0.775522112846;0.0687439516187;1;True;10;2;107.93438780307108
291;291;1449485518;2.14213705063;0.7754909992219999;0.0687557384372;1;True;10;2;107.93438780307108
292;292;1449485518;2.14224457741;0.77547031641;0.0687905028462;1;True;10;2;107.93438780307108
293;293;1449485518;2.14211440086;0.7753061056139999;0.0688424110413;1;True;10;2;107.93438780307108
294;294;1449485518;2.14212942123;0.775582671165;0.06900139898060001;1;True;10;2;107.93438780307108
295;295;1449485518;2.14194941521;0.775312304497;0.06905033439399999;1;True;10;2;107.93438780307108
296;296;1449485518;2.1421489715599997;0.775475382805;0.0688372552395;1;True;10;2;107.93438780307108
297;297;1449485518;2.14198327065;0.7753087282179999;0.068979613483;1;True;10;2;107.93438780307108
298;298;1449485518;2.1421661377000003;0.7753608822820001;0.0687453225255;1;True;10;2;107.93438780307108
299;299;1449485518;2.14192891121;0.7751823663709999;0.06908848136660001;1;True;10;2;107.93438780307108
300;300;1449485518;2.14206194878;0.775325596333;0.0689165592194;1;True;10;2;107.93438780307108
301;301;1449485518;2.1421627998400004;0.7754174470899999;0.068728402257;1;True;10;2;107.93438780307108
302;302;1449485518;2.14218783379;0.775396943092;0.06873168051239999;1;True;10;2;107.93438780307108
303;303;1449485518;2.1421098709099997;0.7753896713259999;0.06883616745469999;1;True;10;2;107.93438780307108
304;304;1449485518;2.14216518402;0.7754200696950001;0.06875292956830001;1;True;10;2;107.93438780307108
305;305;1449485518;2.14215946198;0.775452077389;0.06887353211639999;1;True;10;2;107.93438780307108
306;306;1449485518;2.1419842243200002;0.7753688097;0.06895681470630001;1;True;10;2;107.93438780307108
307;307;1449485518;2.1421637535099998;0.775451719761;0.0688137859106;1;True;10;2;107.93438780307108
308;308;1449485518;2.1417298316999998;0.7751664519310001;0.0691050440073;1;True;10;2;107.93438780307108
309;309;1449485518;2.14207983017;0.7755468487739999;0.0689630657434;1;True;10;2;107.93438780307108
310;310;1449485518;2.1417837142900003;0.77516669035;0.06924216449260001;1;True;10;2;107.93438780307108
311;311;1449485518;2.14183092117;0.7751082181929999;0.0690588578582;1;True;10;2;107.93438780307108
312;312;1449485518;2.14189243317;0.775248646736;0.06904029846189999;1;True;10;2;107.93438780307108
313;313;1449485518;2.1422162056;0.7754340171809999;0.0688129141927;1;True;10;2;107.93438780307108
314;314;1449485518;2.1421549320200004;0.775396108627;0.0687419250607;1;True;10;2;107.93438780307108
315;315;1449485518;2.14200782776;0.775187849998;0.06894785165789999;1;True;10;2;107.93438780307108
316;316;1449485518;2.1420211792;0.7751776576039999;0.0689127147198;1;True;10;2;107.93438780307108
317;317;1449485518;2.14217782021;0.7754889130589999;0.0687138959765;1;True;10;2;107.93438780307108
318;318;1449485518;2.1421391964;0.7752782106399999;0.0689426213503;1;True;10;2;107.93438780307108
319;319;1449485518;2.14215159416;0.775450050831;0.0688514336944;1;True;10;2;107.93438780307108
320;320;1449485518;2.14195871353;0.7751659154889999;0.06895817816260001;1;True;10;2;107.93438780307108
321;321;1449485518;2.14213061333;0.775300085545;0.0687994137406;1;True;10;2;107.93438780307108
322;322;1449485518;2.1419003009799997;0.775205850601;0.06901866942639999;1;True;10;2;107.93438780307108
323;323;1449485518;2.14199018478;0.775374114513;0.0687765404582;1;True;10;2;107.93438780307108
324;324;1449485518;2.1421482563;0.7753889560699999;0.06872722506519999;1;True;10;2;107.93438780307108
325;325;1449485518;2.14204859734;0.775385856628;0.06889550387860001;1;True;10;2;107.93438780307108
326;326;1449485518;2.1420176029199998;0.775283753872;0.0689234361053;1;True;10;2;107.93438780307108
327;327;1449485518;2.14201831818;0.775374293327;0.0687875971198;1;True;10;2;107.93438780307108
328;328;1449485518;2.14213657379;0.7754582166670001;0.06868488341569999;1;True;10;2;107.93438780307108
329;329;1449485518;2.14177942276;0.7751276493070001;0.0691581964493;1;True;10;2;107.93438780307108
330;330;1449485518;2.14212226868;0.7753890752789999;0.068685695529;1;True;10;2;107.93438780307108
331;331;1449485518;2.14211750031;0.7754262685780001;0.0687177553773;1;True;10;2;107.93438780307108
332;332;1449485518;2.1421127319299997;0.775590717793;0.0687498226762;1;True;10;2;107.93438780307108
333;333;1449485518;2.1420207023599995;0.775370597839;0.068738296628;1;True;10;2;107.93438780307108
334;334;1449485518;2.14199852943;0.775351166725;0.0687772035599;1;True;10;2;107.93438780307108
335;335;1449485518;2.1416785717;0.775070309639;0.069190569222;1;True;10;2;107.93438780307108
336;336;1449485518;2.1420471668200003;0.7754875421520001;0.068747356534;1;True;10;2;107.93438780307108
337;337;1449485518;2.14179348946;0.775300979614;0.06902176141739999;1;True;10;2;107.93438780307108
338;338;1449485518;2.14204549789;0.7752827405930001;0.0688204169273;1;True;10;2;107.93438780307108
339;339;1449485518;2.14179372787;0.7751712799070001;0.068936266005;1;True;10;2;107.93438780307108
340;340;1449485518;2.14213418961;0.77537715435;0.0686777979136;1;True;10;2;107.93438780307108
341;341;1449485518;2.1419856548299996;0.775297999382;0.068776935339;1;True;10;2;107.93438780307108
342;342;1449485518;2.1420691013299997;0.7753781676289999;0.068791039288;1;True;10;2;107.93438780307108
343;343;1449485518;2.1421201229099998;0.7755199670790001;0.0686735361814;1;True;10;2;107.93438780307108
344;344;1449485519;2.14195418358;0.775391995907;0.06898172944780001;2;True;10;2;107.93438780307108
345;345;1449485519;2.1419377327;0.775453090668;0.0689309090376;2;True;10;2;107.93438780307108
346;346;1449485519;2.1419539451599996;0.775273561478;0.06884932518010001;2;True;10;2;107.93438780307108
347;347;1449485519;2.14210224152;0.775524199009;0.0686601474881;2;True;10;2;107.93438780307108
348;348;1449485519;2.14187169075;0.7751797437669999;0.0689515843987;2;True;10;2;107.93438780307108
349;349;1449485519;2.14209651947;0.775621712208;0.06872797012330001;2;True;10;2;107.93438780307108
350;350;1449485519;2.1418182849900003;0.775184214115;0.0689178854227;2;True;10;2;107.93438780307108
351;351;1449485519;2.14195489883;0.775314331055;0.06899409741160001;2;True;10;2;107.93438780307108
352;352;1449485519;2.14197158813;0.775089144707;0.0688176527619;2;True;10;2;107.93438780307108
353;353;1449485519;2.1420917511;0.775395393372;0.06865987181660001;2;True;10;2;107.93438780307108
354;354;1449485519;2.1421387195599997;0.775359630585;0.0689548626542;2;True;10;2;107.93438780307108
355;355;1449485519;2.14188957214;0.775319814682;0.0689016208053;2;True;10;2;107.93438780307108
356;356;1449485519;2.1421751976;0.775475561619;0.0686991587281;2;True;10;2;107.93438780307108
357;357;1449485519;2.14208507538;0.775482773781;0.0686729252338;2;True;10;2;107.93438780307108
358;358;1449485519;2.1420981884;0.775367379189;0.0686624646187;2;True;10;2;107.93438780307108
359;359;1449485519;2.14206957817;0.775492191315;0.06880628317589998;2;True;10;2;107.93438780307108
360;360;1449485519;2.14208507538;0.7754849195479999;0.0686728879809;2;True;10;2;107.93438780307108
361;361;1449485519;2.14197850227;0.775311589241;0.0688743293285;2;True;10;2;107.93438780307108
362;362;1449485519;2.14201021194;0.7756024599079999;0.0689028352499;2;True;10;2;107.93438780307108
363;363;1449485519;2.14194440842;0.775405108929;0.06895725429060001;2;True;10;2;107.93438780307108
364;364;1449485519;2.1419150829299998;0.775358021259;0.068950407207;2;True;10;2;107.93438780307108
365;365;1449485519;2.14206528664;0.775445520878;0.0687128826976;2;True;10;2;107.93438780307108
366;366;1449485519;2.14206528664;0.775478959084;0.0686722025275;2;True;10;2;107.93438780307108
367;367;1449485519;2.1420521736099998;0.775400519371;0.0686949044466;2;True;10;2;107.93438780307108
368;368;1449485519;2.14208269119;0.775397717953;0.0686606913805;2;True;10;2;107.93438780307108
369;369;1449485519;2.14191699028;0.775383591652;0.0689469575882;2;True;10;2;107.93438780307108
370;370;1449485519;2.14204955101;0.7754186987880001;0.0686623603106;2;True;10;2;107.93438780307108
371;371;1449485519;2.14205527306;0.7754182815549999;0.06887730211019999;2;True;10;2;107.93438780307108
372;372;1449485519;2.14209723473;0.7756199240680001;0.0687312930822;2;True;10;2;107.93438780307108
373;373;1449485519;2.14181733131;0.7751735448839999;0.0688489750028;2;True;10;2;107.93438780307108
374;374;1449485519;2.1420609951;0.7756731510160001;0.0688646659255;2;True;10;2;107.93438780307108
375;375;1449485519;2.14182424545;0.775164663792;0.0688554272056;2;True;10;2;107.93438780307108
376;376;1449485519;2.14196372032;0.775136291981;0.0687012225389;2;True;10;2;107.93438780307108
377;377;1449485519;2.14193320274;0.775239646435;0.0688472017646;2;True;10;2;107.93438780307108
378;378;1449485519;2.1421868801099997;0.775500178337;0.0686731114984;2;True;10;2;107.93438780307108
379;379;1449485519;2.1420986652400003;0.7752468585969999;0.06887786090369999;2;True;10;2;107.93438780307108
380;380;1449485519;2.1420323848700003;0.775389313698;0.06869328022000001;2;True;10;2;107.93438780307108
381;381;1449485519;2.14199590683;0.775554835796;0.0686928629875;2;True;10;2;107.93438780307108
382;382;1449485519;2.14207911491;0.775427162647;0.0686454027891;2;True;10;2;107.93438780307108
383;383;1449485519;2.1420803070099996;0.775436222553;0.0686602815986;2;True;10;2;107.93438780307108
384;384;1449485519;2.1419434547400003;0.7753256559370001;0.068701185286;2;True;10;2;107.93438780307108
385;385;1449485519;2.14202880859;0.7756047844889999;0.06871866434809999;2;True;10;2;107.93438780307108
386;386;1449485519;2.1417763233200002;0.7754061818119999;0.0689698010683;2;True;10;2;107.93438780307108
387;387;1449485519;2.14206242561;0.7754342556;0.0687487125397;2;True;10;2;107.93438780307108
388;388;1449485519;2.14209055901;0.775336146355;0.0688699707389;2;True;10;2;107.93438780307108
389;389;1449485519;2.14188146591;0.7753498554230001;0.0688770785928;2;True;10;2;107.93438780307108
390;390;1449485519;2.14210510254;0.775339484215;0.06867006421090001;2;True;10;2;107.93438780307108
391;391;1449485519;2.14204216003;0.775397658348;0.0689657703042;2;True;10;2;107.93438780307108
392;392;1449485519;2.14209914207;0.775418937206;0.06868340075019999;2;True;10;2;107.93438780307108
393;393;1449485519;2.14210033417;0.7753903269769999;0.0686792954803;2;True;10;2;107.93438780307108
394;394;1449485519;2.1420743465400003;0.775392949581;0.06872005015610001;2;True;10;2;107.93438780307108
395;395;1449485519;2.1418879032099998;0.77520608902;0.068770930171;2;True;10;2;107.93438780307108
396;396;1449485519;2.14204740524;0.7753222584720001;0.0689018443227;2;True;10;2;107.93438780307108
397;397;1449485519;2.1420698165900003;0.7754353880879999;0.068814009428;2;True;10;2;107.93438780307108
398;398;1449485519;2.14180994034;0.775152623653;0.0689143240452;2;True;10;2;107.93438780307108
399;399;1449485519;2.1420986652400003;0.7754589915279999;0.06868246197700001;2;True;10;2;107.93438780307108
400;400;1449485519;2.1416196823099996;0.7751978039740001;0.0691148489714;2;True;10;2;107.93438780307108
401;401;1449485519;2.14210128784;0.775397479534;0.0688155964017;2;True;10;2;107.93438780307108
402;402;1449485519;2.1415836811099997;0.7748619914049999;0.06918570399280001;2;True;10;2;107.93438780307108
403;403;1449485519;2.14211249352;0.7754215002060001;0.068702057004;2;True;10;2;107.93438780307108
404;404;1449485519;2.14207053185;0.775490641594;0.0687725245953;2;True;10;2;107.93438780307108
405;405;1449485519;2.1420962810499997;0.7754557132719999;0.0688768401742;2;True;10;2;107.93438780307108
406;406;1449485519;2.1419265270200003;0.775323629379;0.0690566152334;2;True;10;2;107.93438780307108
407;407;1449485519;2.14205765724;0.775263547897;0.0687850862741;2;True;10;2;107.93438780307108
408;408;1449485519;2.1421284675599996;0.7754834294320001;0.06883348524569999;2;True;10;2;107.93438780307108
409;409;1449485519;2.14178442955;0.7752086520199999;0.0690437555313;2;True;10;2;107.93438780307108
410;410;1449485519;2.1421549320200004;0.7753691673280001;0.0687488093972;2;True;10;2;107.93438780307108
411;411;1449485519;2.1421239376099996;0.7754265069959999;0.06887394189830001;2;True;10;2;107.93438780307108
412;412;1449485519;2.14202904701;0.775235712528;0.0689695253968;2;True;10;2;107.93438780307108
413;413;1449485519;2.14216256142;0.775348424911;0.0687666386366;2;True;10;2;107.93438780307108
414;414;1449485519;2.1418323516799997;0.775332868099;0.0691127479076;2;True;10;2;107.93438780307108
415;415;1449485519;2.14214539528;0.775403857231;0.0688290446997;2;True;10;2;107.93438780307108
416;416;1449485519;2.14197206497;0.775179684162;0.069030880928;2;True;10;2;107.93438780307108
417;417;1449485519;2.1421751976;0.775370836258;0.06876761466260001;2;True;10;2;107.93438780307108
418;418;1449485519;2.142111063;0.775572299957;0.0690084919333;2;True;10;2;107.93438780307108
419;419;1449485519;2.14214539528;0.775608897209;0.0687954202294;2;True;10;2;107.93438780307108
420;420;1449485519;2.1421325206799997;0.77558195591;0.0688488259912;2;True;10;2;107.93438780307108
421;421;1449485519;2.14213204384;0.775621533394;0.0687963142991;2;True;10;2;107.93438780307108
422;422;1449485519;2.14229750633;0.775489211082;0.06882596015930001;2;True;10;2;107.93438780307108
423;423;1449485519;2.14193344116;0.7752950191500001;0.0690170899034;2;True;10;2;107.93438780307108
424;424;1449485519;2.14217162132;0.7754284739489999;0.0687799975276;2;True;10;2;107.93438780307108
425;425;1449485519;2.14215826988;0.77546608448;0.0688714906573;2;True;10;2;107.93438780307108
426;426;1449485519;2.1419377327;0.775180280209;0.0690417662263;2;True;10;2;107.93438780307108
427;427;1449485519;2.14195156097;0.775238156319;0.0689663514495;2;True;10;2;107.93438780307108
428;428;1449485519;2.1421546936;0.7753747701639999;0.06875293701889999;2;True;10;2;107.93438780307108
429;429;1449485519;2.1420676708200004;0.775423049927;0.0689475536346;2;True;10;2;107.93438780307108
430;430;1449485519;2.14212656021;0.7753359079359999;0.068861335516;2;True;10;2;107.93438780307108
431;431;1449485519;2.14194250107;0.775370061398;0.0690605193377;2;True;10;2;107.93438780307108
432;432;1449485519;2.14213418961;0.775485217571;0.06886905431750001;2;True;10;2;107.93438780307108
433;433;1449485519;2.14212322235;0.775496006012;0.06886612623930001;2;True;10;2;107.93438780307108
434;434;1449485519;2.1421239376099996;0.775476515293;0.0688679069281;2;True;10;2;107.93438780307108
435;435;1449485519;2.14202189445;0.775383174419;0.0689890682697;2;True;10;2;107.93438780307108
436;436;1449485519;2.1420862674700003;0.775552511215;0.068975739181;2;True;10;2;107.93438780307108
437;437;1449485519;2.14185476303;0.77534109354;0.0690564587712;2;True;10;2;107.93438780307108
438;438;1449485519;2.14219737053;0.775710165501;0.0687963888049;2;True;10;2;107.93438780307108
439;439;1449485519;2.14212179184;0.7753332257269999;0.0687346458435;2;True;10;2;107.93438780307108
440;440;1449485519;2.14205098152;0.7754257917399999;0.0688583478332;2;True;10;2;107.93438780307108
441;441;1449485519;2.14210557938;0.775479972363;0.0688091367483;2;True;10;2;107.93438780307108
442;442;1449485519;2.14205312729;0.775324165821;0.06900558620689999;2;True;10;2;107.93438780307108
443;443;1449485519;2.14193701744;0.775311112404;0.06891101598739999;2;True;10;2;107.93438780307108
444;444;1449485519;2.14211606979;0.7756452560420001;0.068788357079;2;True;10;2;107.93438780307108
445;445;1449485519;2.1421034336099996;0.775474786758;0.0688056573272;2;True;10;2;107.93438780307108
446;446;1449485519;2.1419346332599996;0.775340497494;0.06893786787989999;2;True;10;2;107.93438780307108
447;447;1449485519;2.14207983017;0.7754150033;0.0687434375286;2;True;10;2;107.93438780307108
448;448;1449485519;2.1420760154700003;0.775687873363;0.0689129456878;2;True;10;2;107.93438780307108
449;449;1449485519;2.14188861847;0.77536958456;0.069046869874;2;True;10;2;107.93438780307108
450;450;1449485519;2.14210963249;0.7753224372859999;0.06868781894449999;2;True;10;2;107.93438780307108
451;451;1449485519;2.14198803902;0.77544093132;0.0687437653542;2;True;10;2;107.93438780307108
452;452;1449485519;2.1420853138;0.775380432606;0.0686492398381;2;True;10;2;107.93438780307108
453;453;1449485519;2.14193630219;0.7751929759980001;0.06886379420760001;2;True;10;2;107.93438780307108
454;454;1449485519;2.14208078384;0.7756009101870001;0.06890998780730001;2;True;10;2;107.93438780307108
455;455;1449485519;2.1417620182;0.7752757072450001;0.068980909884;2;True;10;2;107.93438780307108
456;456;1449485519;2.1420698165900003;0.775412380695;0.0686567351222;2;True;10;2;107.93438780307108
457;457;1449485519;2.1414284706099997;0.775351583958;0.0689935311675;2;True;10;2;107.93438780307108
458;458;1449485519;2.14208054543;0.775482356548;0.0686148703098;2;True;10;2;107.93438780307108
459;459;1449485519;2.1420233249700003;0.775427341461;0.0687206462026;2;True;10;2;107.93438780307108
460;460;1449485519;2.14207458496;0.7755984663959999;0.0686290711164;2;True;10;2;107.93438780307108
461;461;1449485519;2.14199471474;0.775340080261;0.06884248554710001;2;True;10;2;107.93438780307108
462;462;1449485519;2.1418998241400002;0.775374412537;0.0689119696617;2;True;10;2;107.93438780307108
463;463;1449485519;2.14207053185;0.77540409565;0.0686051398516;2;True;10;2;107.93438780307108
464;464;1449485519;2.1420471668200003;0.775403320789;0.0687492191792;2;True;10;2;107.93438780307108
465;465;1449485519;2.14154005051;0.7751810550689999;0.06901483982800001;2;True;10;2;107.93438780307108
466;466;1449485519;2.14193129539;0.7752441763879999;0.0688006952405;2;True;10;2;107.93438780307108
467;467;1449485519;2.14211297035;0.775399327278;0.06862623989580001;2;True;10;2;107.93438780307108
468;468;1449485519;2.14209389687;0.7754322886470001;0.0687025040388;2;True;10;2;107.93438780307108
469;469;1449485519;2.14200878143;0.7753120660780001;0.0688732117414;2;True;10;2;107.93438780307108
470;470;1449485519;2.1420676708200004;0.7754176855089999;0.0686344131827;2;True;10;2;107.93438780307108
471;471;1449485519;2.1420686245;0.775348007679;0.0686068236828;2;True;10;2;107.93438780307108
472;472;1449485519;2.1419539451599996;0.775320887566;0.0687506049871;2;True;10;2;107.93438780307108
473;473;1449485519;2.1420571803999997;0.77546107769;0.06858025491240001;2;True;10;2;107.93438780307108
474;474;1449485519;2.1420512199400004;0.775419771671;0.06858122348790001;2;True;10;2;107.93438780307108
475;475;1449485519;2.14181399345;0.775168120861;0.06894338130950001;2;True;10;2;107.93438780307108
476;476;1449485519;2.1420497894299997;0.7753800749779999;0.0685969442129;2;True;10;2;107.93438780307108
477;477;1449485519;2.14186501503;0.775244057178;0.06877215206619999;2;True;10;2;107.93438780307108
478;478;1449485519;2.14206528664;0.7754080891609999;0.0686189085245;2;True;10;2;107.93438780307108
479;479;1449485519;2.1421031951900003;0.775463461876;0.0686427280307;2;True;10;2;107.93438780307108
480;480;1449485519;2.14204454422;0.7754265069959999;0.0686280354857;2;True;10;2;107.93438780307108
481;481;1449485519;2.14186787605;0.775176525116;0.0688520595431;2;True;10;2;107.93438780307108
482;482;1449485519;2.14194750786;0.7753386497499999;0.06881107389930001;2;True;10;2;107.93438780307108
483;483;1449485519;2.1417996883400003;0.775234103203;0.0688767582178;2;True;10;2;107.93438780307108
484;484;1449485519;2.14205861092;0.7754188179970001;0.0686362013221;2;True;10;2;107.93438780307108
485;485;1449485519;2.14198637009;0.775185108185;0.0686993822455;2;True;10;2;107.93438780307108
486;486;1449485519;2.14195942879;0.7753268480300001;0.068726554513;2;True;10;2;107.93438780307108
487;487;1449485519;2.14203548431;0.7754970192910001;0.0688831657171;2;True;10;2;107.93438780307108
488;488;1449485519;2.14204668999;0.775343060493;0.068768247962;2;True;10;2;107.93438780307108
489;489;1449485519;2.14208245277;0.775432825089;0.068714171648;2;True;10;2;107.93438780307108
490;490;1449485519;2.14179468155;0.7753401398659999;0.06902462244030001;2;True;10;2;107.93438780307108
491;491;1449485519;2.14209532738;0.775531768799;0.0686475038528;2;True;10;2;107.93438780307108
492;492;1449485519;2.14209675789;0.7753821611399999;0.06868463754649999;2;True;10;2;107.93438780307108
493;493;1449485519;2.14218735695;0.7756077051160001;0.0687643736601;2;True;10;2;107.93438780307108
494;494;1449485519;2.14200997353;0.7753751873970001;0.06894395500419999;2;True;10;2;107.93438780307108
495;495;1449485519;2.14190411568;0.775334298611;0.0689258873463;2;True;10;2;107.93438780307108
496;496;1449485519;2.1417746543900003;0.7750746011730001;0.06903603672980001;2;True;10;2;107.93438780307108
497;497;1449485519;2.14197301865;0.775293052197;0.0687635242939;2;True;10;2;107.93438780307108
498;498;1449485519;2.1419930458099996;0.7752509713169999;0.06876318156719999;2;True;10;2;107.93438780307108
499;499;1449485519;2.14210391045;0.7753360271449999;0.06878397613760001;2;True;10;2;107.93438780307108
500;500;1449485519;2.14209699631;0.775569558144;0.0688546746969;2;True;10;2;107.93438780307108
501;501;1449485519;2.14210510254;0.775615096092;0.0688813254237;2;True;10;2;107.93438780307108
502;502;1449485519;2.14214015007;0.775668978691;0.06879222393039999;2;True;10;2;107.93438780307108
503;503;1449485519;2.14197254181;0.775317788124;0.0687968954444;2;True;10;2;107.93438780307108
504;504;1449485519;2.14209222794;0.775334835052;0.0689987242222;2;True;10;2;107.93438780307108
505;505;1449485519;2.1421530246700002;0.775456547737;0.0688223019242;2;True;10;2;107.93438780307108
506;506;1449485519;2.14188504219;0.7752274870870001;0.06899044662710001;2;True;10;2;107.93438780307108
507;507;1449485519;2.14203381538;0.7752285599709999;0.06883209198710001;2;True;10;2;107.93438780307108
508;508;1449485519;2.14193272591;0.775309562683;0.0690531954169;2;True;10;2;107.93438780307108
509;509;1449485519;2.14203763008;0.775314092636;0.06898692250249999;2;True;10;2;107.93438780307108
510;510;1449485519;2.1419343948400003;0.775352835655;0.0690652728081;2;True;10;2;107.93438780307108
511;511;1449485519;2.14217782021;0.775670826435;0.0687734261155;2;True;10;2;107.93438780307108
512;512;1449485519;2.14213824272;0.7755587697030001;0.06889809668060001;2;True;10;2;107.93438780307108
513;513;1449485519;2.14216923714;0.775474786758;0.0687318593264;2;True;10;2;107.93438780307108
514;514;1449485519;2.14217329025;0.7754235863689999;0.0687630325556;2;True;10;2;107.93438780307108
515;515;1449485519;2.1418910026599995;0.775261998177;0.06904014199969999;2;True;10;2;107.93438780307108
516;516;1449485519;2.1421020031;0.775536596775;0.06893043220039999;2;True;10;2;107.93438780307108
517;517;1449485519;2.1421892643000002;0.7753171324729999;0.06905217468739999;2;True;10;2;107.93438780307108
518;518;1449485519;2.14218068123;0.775518894196;0.06873203068969999;2;True;10;2;107.93438780307108
519;519;1449485519;2.1421468257900003;0.7752332687379999;0.0690134614706;2;True;10;2;107.93438780307108
520;520;1449485519;2.14214658737;0.7754461765289999;0.0688377022743;2;True;10;2;107.93438780307108
521;521;1449485519;2.1421704292299997;0.775607645512;0.0687697976828;2;True;10;2;107.93438780307108
522;522;1449485519;2.1419446468400003;0.7753024101260001;0.0689203366637;2;True;10;2;107.93438780307108
523;523;1449485519;2.1420452594799997;0.775489985943;0.0688002482057;2;True;10;2;107.93438780307108
524;524;1449485519;2.1420092582700003;0.7754030823710001;0.0688174962997;2;True;10;2;107.93438780307108
525;525;1449485519;2.14217162132;0.77539819479;0.06873475015160001;2;True;10;2;107.93438780307108
526;526;1449485519;2.14214205742;0.775449156761;0.0688368752599;2;True;10;2;107.93438780307108
527;527;1449485519;2.14179944992;0.775020062923;0.0690765157342;2;True;10;2;107.93438780307108
528;528;1449485519;2.14215540886;0.775374829769;0.0687584429979;2;True;10;2;107.93438780307108
529;529;1449485519;2.14196634293;0.7752068638799999;0.06900040805339999;2;True;10;2;107.93438780307108
530;530;1449485519;2.1419348716699997;0.7754694223399999;0.06903379410510001;2;True;10;2;107.93438780307108
531;531;1449485519;2.14185571671;0.775086581707;0.0690583065152;2;True;10;2;107.93438780307108
532;532;1449485519;2.1421151161200003;0.775421857834;0.0687734037638;2;True;10;2;107.93438780307108
533;533;1449485519;2.1418879032099998;0.77532106638;0.0689851641655;2;True;10;2;107.93438780307108
534;534;1449485519;2.14211678505;0.775420546532;0.0687875524163;2;True;10;2;107.93438780307108
535;535;1449485519;2.1421444416;0.775361478329;0.06876232475039999;2;True;10;2;107.93438780307108
536;536;1449485519;2.1420061588299997;0.775152504444;0.0688595101237;2;True;10;2;107.93438780307108
537;537;1449485519;2.1419379711200004;0.7752717137340001;0.06915464252230001;2;True;10;2;107.93438780307108
538;538;1449485519;2.14214015007;0.775371551514;0.06874448060989999;2;True;10;2;107.93438780307108
539;539;1449485519;2.14178180695;0.775132119656;0.069194920361;2;True;10;2;107.93438780307108
540;540;1449485519;2.14190864563;0.775310456753;0.0689727514982;2;True;10;2;107.93438780307108
541;541;1449485519;2.14218115807;0.7754074931139999;0.0687935426831;2;True;10;2;107.93438780307108
542;542;1449485519;2.14192008972;0.7753883600229999;0.06907576322560001;2;True;10;2;107.93438780307108
543;543;1449485519;2.1419365406;0.775349318981;0.06899019330739999;2;True;10;2;107.93438780307108
544;544;1449485519;2.14212799072;0.775575399399;0.0687475502491;2;True;10;2;107.93438780307108
545;545;1449485519;2.14214920998;0.775404214859;0.06877403706310001;2;True;10;2;107.93438780307108
546;546;1449485519;2.1420788765;0.775359272957;0.068864159286;2;True;10;2;107.93438780307108
547;547;1449485519;2.1421105861700003;0.775421261787;0.0687650814652;2;True;10;2;107.93438780307108
548;548;1449485519;2.14212155342;0.775312662125;0.0689054131508;2;True;10;2;107.93438780307108
549;549;1449485519;2.14211750031;0.7753922939300001;0.0687181428075;2;True;10;2;107.93438780307108
550;550;1449485519;2.14214468002;0.775417327881;0.0686930418015;2;True;10;2;107.93438780307108
551;551;1449485519;2.14204764366;0.7753618359569999;0.0687632337213;2;True;10;2;107.93438780307108
552;552;1449485519;2.1421546936;0.7756234407420001;0.0687509998679;2;True;10;2;107.93438780307108
553;553;1449485519;2.1421384811400004;0.775384426117;0.0687482282519;2;True;10;2;107.93438780307108
554;554;1449485519;2.14200425148;0.7752815485;0.06897568702700001;2;True;10;2;107.93438780307108
555;555;1449485519;2.1420683860799996;0.7752915024760001;0.0689732059836;2;True;10;2;107.93438780307108
556;556;1449485519;2.14176511765;0.7752801775929999;0.0690178796649;2;True;10;2;107.93438780307108
557;557;1449485519;2.14185571671;0.7753557562829999;0.06899962574239998;2;True;10;2;107.93438780307108
558;558;1449485519;2.14202523232;0.775305092335;0.0688386261463;2;True;10;2;107.93438780307108
559;559;1449485519;2.14196872711;0.775435745716;0.0689651295543;2;True;10;2;107.93438780307108
560;560;1449485519;2.14209604263;0.7753112316130001;0.068779990077;2;True;10;2;107.93438780307108
561;561;1449485519;2.14193868637;0.775358736515;0.06895618140700001;2;True;10;2;107.93438780307108
562;562;1449485519;2.14210653305;0.7753774523739999;0.0687144622207;2;True;10;2;107.93438780307108
563;563;1449485519;2.14178180695;0.775220572948;0.06901845335960001;2;True;10;2;107.93438780307108
564;564;1449485519;2.1421122551;0.775433123112;0.0687457621098;2;True;10;2;107.93438780307108
565;565;1449485519;2.14211368561;0.775469481945;0.06877313554289999;2;True;10;2;107.93438780307108
566;566;1449485519;2.1422162056;0.77544015646;0.0687248557806;2;True;10;2;107.93438780307108
567;567;1449485519;2.14207267761;0.7754228115080001;0.0688157901168;2;True;10;2;107.93438780307108
568;568;1449485519;2.1421036720299997;0.7755091786380001;0.06865722686049999;2;True;10;2;107.93438780307108
569;569;1449485519;2.14165210724;0.775143146515;0.0690420418978;2;True;10;2;107.93438780307108
570;570;1449485519;2.14204239845;0.7754371166230001;0.0687207579613;2;True;10;2;107.93438780307108
571;571;1449485519;2.1419069767;0.7751754522319999;0.0689212009311;2;True;10;2;107.93438780307108
572;572;1449485519;2.14205861092;0.775419056416;0.06878557056189999;2;True;10;2;107.93438780307108
573;573;1449485519;2.14208579063;0.775441646576;0.0687066614628;2;True;10;2;107.93438780307108
574;574;1449485519;2.14208865166;0.7754073739049999;0.0686885043979;2;True;10;2;107.93438780307108
575;575;1449485519;2.1420862674700003;0.775343239307;0.0686630234122;2;True;10;2;107.93438780307108
576;576;1449485519;2.14209747314;0.775516629219;0.0686453357339;2;True;10;2;107.93438780307108
577;577;1449485519;2.14206576347;0.775430619717;0.0687126591802;2;True;10;2;107.93438780307108
578;578;1449485519;2.14193177223;0.775393009186;0.0689601078629;2;True;10;2;107.93438780307108
579;579;1449485519;2.14210128784;0.7752919197079999;0.06888450682160001;2;True;10;2;107.93438780307108
580;580;1449485519;2.14207530022;0.7755227684970001;0.0686447322369;2;True;10;2;107.93438780307108
581;581;1449485519;2.14192891121;0.775402128696;0.06895976513619999;2;True;10;2;107.93438780307108
582;582;1449485519;2.14208269119;0.7754492163660001;0.0687991976738;2;True;10;2;107.93438780307108
583;583;1449485520;2.14189600945;0.775349259377;0.0688599869609;3;True;10;2;107.93438780307108
584;584;1449485520;2.14205360413;0.775291025639;0.06888166815039999;3;True;10;2;107.93438780307108
585;585;1449485520;2.14205098152;0.7755291461939999;0.06867729872469999;3;True;10;2;107.93438780307108
586;586;1449485520;2.14210724831;0.775339603424;0.0689358487725;3;True;10;2;107.93438780307108
587;587;1449485520;2.14202022552;0.775366425514;0.06878873705860002;3;True;10;2;107.93438780307108
588;588;1449485520;2.14204597473;0.7754372954369999;0.0686836913228;3;True;10;2;107.93438780307108
589;589;1449485520;2.14168310165;0.775373220444;0.069008231163;3;True;10;2;107.93438780307108
590;590;1449485520;2.14206075668;0.7753793001170001;0.0686881020665;3;True;10;2;107.93438780307108
591;591;1449485520;2.1420717239400004;0.775375545025;0.0686887949705;3;True;10;2;107.93438780307108
592;592;1449485520;2.14187669754;0.775207340717;0.0688815042377;3;True;10;2;107.93438780307108
593;593;1449485520;2.14188194275;0.775489032269;0.0689617618918;3;True;10;2;107.93438780307108
594;594;1449485520;2.14207077026;0.775386452675;0.0686778202653;3;True;10;2;107.93438780307108
595;595;1449485520;2.14204406738;0.7753149271009999;0.0687453001738;3;True;10;2;107.93438780307108
596;596;1449485520;2.14197564125;0.7754337787630001;0.06879360973830001;3;True;10;2;107.93438780307108
597;597;1449485520;2.1420955658;0.7754480242730001;0.0687695518136;3;True;10;2;107.93438780307108
598;598;1449485520;2.1420207023599995;0.77566409111;0.0687390565872;3;True;10;2;107.93438780307108
599;599;1449485520;2.14220762253;0.775512993336;0.0687026381493;3;True;10;2;107.93438780307108
600;600;1449485520;2.14179205894;0.775139451027;0.0688635855913;3;True;10;2;107.93438780307108
601;601;1449485520;2.14206600189;0.775421857834;0.0686852261424;3;True;10;2;107.93438780307108
602;602;1449485520;2.14187216759;0.775608897209;0.06918247044089999;3;True;10;2;107.93438780307108
