;Unnamed: 0;header_stamp_secs;pose_position_x;pose_position_y;pose_position_z;seconds;drop_values;flight_number;label;dtw
0;0;1449486010;2.15092229843;0.765593528748;0.0692181810737;0;True;11;1;88.36615270376699
1;1;1449486010;2.15097212791;0.765471220016;0.069080285728;0;True;11;1;88.36615270376699
2;2;1449486010;2.15104436874;0.765841543674;0.06889978051189999;0;True;11;1;88.36615270376699
3;3;1449486010;2.1510062217700003;0.765972971916;0.0689616575837;0;True;11;1;88.36615270376699
4;4;1449486010;2.1508209705400003;0.765543818474;0.0692682340741;0;True;11;1;88.36615270376699
5;5;1449486010;2.15079283714;0.765318393707;0.0692052692175;0;True;11;1;88.36615270376699
6;6;1449486010;2.15103960037;0.765558004379;0.0690169557929;0;True;11;1;88.36615270376699
7;7;1449486010;2.15092611313;0.765378773212;0.06917121261360001;0;True;11;1;88.36615270376699
8;8;1449486010;2.15086960793;0.7654179930689999;0.0692109018564;0;True;11;1;88.36615270376699
9;9;1449486010;2.15083146095;0.765612840652;0.06926164031030001;0;True;11;1;88.36615270376699
10;10;1449486010;2.1509869098700003;0.765684843063;0.06906830519439999;0;True;11;1;88.36615270376699
11;11;1449486010;2.15089154243;0.7659305334090001;0.0691348463297;0;True;11;1;88.36615270376699
12;12;1449486010;2.15074110031;0.765832602978;0.06921733915810001;0;True;11;1;88.36615270376699
13;13;1449486010;2.15104818344;0.765699207783;0.0691191330552;0;True;11;1;88.36615270376699
14;14;1449486010;2.15091633797;0.7658055424690001;0.0691580101848;0;True;11;1;88.36615270376699
15;15;1449486010;2.1510076522799997;0.765484809875;0.0691251009703;0;True;11;1;88.36615270376699
16;16;1449486010;2.15082669258;0.7655226588249999;0.0692533925176;0;True;11;1;88.36615270376699
17;17;1449486010;2.15089869499;0.765460193157;0.0692675933242;0;True;11;1;88.36615270376699
18;18;1449486010;2.15089416504;0.765420615673;0.0693003609776;0;True;11;1;88.36615270376699
19;19;1449486010;2.1508603096;0.765731453896;0.06933144479989999;0;True;11;1;88.36615270376699
20;20;1449486010;2.15088963509;0.765628457069;0.0691999346018;0;True;11;1;88.36615270376699
21;21;1449486010;2.15088748932;0.765577614307;0.0693322643638;0;True;11;1;88.36615270376699
22;22;1449486010;2.1508417129499997;0.7656946778300001;0.06935772299769999;0;True;11;1;88.36615270376699
23;23;1449486010;2.15097403526;0.765748918056;0.0691163390875;0;True;11;1;88.36615270376699
24;24;1449486010;2.15098762512;0.7653364539149999;0.06907659769060001;0;True;11;1;88.36615270376699
25;25;1449486010;2.1508374214200003;0.76572984457;0.06926407665010001;0;True;11;1;88.36615270376699
26;26;1449486010;2.1508564949;0.766013681889;0.0693325325847;0;True;11;1;88.36615270376699
27;27;1449486010;2.15106010437;0.766016066074;0.06896486133339999;0;True;11;1;88.36615270376699
28;28;1449486010;2.15098929405;0.7659653425220001;0.0692063346505;0;True;11;1;88.36615270376699
29;29;1449486010;2.1509432792700003;0.765624165535;0.06930426508189999;0;True;11;1;88.36615270376699
30;30;1449486010;2.1510386467;0.765618801117;0.0689578056335;0;True;11;1;88.36615270376699
31;31;1449486010;2.1509518623400004;0.7660042643549999;0.0692199096084;0;True;11;1;88.36615270376699
32;32;1449486010;2.15086817741;0.7655907273289999;0.069303393364;0;True;11;1;88.36615270376699
33;33;1449486010;2.1510062217700003;0.765729963779;0.06918355077510001;0;True;11;1;88.36615270376699
34;34;1449486010;2.15106272697;0.765722215176;0.0690934881568;0;True;11;1;88.36615270376699
35;35;1449486010;2.15078997612;0.765516936779;0.06929450482130001;0;True;11;1;88.36615270376699
36;36;1449486010;2.1509795188900003;0.765972554684;0.0690121501684;0;True;11;1;88.36615270376699
37;37;1449486010;2.15092206001;0.765778720379;0.0691885650158;0;True;11;1;88.36615270376699
38;38;1449486010;2.15091228485;0.7654720544820001;0.0692543759942;0;True;11;1;88.36615270376699
39;39;1449486010;2.15088915825;0.7659258246420001;0.06910125911239999;0;True;11;1;88.36615270376699
40;40;1449486010;2.1508922576900003;0.7655640244480001;0.06927266716960001;0;True;11;1;88.36615270376699
41;41;1449486010;2.1508738994599996;0.765878260136;0.06923713535069999;0;True;11;1;88.36615270376699
42;42;1449486010;2.15102052689;0.765780568123;0.06908183544869999;0;True;11;1;88.36615270376699
43;43;1449486010;2.15097236633;0.7656101584430001;0.06927250325680001;0;True;11;1;88.36615270376699
44;44;1449486010;2.15104699135;0.7656543850900001;0.0690449178219;0;True;11;1;88.36615270376699
45;45;1449486010;2.1509168148;0.765586197376;0.0691862851381;0;True;11;1;88.36615270376699
46;46;1449486010;2.15102982521;0.7654783725740001;0.0692063570023;0;True;11;1;88.36615270376699
47;47;1449486010;2.1510090827900004;0.7659077048299999;0.06914516538380001;0;True;11;1;88.36615270376699
48;48;1449486010;2.15094304085;0.765638530254;0.0692050084472;0;True;11;1;88.36615270376699
49;49;1449486010;2.15085268021;0.7654988765719999;0.069291383028;0;True;11;1;88.36615270376699
50;50;1449486010;2.15105009079;0.765878260136;0.0689157098532;0;True;11;1;88.36615270376699
51;51;1449486010;2.15108370781;0.7656925916670001;0.0690459012985;0;True;11;1;88.36615270376699
52;52;1449486010;2.15105605125;0.765904247761;0.068990111351;0;True;11;1;88.36615270376699
53;53;1449486010;2.15096735954;0.7656558752060001;0.0692134276032;0;True;11;1;88.36615270376699
54;54;1449486010;2.15089869499;0.7655843496320001;0.0692514330149;0;True;11;1;88.36615270376699
55;55;1449486010;2.15097689629;0.765494227409;0.0692159458995;0;True;11;1;88.36615270376699
56;56;1449486010;2.1507041454299998;0.7653011083600001;0.0693162679672;0;True;11;1;88.36615270376699
57;57;1449486010;2.15080761909;0.765537261963;0.06925602257249999;0;True;11;1;88.36615270376699
58;58;1449486010;2.1508972644799997;0.765510678291;0.0692425519228;0;True;11;1;88.36615270376699
59;59;1449486010;2.1509127616900003;0.765661597252;0.06916147470470001;0;True;11;1;88.36615270376699
60;60;1449486010;2.1510565280900003;0.76569634676;0.0690600201488;0;True;11;1;88.36615270376699
61;61;1449486010;2.1510310173;0.765532553196;0.06894213706249999;0;True;11;1;88.36615270376699
62;62;1449486010;2.15089988708;0.7654055356980001;0.0692609548569;0;True;11;1;88.36615270376699
63;63;1449486010;2.1509115696000003;0.765645623207;0.06915038824080001;0;True;11;1;88.36615270376699
64;64;1449486010;2.1509759426099997;0.7658224701880001;0.0691568925977;0;True;11;1;88.36615270376699
65;65;1449486010;2.15092325211;0.765570342541;0.0692273452878;0;True;11;1;88.36615270376699
66;66;1449486010;2.1509017944299997;0.765464842319;0.0692149326205;0;True;11;1;88.36615270376699
67;67;1449486010;2.15087771416;0.7655749320980001;0.0692473575473;0;True;11;1;88.36615270376699
68;68;1449486010;2.15080189705;0.7658151388169999;0.0691554695368;0;True;11;1;88.36615270376699
69;69;1449486010;2.15095758438;0.7658261656759999;0.06905574351549999;0;True;11;1;88.36615270376699
70;70;1449486010;2.15088510513;0.765642523766;0.0691429674625;0;True;11;1;88.36615270376699
71;71;1449486010;2.15099406242;0.765692353249;0.0689863041043;0;True;11;1;88.36615270376699
72;72;1449486010;2.1506717205;0.765120387077;0.069414421916;0;True;11;1;88.36615270376699
73;73;1449486010;2.1509368419599997;0.765560746193;0.069202631712;0;True;11;1;88.36615270376699
74;74;1449486010;2.15102124214;0.765650331974;0.06890705972910001;0;True;11;1;88.36615270376699
75;75;1449486010;2.1508486270900002;0.765488624573;0.06923895329239999;0;True;11;1;88.36615270376699
76;76;1449486010;2.1510078907;0.765726029873;0.0689907968044;0;True;11;1;88.36615270376699
77;77;1449486010;2.15085220337;0.765631020069;0.06925493478780001;0;True;11;1;88.36615270376699
78;78;1449486010;2.15103292465;0.765701711178;0.0690159350634;0;True;11;1;88.36615270376699
79;79;1449486010;2.15086770058;0.765571951866;0.0691137611866;0;True;11;1;88.36615270376699
80;80;1449486010;2.15085268021;0.765454888344;0.0692420527339;0;True;11;1;88.36615270376699
81;81;1449486010;2.1509308815;0.765984475613;0.0690186843276;0;True;11;1;88.36615270376699
82;82;1449486010;2.15098428726;0.765745460987;0.06904908269639999;0;True;11;1;88.36615270376699
83;83;1449486010;2.1510386467;0.765784263611;0.06905675679449999;0;True;11;1;88.36615270376699
84;84;1449486010;2.15089869499;0.765384674072;0.06924410164360001;0;True;11;1;88.36615270376699
85;85;1449486010;2.15071225166;0.765319526196;0.06931054592130001;0;True;11;1;88.36615270376699
86;86;1449486010;2.15087151527;0.765723466873;0.0691843479872;0;True;11;1;88.36615270376699
87;87;1449486010;2.15095758438;0.7656804919239999;0.06910192221400001;0;True;11;1;88.36615270376699
88;88;1449486010;2.15103125572;0.766012728214;0.06891925632950001;0;True;11;1;88.36615270376699
89;89;1449486010;2.1510252952599997;0.7657791376109999;0.06905768066639999;0;True;11;1;88.36615270376699
90;90;1449486010;2.15083551407;0.765746474266;0.0691519454122;0;True;11;1;88.36615270376699
91;91;1449486010;2.1509137153599998;0.7655751109119999;0.0691944509745;0;True;11;1;88.36615270376699
92;92;1449486010;2.15100359917;0.7657409906389999;0.06903605163099999;0;True;11;1;88.36615270376699
93;93;1449486010;2.15102505684;0.7658646106720001;0.0689895823598;0;True;11;1;88.36615270376699
94;94;1449486010;2.15091943741;0.765680730343;0.0691569671035;0;True;11;1;88.36615270376699
95;95;1449486010;2.1509790420500003;0.7659771442409999;0.0689589306712;0;True;11;1;88.36615270376699
96;96;1449486010;2.15101718903;0.7656055688860001;0.06903244555;0;True;11;1;88.36615270376699
97;97;1449486010;2.15079975128;0.765621185303;0.0692419484258;0;True;11;1;88.36615270376699
98;98;1449486010;2.15103292465;0.76583892107;0.06896659731860001;0;True;11;1;88.36615270376699
99;99;1449486010;2.15099620819;0.765945971012;0.06904390454289999;0;True;11;1;88.36615270376699
100;100;1449486010;2.1510188579599996;0.765698671341;0.06892737001180001;0;True;11;1;88.36615270376699
101;101;1449486010;2.1508026122999997;0.765652954578;0.0692304819822;0;True;11;1;88.36615270376699
102;102;1449486010;2.15091514587;0.7655614018440001;0.069206379354;0;True;11;1;88.36615270376699
103;103;1449486010;2.1510610580400003;0.76568210125;0.0690168961883;0;True;11;1;88.36615270376699
104;104;1449486010;2.1510267257700004;0.765686452389;0.0690844133496;0;True;11;1;88.36615270376699
105;105;1449486010;2.1510515213;0.7657147049899999;0.0690540373325;0;True;11;1;88.36615270376699
106;106;1449486010;2.15093064308;0.766063153744;0.06909900158639999;0;True;11;1;88.36615270376699
107;107;1449486010;2.15102434158;0.765873372555;0.0688929408789;0;True;11;1;88.36615270376699
108;108;1449486010;2.1509454250299997;0.765927791595;0.06901188194749999;0;True;11;1;88.36615270376699
109;109;1449486010;2.15086603165;0.7654198408130001;0.069163441658;0;True;11;1;88.36615270376699
110;110;1449486010;2.1509718895;0.765705883503;0.0690397769213;0;True;11;1;88.36615270376699
111;111;1449486010;2.15081858635;0.765798211098;0.0692996233702;0;True;11;1;88.36615270376699
112;112;1449486010;2.15089941025;0.765364468098;0.06913648545739999;0;True;11;1;88.36615270376699
113;113;1449486010;2.15100002289;0.7657692432400001;0.0689087733626;0;True;11;1;88.36615270376699
114;114;1449486010;2.15089297295;0.765786886215;0.06909775733950001;0;True;11;1;88.36615270376699
115;115;1449486010;2.1508705616;0.765583395958;0.06921915709969999;0;True;11;1;88.36615270376699
116;116;1449486010;2.15101194382;0.765949249268;0.0689131319523;0;True;11;1;88.36615270376699
117;117;1449486010;2.15095567703;0.7656444311139999;0.06910715997219999;0;True;11;1;88.36615270376699
118;118;1449486010;2.1510477066;0.765693426132;0.0690460577607;0;True;11;1;88.36615270376699
119;119;1449486010;2.15065693855;0.765277564526;0.0692972689867;0;True;11;1;88.36615270376699
120;120;1449486010;2.15074062347;0.76528441906;0.0692482963204;0;True;11;1;88.36615270376699
121;121;1449486010;2.15102148056;0.7655771374699999;0.0689159929752;0;True;11;1;88.36615270376699
122;122;1449486010;2.15086722374;0.765387654305;0.06912853568789999;0;True;11;1;88.36615270376699
123;123;1449486010;2.15078783035;0.76542198658;0.0691980943084;0;True;11;1;88.36615270376699
124;124;1449486010;2.15101385117;0.765956699848;0.0690060332417;0;True;11;1;88.36615270376699
125;125;1449486010;2.1507766246799997;0.765593707561;0.069193162024;0;True;11;1;88.36615270376699
126;126;1449486010;2.15089058876;0.765571951866;0.0692611560225;0;True;11;1;88.36615270376699
127;127;1449486010;2.1509439945200004;0.765682160854;0.0691391825676;0;True;11;1;88.36615270376699
128;128;1449486010;2.1508412361099998;0.765435695648;0.0692656338215;0;True;11;1;88.36615270376699
129;129;1449486010;2.15088820457;0.765636086464;0.0691425055265;0;True;11;1;88.36615270376699
130;130;1449486010;2.15097165108;0.765981972218;0.06897871196269999;0;True;11;1;88.36615270376699
131;131;1449486010;2.15082478523;0.765552997589;0.0692229494452;0;True;11;1;88.36615270376699
132;132;1449486010;2.15093374252;0.766081392765;0.0691174194217;0;True;11;1;88.36615270376699
133;133;1449486010;2.15095019341;0.7655192017560001;0.0691860094666;0;True;11;1;88.36615270376699
134;134;1449486010;2.1508839130400004;0.765459120274;0.0692323818803;0;True;11;1;88.36615270376699
135;135;1449486010;2.15095806122;0.7655327916150001;0.069182895124;0;True;11;1;88.36615270376699
136;136;1449486010;2.15090322495;0.765641391277;0.069138340652;0;True;11;1;88.36615270376699
137;137;1449486010;2.15080356598;0.76552182436;0.06931648403410001;0;True;11;1;88.36615270376699
138;138;1449486010;2.1510107517200003;0.765942573547;0.068912230432;0;True;11;1;88.36615270376699
139;139;1449486010;2.1509003639200004;0.765741586685;0.0691290274262;0;True;11;1;88.36615270376699
140;140;1449486010;2.15105700493;0.7656660676;0.06904175132510001;0;True;11;1;88.36615270376699
141;141;1449486010;2.1507487297099996;0.765438497066;0.06937215477230001;0;True;11;1;88.36615270376699
142;142;1449486010;2.1509010791799996;0.765549778938;0.06921802461149999;0;True;11;1;88.36615270376699
143;143;1449486010;2.15103507042;0.76569801569;0.06904502213;0;True;11;1;88.36615270376699
144;144;1449486010;2.15078830719;0.7654567360879999;0.06925191730260001;0;True;11;1;88.36615270376699
145;145;1449486010;2.15089416504;0.765629768372;0.06919375061989999;0;True;11;1;88.36615270376699
146;146;1449486010;2.15090870857;0.765602827072;0.06919384002689999;0;True;11;1;88.36615270376699
147;147;1449486010;2.1509141922;0.765470743179;0.0692290812731;0;True;11;1;88.36615270376699
148;148;1449486010;2.1510426998099996;0.7659863829610001;0.0689105167985;0;True;11;1;88.36615270376699
149;149;1449486010;2.15095424652;0.765707492828;0.0691388472915;0;True;11;1;88.36615270376699
150;150;1449486010;2.1509611606599996;0.765635967255;0.0691391453147;0;True;11;1;88.36615270376699
151;151;1449486010;2.15101385117;0.765733957291;0.0689875409007;0;True;11;1;88.36615270376699
152;152;1449486010;2.1510047912599997;0.765503585339;0.06920671463010002;0;True;11;1;88.36615270376699
153;153;1449486010;2.1508972644799997;0.7658386826520001;0.069145694375;0;True;11;1;88.36615270376699
154;154;1449486010;2.1508362293200003;0.765559136868;0.0692729204893;0;True;11;1;88.36615270376699
155;155;1449486010;2.15101790428;0.766005933285;0.06896408647300001;0;True;11;1;88.36615270376699
156;156;1449486010;2.15101385117;0.7656519412989999;0.06911005079749999;0;True;11;1;88.36615270376699
157;157;1449486010;2.15105342865;0.765858709812;0.06900268793110001;0;True;11;1;88.36615270376699
158;158;1449486010;2.15096378326;0.765650451183;0.0692649036646;0;True;11;1;88.36615270376699
159;159;1449486010;2.15089344978;0.765553057194;0.0692226067185;0;True;11;1;88.36615270376699
160;160;1449486010;2.1508255004900003;0.76531714201;0.0693032070994;0;True;11;1;88.36615270376699
161;161;1449486010;2.15083861351;0.765368580818;0.0692874491215;0;True;11;1;88.36615270376699
162;162;1449486010;2.15085268021;0.765836298466;0.0692400485277;0;True;11;1;88.36615270376699
163;163;1449486010;2.1508605480200003;0.766042649746;0.0693745836616;0;True;11;1;88.36615270376699
164;164;1449486010;2.15096187592;0.765739321709;0.0691299587488;0;True;11;1;88.36615270376699
165;165;1449486010;2.15095090866;0.765501260757;0.0692369192839;0;True;11;1;88.36615270376699
166;166;1449486010;2.15079331398;0.7657809257510001;0.0692893192172;0;True;11;1;88.36615270376699
167;167;1449486011;2.15087127686;0.7653580307960001;0.0692569985986;1;True;11;1;88.36615270376699
168;168;1449486011;2.15100932121;0.7659719586370001;0.06898857653139999;1;True;11;1;88.36615270376699
169;169;1449486011;2.15102028847;0.7657294869419999;0.0689707994461;1;True;11;1;88.36615270376699
170;170;1449486011;2.1508097648599995;0.765687525272;0.069238036871;1;True;11;1;88.36615270376699
171;171;1449486011;2.15105986595;0.76571393013;0.0690348669887;1;True;11;1;88.36615270376699
172;172;1449486011;2.1509160995500003;0.765752375126;0.0690956264734;1;True;11;1;88.36615270376699
173;173;1449486011;2.15105104446;0.765992939472;0.06891904026269999;1;True;11;1;88.36615270376699
174;174;1449486011;2.15104937553;0.765952050686;0.06891027092930001;1;True;11;1;88.36615270376699
175;175;1449486011;2.15104293823;0.765691578388;0.06909265369180001;1;True;11;1;88.36615270376699
176;176;1449486011;2.15101242065;0.765689730644;0.06895478814839999;1;True;11;1;88.36615270376699
177;177;1449486011;2.15084385872;0.7658064365389999;0.0692261755466;1;True;11;1;88.36615270376699
178;178;1449486011;2.15095686913;0.76561743021;0.0691573172808;1;True;11;1;88.36615270376699
179;179;1449486011;2.1509611606599996;0.7656788825990001;0.06910486519339999;1;True;11;1;88.36615270376699
180;180;1449486011;2.15095162392;0.7656437754629999;0.0689911097288;1;True;11;1;88.36615270376699
181;181;1449486011;2.15079712868;0.7658490538600001;0.06913996487860001;1;True;11;1;88.36615270376699
182;182;1449486011;2.15091133118;0.765662550926;0.0692235007882;1;True;11;1;88.36615270376699
183;183;1449486011;2.15094518661;0.7655020952220001;0.06910546869039999;1;True;11;1;88.36615270376699
184;184;1449486011;2.15084266663;0.765543818474;0.069216735661;1;True;11;1;88.36615270376699
185;185;1449486011;2.15102767944;0.7659898400309999;0.0689219757915;1;True;11;1;88.36615270376699
186;186;1449486011;2.15096783638;0.7657701969149999;0.0689801722765;1;True;11;1;88.36615270376699
187;187;1449486011;2.15105628967;0.765570640564;0.0689489766955;1;True;11;1;88.36615270376699
188;188;1449486011;2.1508641243;0.765463232994;0.06918219476939999;1;True;11;1;88.36615270376699
189;189;1449486011;2.15082907677;0.765379667282;0.06919497251510001;1;True;11;1;88.36615270376699
190;190;1449486011;2.15086698532;0.765812516212;0.06906019896269999;1;True;11;1;88.36615270376699
191;191;1449486011;2.15091180801;0.7658115625380001;0.0690314024687;1;True;11;1;88.36615270376699
192;192;1449486011;2.1509642601;0.7656199932100001;0.06910999864339999;1;True;11;1;88.36615270376699
193;193;1449486011;2.15100693703;0.765848815441;0.0689035877585;1;True;11;1;88.36615270376699
194;194;1449486011;2.15099239349;0.7658680081370001;0.0690144896507;1;True;11;1;88.36615270376699
195;195;1449486011;2.15092682838;0.765438377857;0.0690198093653;1;True;11;1;88.36615270376699
196;196;1449486011;2.1510174274400002;0.765716552734;0.0690164193511;1;True;11;1;88.36615270376699
197;197;1449486011;2.1508924961099996;0.765722215176;0.0691473037004;1;True;11;1;88.36615270376699
198;198;1449486011;2.15099453926;0.7656091451639999;0.0689123868942;1;True;11;1;88.36615270376699
199;199;1449486011;2.15098333359;0.7657763957979999;0.0689615309238;1;True;11;1;88.36615270376699
200;200;1449486011;2.15099024773;0.76588755846;0.0689899250865;1;True;11;1;88.36615270376699
201;201;1449486011;2.1510422229799997;0.7656905055050001;0.06904105097060001;1;True;11;1;88.36615270376699
202;202;1449486011;2.15092635155;0.765659511089;0.06900928169489999;1;True;11;1;88.36615270376699
203;203;1449486011;2.15089583397;0.765580296516;0.06914993375539999;1;True;11;1;88.36615270376699
204;204;1449486011;2.1510288715400003;0.765999674797;0.06889423727989999;1;True;11;1;88.36615270376699
205;205;1449486011;2.15084886551;0.7659046053890001;0.0690198913217;1;True;11;1;88.36615270376699
206;206;1449486011;2.15097475052;0.7657102942470001;0.0689456015825;1;True;11;1;88.36615270376699
207;207;1449486011;2.15078449249;0.7655494213099999;0.0692237392068;1;True;11;1;88.36615270376699
208;208;1449486011;2.15083861351;0.7653655409810001;0.0692277625203;1;True;11;1;88.36615270376699
209;209;1449486011;2.15084791183;0.765573978424;0.0692110359669;1;True;11;1;88.36615270376699
210;210;1449486011;2.1508932113599997;0.7655670046809999;0.0691595599055;1;True;11;1;88.36615270376699
211;211;1449486011;2.15094590187;0.7658610939980001;0.0690941289067;1;True;11;1;88.36615270376699
212;212;1449486011;2.1508574485799996;0.765448868275;0.0692322030663;1;True;11;1;88.36615270376699
213;213;1449486011;2.15079045296;0.765627324581;0.06924189627169999;1;True;11;1;88.36615270376699
214;214;1449486011;2.15102744102;0.765678167343;0.0690539330244;1;True;11;1;88.36615270376699
215;215;1449486011;2.15087723732;0.7656449675560001;0.0692225769162;1;True;11;1;88.36615270376699
216;216;1449486011;2.1510117053999998;0.765554845333;0.0690123140812;1;True;11;1;88.36615270376699
217;217;1449486011;2.15096879005;0.765542268753;0.06906084716319999;1;True;11;1;88.36615270376699
218;218;1449486011;2.15097403526;0.765472531319;0.0691783353686;1;True;11;1;88.36615270376699
219;219;1449486011;2.1509323120099997;0.765521645546;0.06918282806869999;1;True;11;1;88.36615270376699
220;220;1449486011;2.1509044170400005;0.76547563076;0.06914119422439999;1;True;11;1;88.36615270376699
221;221;1449486011;2.1508533954599995;0.765727996826;0.0692589133978;1;True;11;1;88.36615270376699
222;222;1449486011;2.1510233879099996;0.7659234404559999;0.0688798427582;1;True;11;1;88.36615270376699
223;223;1449486011;2.1508567333200004;0.765826940536;0.0692075490952;1;True;11;1;88.36615270376699
224;224;1449486011;2.15105605125;0.7656943798070001;0.0690411478281;1;True;11;1;88.36615270376699
225;225;1449486011;2.1508202552799998;0.7655531167980001;0.069224640727;1;True;11;1;88.36615270376699
226;226;1449486011;2.15096211433;0.7655137777330001;0.06917766481639999;1;True;11;1;88.36615270376699
227;227;1449486011;2.1509907245599997;0.765709340572;0.0689998567104;1;True;11;1;88.36615270376699
228;228;1449486011;2.1510148048400004;0.765916109085;0.0688788220286;1;True;11;1;88.36615270376699
229;229;1449486011;2.15091109276;0.765589058399;0.06914179772139999;1;True;11;1;88.36615270376699
230;230;1449486011;2.15095758438;0.765614032745;0.06911768764260001;1;True;11;1;88.36615270376699
231;231;1449486011;2.15094447136;0.7655826210979999;0.06917826831339999;1;True;11;1;88.36615270376699
232;232;1449486011;2.1508116722099997;0.7653511166570001;0.0692800953984;1;True;11;1;88.36615270376699
233;233;1449486011;2.15091633797;0.7657231092450001;0.06912722438569999;1;True;11;1;88.36615270376699
234;234;1449486011;2.15090727806;0.7652918696400001;0.069233417511;1;True;11;1;88.36615270376699
235;235;1449486011;2.15097689629;0.7655187845229999;0.0691969618201;1;True;11;1;88.36615270376699
236;236;1449486011;2.1508412361099998;0.765644133091;0.0691726654768;1;True;11;1;88.36615270376699
237;237;1449486011;2.15104722977;0.765710234642;0.069069892168;1;True;11;1;88.36615270376699
238;238;1449486011;2.15081357956;0.765489816666;0.0694175958633;1;True;11;1;88.36615270376699
239;239;1449486011;2.1509270668;0.765973806381;0.0691873058677;1;True;11;1;88.36615270376699
240;240;1449486011;2.1509270668;0.765655398369;0.06915102154019999;1;True;11;1;88.36615270376699
241;241;1449486011;2.15089535713;0.765544354916;0.06921922415489999;1;True;11;1;88.36615270376699
242;242;1449486011;2.1509947776800002;0.7656537890430001;0.0692072808743;1;True;11;1;88.36615270376699
243;243;1449486011;2.15095496178;0.7657722234729999;0.06917583942410001;1;True;11;1;88.36615270376699
244;244;1449486011;2.15101242065;0.7659673690800001;0.06913502514360001;1;True;11;1;88.36615270376699
245;245;1449486011;2.1510386467;0.765673696995;0.069019138813;1;True;11;1;88.36615270376699
246;246;1449486011;2.15099835396;0.7657713294030001;0.0690420120955;1;True;11;1;88.36615270376699
247;247;1449486011;2.15082788467;0.7654992938040001;0.0693451166153;1;True;11;1;88.36615270376699
248;248;1449486011;2.15102982521;0.7658006548880001;0.06918299198149999;1;True;11;1;88.36615270376699
249;249;1449486011;2.1509358882900003;0.765344083309;0.069252371788;1;True;11;1;88.36615270376699
250;250;1449486011;2.15099978447;0.7654377222059999;0.0691501349211;1;True;11;1;88.36615270376699
251;251;1449486011;2.1510252952599997;0.7656377553939999;0.0691673085093;1;True;11;1;88.36615270376699
252;252;1449486011;2.15104055405;0.765757024288;0.068997181952;1;True;11;1;88.36615270376699
253;253;1449486011;2.15100240707;0.7656355500220001;0.06919485330580001;1;True;11;1;88.36615270376699
254;254;1449486011;2.15086293221;0.765420913696;0.06925369799139999;1;True;11;1;88.36615270376699
255;255;1449486011;2.15099382401;0.76582211256;0.0691768825054;1;True;11;1;88.36615270376699
256;256;1449486011;2.15086817741;0.765578567982;0.0692518055439;1;True;11;1;88.36615270376699
257;257;1449486011;2.15096759796;0.765610992908;0.0692207664251;1;True;11;1;88.36615270376699
258;258;1449486011;2.15091347694;0.7656716704369999;0.0691865831614;1;True;11;1;88.36615270376699
259;259;1449486011;2.1509554386099996;0.765691637993;0.0692013725638;1;True;11;1;88.36615270376699
260;260;1449486011;2.15104866028;0.765726208687;0.06904034316539999;1;True;11;1;88.36615270376699
261;261;1449486011;2.1508872509;0.7655464410780001;0.0691779255867;1;True;11;1;88.36615270376699
262;262;1449486011;2.15091061592;0.7656158208849999;0.0692282766104;1;True;11;1;88.36615270376699
263;263;1449486011;2.15091538429;0.765575170517;0.0692573040724;1;True;11;1;88.36615270376699
264;264;1449486011;2.15099668503;0.765806734562;0.0691543444991;1;True;11;1;88.36615270376699
265;265;1449486011;2.15104317665;0.765639901161;0.06893309950830001;1;True;11;1;88.36615270376699
266;266;1449486011;2.1510388851199997;0.765689253807;0.06903146952389999;1;True;11;1;88.36615270376699
267;267;1449486011;2.15093040466;0.76539504528;0.06925801932810001;1;True;11;1;88.36615270376699
268;268;1449486011;2.15103197098;0.7656370401379999;0.0691364258528;1;True;11;1;88.36615270376699
269;269;1449486011;2.1509897708900003;0.7656390666959999;0.0691626966;1;True;11;1;88.36615270376699
270;270;1449486011;2.1510584354400004;0.765734553337;0.06908366829160001;1;True;11;1;88.36615270376699
271;271;1449486011;2.15091252327;0.7655676007269999;0.06929790973660001;1;True;11;1;88.36615270376699
272;272;1449486011;2.1508743763;0.76538592577;0.0692192986608;1;True;11;1;88.36615270376699
273;273;1449486011;2.1509718895;0.765560686588;0.0690657272935;1;True;11;1;88.36615270376699
274;274;1449486011;2.15103840828;0.7656004428859999;0.06892767548560001;1;True;11;1;88.36615270376699
275;275;1449486011;2.15102171898;0.765749573708;0.06901966780419999;1;True;11;1;88.36615270376699
276;276;1449486011;2.15103650093;0.7657614946369999;0.0689903125167;1;True;11;1;88.36615270376699
277;277;1449486011;2.15083146095;0.7657340765;0.0693121626973;1;True;11;1;88.36615270376699
278;278;1449486011;2.15096831322;0.765690207481;0.0691361874342;1;True;11;1;88.36615270376699
279;279;1449486011;2.15099787712;0.765982925892;0.06910520792010001;1;True;11;1;88.36615270376699
280;280;1449486011;2.1508362293200003;0.765766859055;0.06923748552799999;1;True;11;1;88.36615270376699
281;281;1449486011;2.15095973015;0.765676677227;0.0691998451948;1;True;11;1;88.36615270376699
282;282;1449486011;2.1510305404700003;0.7657211422920001;0.06897420436139999;1;True;11;1;88.36615270376699
283;283;1449486011;2.15091013908;0.76575165987;0.0691594332457;1;True;11;1;88.36615270376699
284;284;1449486011;2.1509025096900003;0.7654628157619999;0.0691096261144;1;True;11;1;88.36615270376699
285;285;1449486011;2.15075182915;0.765336811543;0.06932210177180001;1;True;11;1;88.36615270376699
286;286;1449486011;2.15101099014;0.765639305115;0.0689404010773;1;True;11;1;88.36615270376699
287;287;1449486011;2.15103840828;0.765981972218;0.0688968971372;1;True;11;1;88.36615270376699
288;288;1449486011;2.1508066654199998;0.765300750732;0.0692107230425;1;True;11;1;88.36615270376699
289;289;1449486011;2.15087223053;0.765493690968;0.06924917548889999;1;True;11;1;88.36615270376699
290;290;1449486011;2.15105605125;0.765683054924;0.06901392340660001;1;True;11;1;88.36615270376699
291;291;1449486011;2.15088224411;0.7655258774760001;0.0692524164915;1;True;11;1;88.36615270376699
292;292;1449486011;2.15103292465;0.765714168549;0.069043122232;1;True;11;1;88.36615270376699
293;293;1449486011;2.1510381698599996;0.7659913301469999;0.0688898265362;1;True;11;1;88.36615270376699
294;294;1449486011;2.15083456039;0.7654213309289999;0.0691889673471;1;True;11;1;88.36615270376699
295;295;1449486011;2.15101981163;0.7658941149709999;0.06889988482;1;True;11;1;88.36615270376699
296;296;1449486011;2.1507730484;0.765326321125;0.0692441910505;1;True;11;1;88.36615270376699
297;297;1449486011;2.15105891228;0.7656900882719999;0.0690331980586;1;True;11;1;88.36615270376699
298;298;1449486011;2.15089058876;0.765758275986;0.06911709159610001;1;True;11;1;88.36615270376699
299;299;1449486011;2.1509408950799997;0.7658638954160001;0.0691068097949;1;True;11;1;88.36615270376699
300;300;1449486011;2.15101146698;0.76576256752;0.0690807104111;1;True;11;1;88.36615270376699
301;301;1449486011;2.15084052086;0.7656896710400001;0.06913876533510001;1;True;11;1;88.36615270376699
302;302;1449486011;2.15084218979;0.765355288982;0.0691591873765;1;True;11;1;88.36615270376699
303;303;1449486011;2.15092420578;0.7656403779979999;0.0691226199269;1;True;11;1;88.36615270376699
304;304;1449486011;2.15099692345;0.765758216381;0.0691050961614;1;True;11;1;88.36615270376699
305;305;1449486011;2.15102458;0.765705823898;0.06901017576460002;1;True;11;1;88.36615270376699
306;306;1449486011;2.15097045898;0.7657685279850001;0.0691365897655;1;True;11;1;88.36615270376699
307;307;1449486011;2.15081143379;0.765663862228;0.0692354738712;1;True;11;1;88.36615270376699
308;308;1449486011;2.15099525452;0.765889704227;0.0690286830068;1;True;11;1;88.36615270376699
309;309;1449486011;2.1510233879099996;0.76599830389;0.06887883692980001;1;True;11;1;88.36615270376699
310;310;1449486011;2.1507925987200003;0.7653120160100001;0.06917393952610001;1;True;11;1;88.36615270376699
311;311;1449486011;2.1508927345299997;0.7659932971;0.0690740123391;1;True;11;1;88.36615270376699
312;312;1449486011;2.15088796616;0.765799105167;0.06920334696769999;1;True;11;1;88.36615270376699
313;313;1449486011;2.15085434914;0.765670061111;0.06916248053310001;1;True;11;1;88.36615270376699
314;314;1449486011;2.15081429482;0.765719354153;0.0692188367248;1;True;11;1;88.36615270376699
315;315;1449486011;2.1510155201;0.7656695842739999;0.0690797865391;1;True;11;1;88.36615270376699
316;316;1449486011;2.15090084076;0.765809357166;0.06897388398649999;1;True;11;1;88.36615270376699
317;317;1449486011;2.15077137947;0.765214979649;0.0693071782589;1;True;11;1;88.36615270376699
318;318;1449486011;2.151004076;0.765679419041;0.0689386948943;1;True;11;1;88.36615270376699
319;319;1449486011;2.1510148048400004;0.7656123638150001;0.0689841806889;1;True;11;1;88.36615270376699
320;320;1449486011;2.1509990692099996;0.765862464905;0.06893625110389999;1;True;11;1;88.36615270376699
321;321;1449486011;2.15078949928;0.7656342387199999;0.0693126395345;1;True;11;1;88.36615270376699
322;322;1449486011;2.15090537071;0.765681564808;0.06914752721789999;1;True;11;1;88.36615270376699
323;323;1449486011;2.1508581638299997;0.76544880867;0.0692381486297;1;True;11;1;88.36615270376699
324;324;1449486011;2.1509990692099996;0.76569378376;0.0689123421907;1;True;11;1;88.36615270376699
325;325;1449486011;2.15087509155;0.765472888947;0.0691992118955;1;True;11;1;88.36615270376699
326;326;1449486011;2.15104293823;0.765737652779;0.06904229521750001;1;True;11;1;88.36615270376699
327;327;1449486011;2.1510195732099997;0.765677452087;0.0689607262611;1;True;11;1;88.36615270376699
328;328;1449486011;2.15081501007;0.765349209309;0.0692767649889;1;True;11;1;88.36615270376699
329;329;1449486011;2.1510031223299997;0.765679955482;0.06893014162779999;1;True;11;1;88.36615270376699
330;330;1449486011;2.15095019341;0.765548706055;0.0692290365696;1;True;11;1;88.36615270376699
331;331;1449486011;2.1509277820599997;0.7657334208490001;0.0691351816058;1;True;11;1;88.36615270376699
332;332;1449486011;2.15083408356;0.7660776376719999;0.0692249163985;1;True;11;1;88.36615270376699
333;333;1449486011;2.1508533954599995;0.765475451946;0.0692501962185;1;True;11;1;88.36615270376699
334;334;1449486011;2.15089082718;0.76555621624;0.06928350031380001;1;True;11;1;88.36615270376699
335;335;1449486011;2.1508667469;0.765548348427;0.0693163573742;1;True;11;1;88.36615270376699
336;336;1449486011;2.15095329285;0.765615582466;0.0692903622985;1;True;11;1;88.36615270376699
337;337;1449486011;2.15088796616;0.7659333348270001;0.06909322738649999;1;True;11;1;88.36615270376699
338;338;1449486011;2.15098333359;0.765906751156;0.06907235831019999;1;True;11;1;88.36615270376699
339;339;1449486011;2.15096068382;0.76580953598;0.0691250562668;1;True;11;1;88.36615270376699
340;340;1449486011;2.1508607864400004;0.7655990123749999;0.06917954236269999;1;True;11;1;88.36615270376699
341;341;1449486011;2.15095877647;0.7656531929970001;0.06912060081960002;1;True;11;1;88.36615270376699
342;342;1449486011;2.15090584755;0.7654615640639999;0.0692171007395;1;True;11;1;88.36615270376699
343;343;1449486011;2.1509950161;0.765465974808;0.0689314827323;1;True;11;1;88.36615270376699
344;344;1449486011;2.1509759426099997;0.7656891942020001;0.0690918788314;1;True;11;1;88.36615270376699
345;345;1449486011;2.1509506702400003;0.7657214999199999;0.0691210925579;1;True;11;1;88.36615270376699
346;346;1449486011;2.1508333683000003;0.765751421452;0.0692407637835;1;True;11;1;88.36615270376699
347;347;1449486011;2.1507821083099996;0.765543520451;0.069263972342;1;True;11;1;88.36615270376699
348;348;1449486011;2.1510326862299998;0.765727877617;0.0690468028188;1;True;11;1;88.36615270376699
349;349;1449486011;2.15099358559;0.765844523907;0.0690785646439;1;True;11;1;88.36615270376699
350;350;1449486011;2.1510264873500002;0.765963733196;0.0688958913088;1;True;11;1;88.36615270376699
351;351;1449486011;2.15086317062;0.7654520273209999;0.0691863745451;1;True;11;1;88.36615270376699
352;352;1449486011;2.15093898773;0.765996992588;0.06929667294030001;1;True;11;1;88.36615270376699
353;353;1449486011;2.1510078907;0.765709757805;0.06895670294760001;1;True;11;1;88.36615270376699
354;354;1449486011;2.15104484558;0.76612496376;0.06903567910189999;1;True;11;1;88.36615270376699
355;355;1449486011;2.15106129646;0.76571816206;0.0690615698695;1;True;11;1;88.36615270376699
356;356;1449486011;2.15100955963;0.765689253807;0.06897871196269999;1;True;11;1;88.36615270376699
357;357;1449486011;2.1509943008400003;0.7659014463420001;0.069034896791;1;True;11;1;88.36615270376699
358;358;1449486011;2.15076327324;0.76577681303;0.0692848339677;1;True;11;1;88.36615270376699
359;359;1449486011;2.15091872215;0.7657374143600001;0.06915621459480001;1;True;11;1;88.36615270376699
360;360;1449486011;2.15104293823;0.765979409218;0.0689176097512;1;True;11;1;88.36615270376699
361;361;1449486011;2.1509890556299998;0.765656709671;0.0690824538469;1;True;11;1;88.36615270376699
362;362;1449486011;2.1508650779700003;0.7656370401379999;0.06914993375539999;1;True;11;1;88.36615270376699
363;363;1449486011;2.15105962753;0.765679240227;0.06905245780939999;1;True;11;1;88.36615270376699
364;364;1449486011;2.1510002613099997;0.765513420105;0.06915641576050001;1;True;11;1;88.36615270376699
365;365;1449486011;2.15095329285;0.76566785574;0.06909488141539999;1;True;11;1;88.36615270376699
366;366;1449486011;2.15094590187;0.7654907703399999;0.0692091286182;1;True;11;1;88.36615270376699
367;367;1449486011;2.15094852448;0.765712082386;0.0691153258085;1;True;11;1;88.36615270376699
368;368;1449486011;2.15105962753;0.765673518181;0.069054082036;1;True;11;1;88.36615270376699
369;369;1449486011;2.15094017982;0.7658081650730001;0.0691516250372;1;True;11;1;88.36615270376699
370;370;1449486011;2.15088415146;0.7656475901600001;0.0691630244255;1;True;11;1;88.36615270376699
371;371;1449486011;2.15095257759;0.765978217125;0.06902089715;1;True;11;1;88.36615270376699
372;372;1449486011;2.15093374252;0.765738010406;0.06902069598439999;1;True;11;1;88.36615270376699
373;373;1449486011;2.15106153488;0.7657144665719999;0.069067530334;1;True;11;1;88.36615270376699
374;374;1449486011;2.15104365349;0.765658199787;0.06894666701560001;1;True;11;1;88.36615270376699
375;375;1449486011;2.1510224342299997;0.765883862972;0.0689146369696;1;True;11;1;88.36615270376699
376;376;1449486011;2.15100574493;0.7655988335609999;0.0690392553806;1;True;11;1;88.36615270376699
377;377;1449486011;2.15085244179;0.765619277954;0.06919278204439999;1;True;11;1;88.36615270376699
378;378;1449486011;2.1509616375;0.765595912933;0.06915621459480001;1;True;11;1;88.36615270376699
379;379;1449486011;2.15067720413;0.765312612057;0.06932588666680001;1;True;11;1;88.36615270376699
380;380;1449486011;2.15087962151;0.765582203865;0.069252461195;1;True;11;1;88.36615270376699
381;381;1449486011;2.1509039402;0.76570469141;0.0691288858652;1;True;11;1;88.36615270376699
382;382;1449486011;2.1509282589;0.765709459782;0.069176338613;1;True;11;1;88.36615270376699
383;383;1449486011;2.1508574485799996;0.765628397465;0.0693413764238;1;True;11;1;88.36615270376699
384;384;1449486011;2.1510155201;0.765616416931;0.0689592584968;1;True;11;1;88.36615270376699
385;385;1449486011;2.15081834793;0.7652505636220001;0.0692189857364;1;True;11;1;88.36615270376699
386;386;1449486011;2.15104484558;0.765668451786;0.0690177157521;1;True;11;1;88.36615270376699
387;387;1449486011;2.15077352524;0.765554785728;0.0692170783877;1;True;11;1;88.36615270376699
388;388;1449486011;2.1509346962;0.765628814697;0.0691496133804;1;True;11;1;88.36615270376699
389;389;1449486011;2.15078878403;0.7655698060989999;0.0693358555436;1;True;11;1;88.36615270376699
390;390;1449486011;2.15104413033;0.7656695842739999;0.0690949857235;1;True;11;1;88.36615270376699
391;391;1449486011;2.15099000931;0.7658554911609999;0.06911261379719999;1;True;11;1;88.36615270376699
392;392;1449486011;2.15090608597;0.7658404707909999;0.0691320002079;1;True;11;1;88.36615270376699
393;393;1449486011;2.1509988308000003;0.7656984925270001;0.0689717009664;1;True;11;1;88.36615270376699
394;394;1449486011;2.15099787712;0.7656866908069999;0.0689360797405;1;True;11;1;88.36615270376699
395;395;1449486011;2.1508347988099996;0.765558481216;0.0692893862724;1;True;11;1;88.36615270376699
396;396;1449486011;2.1510195732099997;0.765942573547;0.06890471279619999;1;True;11;1;88.36615270376699
397;397;1449486011;2.15104866028;0.765669703484;0.0690428167582;1;True;11;1;88.36615270376699
398;398;1449486011;2.15088653564;0.765474796295;0.0692262127995;1;True;11;1;88.36615270376699
399;399;1449486011;2.1509680747999997;0.765705764294;0.0689696371555;1;True;11;1;88.36615270376699
400;400;1449486011;2.15088796616;0.7655260562899999;0.0692720636725;1;True;11;1;88.36615270376699
401;401;1449486011;2.1510162353499998;0.7656443715100001;0.06908935308460001;1;True;11;1;88.36615270376699
402;402;1449486011;2.1509335041;0.765564322472;0.06915467232469999;1;True;11;1;88.36615270376699
403;403;1449486011;2.1510076522799997;0.7656588554379999;0.0690711215138;1;True;11;1;88.36615270376699
404;404;1449486011;2.15087652206;0.7656438350679999;0.06923094391819999;1;True;11;1;88.36615270376699
405;405;1449486011;2.15094017982;0.7658171653749999;0.06906916201110001;1;True;11;1;88.36615270376699
406;406;1449486012;2.1508169174200003;0.765483796597;0.0692610442638;2;True;11;1;88.36615270376699
407;407;1449486012;2.15068840981;0.765542447567;0.0692987516522;2;True;11;1;88.36615270376699
408;408;1449486012;2.15088796616;0.765394687653;0.0691232085228;2;True;11;1;88.36615270376699
409;409;1449486012;2.15091109276;0.765600979328;0.06915586441760001;2;True;11;1;88.36615270376699
410;410;1449486012;2.1508257389099996;0.7657966613770001;0.0692192912102;2;True;11;1;88.36615270376699
411;411;1449486012;2.1510322094;0.766003072262;0.0689070373774;2;True;11;1;88.36615270376699
412;412;1449486012;2.1508264541599997;0.7654710412029999;0.0692050307989;2;True;11;1;88.36615270376699
413;413;1449486012;2.15093564987;0.7659512162209999;0.0690013095737;2;True;11;1;88.36615270376699
414;414;1449486012;2.1508975029;0.765713512897;0.06913907080889999;2;True;11;1;88.36615270376699
415;415;1449486012;2.15099740028;0.76552927494;0.068918146193;2;True;11;1;88.36615270376699
416;416;1449486012;2.15078616142;0.765257835388;0.06921862065789999;2;True;11;1;88.36615270376699
417;417;1449486012;2.151004076;0.765928566456;0.0688805356622;2;True;11;1;88.36615270376699
418;418;1449486012;2.15082597733;0.7654394507410001;0.0691969022155;2;True;11;1;88.36615270376699
419;419;1449486012;2.15099692345;0.7655824422840001;0.0689211860299;2;True;11;1;88.36615270376699
420;420;1449486012;2.1509988308000003;0.7660381793979999;0.069076731801;2;True;11;1;88.36615270376699
421;421;1449486012;2.1509189605700003;0.7656517624860001;0.0690891295671;2;True;11;1;88.36615270376699
422;422;1449486012;2.15086817741;0.7656098008159999;0.06916667521;2;True;11;1;88.36615270376699
423;423;1449486012;2.1508162021599997;0.765526354313;0.0692210644484;2;True;11;1;88.36615270376699
424;424;1449486012;2.15093564987;0.765733897686;0.0690994113684;2;True;11;1;88.36615270376699
425;425;1449486012;2.1510181427;0.7660443782809999;0.06892155855889999;2;True;11;1;88.36615270376699
426;426;1449486012;2.1508145332299997;0.7654899954800001;0.06918906420469999;2;True;11;1;88.36615270376699
427;427;1449486012;2.15073037148;0.7656245827670001;0.0692344233394;2;True;11;1;88.36615270376699
428;428;1449486012;2.1508924961099996;0.765607476234;0.0691756680608;2;True;11;1;88.36615270376699
429;429;1449486012;2.15089654922;0.7656662464139999;0.0691248700023;2;True;11;1;88.36615270376699
430;430;1449486012;2.1508927345299997;0.765643000603;0.069134503603;2;True;11;1;88.36615270376699
431;431;1449486012;2.15101361275;0.765798985958;0.068970143795;2;True;11;1;88.36615270376699
432;432;1449486012;2.1508691310900003;0.765465140343;0.0692057684064;2;True;11;1;88.36615270376699
433;433;1449486012;2.15087747574;0.7654608488079999;0.0692004933953;2;True;11;1;88.36615270376699
434;434;1449486012;2.15083122253;0.765501976013;0.0692143961787;2;True;11;1;88.36615270376699
435;435;1449486012;2.15084218979;0.765656888485;0.0691677853465;2;True;11;1;88.36615270376699
436;436;1449486012;2.15076732635;0.7653660178180001;0.0691658556461;2;True;11;1;88.36615270376699
437;437;1449486012;2.15095329285;0.765686273575;0.0690753832459;2;True;11;1;88.36615270376699
438;438;1449486012;2.15103983879;0.765699744225;0.0690384581685;2;True;11;1;88.36615270376699
439;439;1449486012;2.15092492104;0.765561699867;0.06919671595099999;2;True;11;1;88.36615270376699
440;440;1449486012;2.15096449852;0.765632212162;0.06913217902180001;2;True;11;1;88.36615270376699
441;441;1449486012;2.15086603165;0.765778660774;0.06914004683489999;2;True;11;1;88.36615270376699
442;442;1449486012;2.1509478092200003;0.765946805477;0.0692309588194;2;True;11;1;88.36615270376699
443;443;1449486012;2.1507766246799997;0.765440702438;0.069226950407;2;True;11;1;88.36615270376699
444;444;1449486012;2.1507930755599998;0.7653439640999999;0.0691859349608;2;True;11;1;88.36615270376699
445;445;1449486012;2.15081858635;0.765753984451;0.0692958161235;2;True;11;1;88.36615270376699
446;446;1449486012;2.1509203910799997;0.7656418681139999;0.0692615136504;2;True;11;1;88.36615270376699
447;447;1449486012;2.15087413788;0.765521645546;0.0692724436522;2;True;11;1;88.36615270376699
448;448;1449486012;2.1509070396400003;0.765572667122;0.06918048113580001;2;True;11;1;88.36615270376699
449;449;1449486012;2.15091586113;0.7657667994499999;0.06911878287789999;2;True;11;1;88.36615270376699
450;450;1449486012;2.1508877277400003;0.765627682209;0.069242477417;2;True;11;1;88.36615270376699
451;451;1449486012;2.1509912013999997;0.76602345705;0.0690964981914;2;True;11;1;88.36615270376699
452;452;1449486012;2.15105485916;0.765669703484;0.0689862966537;2;True;11;1;88.36615270376699
453;453;1449486012;2.1510264873500002;0.765746295452;0.068979807198;2;True;11;1;88.36615270376699
454;454;1449486012;2.15104484558;0.765989005566;0.06892748922110001;2;True;11;1;88.36615270376699
455;455;1449486012;2.15088129044;0.765877962112;0.0690278559923;2;True;11;1;88.36615270376699
456;456;1449486012;2.15082240105;0.765698552132;0.0691915228963;2;True;11;1;88.36615270376699
457;457;1449486012;2.15096211433;0.766112685204;0.0691243484616;2;True;11;1;88.36615270376699
458;458;1449486012;2.1510632038099997;0.765698671341;0.0690575242043;2;True;11;1;88.36615270376699
459;459;1449486012;2.15097880363;0.766088247299;0.0691827461123;2;True;11;1;88.36615270376699
460;460;1449486012;2.15099573135;0.766011416912;0.0690170899034;2;True;11;1;88.36615270376699
461;461;1449486012;2.1508398056;0.7656238675120001;0.0692331939936;2;True;11;1;88.36615270376699
462;462;1449486012;2.1507461071000002;0.7655612230300001;0.0692791715264;2;True;11;1;88.36615270376699
463;463;1449486012;2.1509432792700003;0.7657299041750001;0.06916467100380001;2;True;11;1;88.36615270376699
464;464;1449486012;2.15083193779;0.7656964063639999;0.0692500546575;2;True;11;1;88.36615270376699
465;465;1449486012;2.15104436874;0.7657085061069999;0.0691151544452;2;True;11;1;88.36615270376699
466;466;1449486012;2.15097546577;0.765583574772;0.069270811975;2;True;11;1;88.36615270376699
467;467;1449486012;2.15087485313;0.76556456089;0.06932877004150001;2;True;11;1;88.36615270376699
468;468;1449486012;2.15102458;0.765916407108;0.0689210966229;2;True;11;1;88.36615270376699
469;469;1449486012;2.1509175300599996;0.765588760376;0.0692640170455;2;True;11;1;88.36615270376699
470;470;1449486012;2.15078687668;0.765462040901;0.0693774223328;2;True;11;1;88.36615270376699
471;471;1449486012;2.15103602409;0.765710771084;0.06914600729939999;2;True;11;1;88.36615270376699
472;472;1449486012;2.1508743763;0.765393733978;0.0692864283919;2;True;11;1;88.36615270376699
473;473;1449486012;2.15078139305;0.7651948928829999;0.0693532451987;2;True;11;1;88.36615270376699
474;474;1449486012;2.15079402924;0.765376806259;0.0692068040371;2;True;11;1;88.36615270376699
475;475;1449486012;2.15091705322;0.765583634377;0.06924270838499999;2;True;11;1;88.36615270376699
476;476;1449486012;2.15090990067;0.7656561732289999;0.06922416388989999;2;True;11;1;88.36615270376699
477;477;1449486012;2.15103721619;0.765714943409;0.06912718713280001;2;True;11;1;88.36615270376699
478;478;1449486012;2.15096306801;0.765601575375;0.0692031979561;2;True;11;1;88.36615270376699
479;479;1449486012;2.1508853435499997;0.765457034111;0.0692603066564;2;True;11;1;88.36615270376699
480;480;1449486012;2.15086221695;0.7657675147059999;0.06928932666780001;2;True;11;1;88.36615270376699
481;481;1449486012;2.15104937553;0.765737116337;0.0691187679768;2;True;11;1;88.36615270376699
482;482;1449486012;2.15103292465;0.766077280045;0.0691258907318;2;True;11;1;88.36615270376699
483;483;1449486012;2.15091824532;0.76530700922;0.0692828893661;2;True;11;1;88.36615270376699
484;484;1449486012;2.1508059501599996;0.7652989625929999;0.06937530636789999;2;True;11;1;88.36615270376699
485;485;1449486012;2.15096282959;0.765797615051;0.0692039877176;2;True;11;1;88.36615270376699
486;486;1449486012;2.1508784294099996;0.7655260562899999;0.069233700633;2;True;11;1;88.36615270376699
487;487;1449486012;2.1508970260599996;0.765615105629;0.0692238658667;2;True;11;1;88.36615270376699
488;488;1449486012;2.15091466904;0.7655193805689999;0.0692687854171;2;True;11;1;88.36615270376699
489;489;1449486012;2.15092730522;0.7653912305830001;0.06916186213489998;2;True;11;1;88.36615270376699
490;490;1449486012;2.15098810196;0.7655102014540001;0.0690477415919;2;True;11;1;88.36615270376699
491;491;1449486012;2.15102148056;0.765689074993;0.0689907521009;2;True;11;1;88.36615270376699
492;492;1449486012;2.15096068382;0.765614688396;0.0691668838263;2;True;11;1;88.36615270376699
493;493;1449486012;2.15093517303;0.765600264072;0.0692134574056;2;True;11;1;88.36615270376699
494;494;1449486012;2.15094423294;0.76571893692;0.06915480643510001;2;True;11;1;88.36615270376699
495;495;1449486012;2.1509861946099997;0.765461504459;0.0691387429833;2;True;11;1;88.36615270376699
496;496;1449486012;2.15079975128;0.765645861626;0.0690774843097;2;True;11;1;88.36615270376699
497;497;1449486012;2.15093898773;0.76561665535;0.0692024305463;2;True;11;1;88.36615270376699
498;498;1449486012;2.15088033676;0.76559650898;0.0693241804838;2;True;11;1;88.36615270376699
499;499;1449486012;2.15085220337;0.765429377556;0.069151468575;2;True;11;1;88.36615270376699
500;500;1449486012;2.15101981163;0.765686929226;0.0691744163632;2;True;11;1;88.36615270376699
501;501;1449486012;2.15090060234;0.765676736832;0.06921821832660001;2;True;11;1;88.36615270376699
502;502;1449486012;2.15104341507;0.765908777714;0.0689315125346;2;True;11;1;88.36615270376699
503;503;1449486012;2.15085482597;0.765825152397;0.069224819541;2;True;11;1;88.36615270376699
504;504;1449486012;2.1509275436400004;0.7655649185179999;0.0692258179188;2;True;11;1;88.36615270376699
505;505;1449486012;2.1510477066;0.765706658363;0.0691141486168;2;True;11;1;88.36615270376699
506;506;1449486012;2.15093398094;0.765746474266;0.069160990417;2;True;11;1;88.36615270376699
507;507;1449486012;2.15093541145;0.765542685986;0.06922415643930001;2;True;11;1;88.36615270376699
508;508;1449486012;2.1509671211200003;0.7655485868449999;0.0690491721034;2;True;11;1;88.36615270376699
509;509;1449486012;2.15097761154;0.765899419785;0.0693434029818;2;True;11;1;88.36615270376699
510;510;1449486012;2.15101194382;0.765629887581;0.0689772665501;2;True;11;1;88.36615270376699
511;511;1449486012;2.15102624893;0.7657178640369999;0.0690808370709;2;True;11;1;88.36615270376699
512;512;1449486012;2.15092968941;0.765920042992;0.0691567733884;2;True;11;1;88.36615270376699
513;513;1449486012;2.1508374214200003;0.765682935715;0.0692487061024;2;True;11;1;88.36615270376699
514;514;1449486012;2.15085482597;0.765574872494;0.06916601955889999;2;True;11;1;88.36615270376699
515;515;1449486012;2.15085244179;0.7656885981559999;0.0692018121481;2;True;11;1;88.36615270376699
516;516;1449486012;2.15097546577;0.765729606152;0.06910473853350001;2;True;11;1;88.36615270376699
517;517;1449486012;2.15081119537;0.765668570995;0.06927930563689999;2;True;11;1;88.36615270376699
518;518;1449486012;2.15088605881;0.7655369043350001;0.0692207887769;2;True;11;1;88.36615270376699
519;519;1449486012;2.1508910656;0.765564858913;0.0690704956651;2;True;11;1;88.36615270376699
520;520;1449486012;2.150826931;0.765759646893;0.0692480802536;2;True;11;1;88.36615270376699
521;521;1449486012;2.15086197853;0.765423893929;0.06926789879800001;2;True;11;1;88.36615270376699
522;522;1449486012;2.15079712868;0.7656607627869999;0.06924725323919999;2;True;11;1;88.36615270376699
523;523;1449486012;2.15087103844;0.7653715014460001;0.0691930130124;2;True;11;1;88.36615270376699
524;524;1449486012;2.1510305404700003;0.7660034298899999;0.0689181908965;2;True;11;1;88.36615270376699
525;525;1449486012;2.15103840828;0.765638709068;0.0689875558019;2;True;11;1;88.36615270376699
526;526;1449486012;2.1508967876400003;0.7656047344210001;0.06921991705889999;2;True;11;1;88.36615270376699
527;527;1449486012;2.1508970260599996;0.7655704021449999;0.0691778212786;2;True;11;1;88.36615270376699
528;528;1449486012;2.15088319778;0.76589846611;0.0692199021578;2;True;11;1;88.36615270376699
529;529;1449486012;2.15077447891;0.7653496861460001;0.06924571096900001;2;True;11;1;88.36615270376699
530;530;1449486012;2.1509652137799997;0.765452921391;0.0691405832767;2;True;11;1;88.36615270376699
531;531;1449486012;2.15095567703;0.7656451463699999;0.06919839978219999;2;True;11;1;88.36615270376699
532;532;1449486012;2.1508049964900002;0.7653326988220001;0.0692259371281;2;True;11;1;88.36615270376699
533;533;1449486012;2.15085554123;0.765545129776;0.06931588798760001;2;True;11;1;88.36615270376699
534;534;1449486012;2.1508152484900003;0.765638828278;0.06922159343960001;2;True;11;1;88.36615270376699
535;535;1449486012;2.1509671211200003;0.7658028602600001;0.0691638812423;2;True;11;1;88.36615270376699
536;536;1449486012;2.15088152885;0.765662610531;0.0691951736808;2;True;11;1;88.36615270376699
537;537;1449486012;2.1507973671;0.7652913928030001;0.06931115686889999;2;True;11;1;88.36615270376699
538;538;1449486012;2.15090155602;0.76555287838;0.06923466920850001;2;True;11;1;88.36615270376699
539;539;1449486012;2.15095353127;0.765578150749;0.06914139539;2;True;11;1;88.36615270376699
540;540;1449486012;2.1509976387000003;0.765679240227;0.0691915079951;2;True;11;1;88.36615270376699
541;541;1449486012;2.15104842186;0.7660586833949999;0.06900606304410001;2;True;11;1;88.36615270376699
542;542;1449486012;2.1508924961099996;0.765530526638;0.0692443102598;2;True;11;1;88.36615270376699
543;543;1449486012;2.15093779564;0.765688538551;0.0691697522998;2;True;11;1;88.36615270376699
544;544;1449486012;2.1509375572200002;0.765689253807;0.0691781118512;2;True;11;1;88.36615270376699
545;545;1449486012;2.1507198810599997;0.765330195427;0.0693269595504;2;True;11;1;88.36615270376699
546;546;1449486012;2.15093660355;0.7655336856839999;0.0692313462496;2;True;11;1;88.36615270376699
547;547;1449486012;2.1509573459599998;0.765650212765;0.06917523592710001;2;True;11;1;88.36615270376699
548;548;1449486012;2.15078568459;0.765571832657;0.0694906413555;2;True;11;1;88.36615270376699
549;549;1449486012;2.1509506702400003;0.765659153461;0.0690965875983;2;True;11;1;88.36615270376699
550;550;1449486012;2.1508214473700003;0.7656703591349999;0.0692717656493;2;True;11;1;88.36615270376699
551;551;1449486012;2.15106534958;0.765752851963;0.0690595060587;2;True;11;1;88.36615270376699
552;552;1449486012;2.15103721619;0.76580119133;0.0690633803606;2;True;11;1;88.36615270376699
553;553;1449486012;2.1509461402900003;0.7657822370530001;0.0692858546972;2;True;11;1;88.36615270376699
554;554;1449486012;2.15093922615;0.765924990177;0.06921119242910001;2;True;11;1;88.36615270376699
555;555;1449486012;2.15090799332;0.765340030193;0.0692589506507;2;True;11;1;88.36615270376699
556;556;1449486012;2.15087866783;0.765543460846;0.06922797113660001;2;True;11;1;88.36615270376699
557;557;1449486012;2.15075492859;0.765405058861;0.06929821521039999;2;True;11;1;88.36615270376699
558;558;1449486012;2.1508495807599997;0.7655293941500001;0.0691322535276;2;True;11;1;88.36615270376699
559;559;1449486012;2.1510536670700002;0.7657333016399999;0.0690856426954;2;True;11;1;88.36615270376699
560;560;1449486012;2.15097022057;0.765658080578;0.06918309628960001;2;True;11;1;88.36615270376699
561;561;1449486012;2.1508197784400003;0.765579462051;0.0692528784275;2;True;11;1;88.36615270376699
562;562;1449486012;2.15087270737;0.765570640564;0.06922582536939999;2;True;11;1;88.36615270376699
563;563;1449486012;2.15103197098;0.765971124172;0.0689256563783;2;True;11;1;88.36615270376699
564;564;1449486012;2.15099096298;0.7657191157340001;0.06914149969819999;2;True;11;1;88.36615270376699
565;565;1449486012;2.1509594917299997;0.7658171653749999;0.06919092684980001;2;True;11;1;88.36615270376699
566;566;1449486012;2.1510422229799997;0.765738785267;0.0690223872662;2;True;11;1;88.36615270376699
567;567;1449486012;2.15104103088;0.7657119035719999;0.0690813139081;2;True;11;1;88.36615270376699
568;568;1449486012;2.15104937553;0.765689730644;0.06905927509069999;2;True;11;1;88.36615270376699
569;569;1449486012;2.1508347988099996;0.7654967904090001;0.0692216306925;2;True;11;1;88.36615270376699
570;570;1449486012;2.15062117577;0.765908420086;0.06937128305439999;2;True;11;1;88.36615270376699
571;571;1449486012;2.15086603165;0.765508830547;0.069259122014;2;True;11;1;88.36615270376699
572;572;1449486012;2.15087771416;0.765564382076;0.0692113861442;2;True;11;1;88.36615270376699
573;573;1449486012;2.15084671974;0.7653185725210001;0.0692835748196;2;True;11;1;88.36615270376699
574;574;1449486012;2.1509075164800002;0.765877127647;0.0691040381789;2;True;11;1;88.36615270376699
575;575;1449486012;2.1509976387000003;0.7656329274179999;0.0691875740886;2;True;11;1;88.36615270376699
576;576;1449486012;2.15093708038;0.765671849251;0.0692024156451;2;True;11;1;88.36615270376699
577;577;1449486012;2.15083813667;0.765335738659;0.0692369639874;2;True;11;1;88.36615270376699
578;578;1449486012;2.1510155201;0.765772879124;0.069165199995;2;True;11;1;88.36615270376699
579;579;1449486012;2.15083575249;0.765590667725;0.0692571699619;2;True;11;1;88.36615270376699
580;580;1449486012;2.15104556084;0.7656784653659999;0.0691187158227;2;True;11;1;88.36615270376699
581;581;1449486012;2.1509282589;0.7656632661820001;0.0691547915339;2;True;11;1;88.36615270376699
582;582;1449486012;2.15099096298;0.7655171155930001;0.0689554587007;2;True;11;1;88.36615270376699
583;583;1449486012;2.15103244781;0.765796303749;0.06892063468689999;2;True;11;1;88.36615270376699
584;584;1449486012;2.15100169182;0.765770971775;0.0690350979567;2;True;11;1;88.36615270376699
585;585;1449486012;2.1509363651299997;0.7654670476909999;0.069105938077;2;True;11;1;88.36615270376699
586;586;1449486012;2.15105605125;0.765718877316;0.06904738396410001;2;True;11;1;88.36615270376699
587;587;1449486012;2.15085434914;0.7657238841060001;0.0691989213228;2;True;11;1;88.36615270376699
588;588;1449486012;2.1510181427;0.765885770321;0.0690539479256;2;True;11;1;88.36615270376699
589;589;1449486012;2.15098237991;0.765886723995;0.0691258609295;2;True;11;1;88.36615270376699
590;590;1449486012;2.15095019341;0.765705227852;0.0691201537848;2;True;11;1;88.36615270376699
591;591;1449486012;2.15091466904;0.765393733978;0.0692470520735;2;True;11;1;88.36615270376699
592;592;1449486012;2.15104150772;0.765688419342;0.06910248100760001;2;True;11;1;88.36615270376699
593;593;1449486012;2.15079760551;0.765563964844;0.0692385956645;2;True;11;1;88.36615270376699
594;594;1449486012;2.1510348319999997;0.765673398972;0.06909874081610001;2;True;11;1;88.36615270376699
595;595;1449486012;2.15106296539;0.765738964081;0.06905984878539999;2;True;11;1;88.36615270376699
596;596;1449486012;2.15105891228;0.766004323959;0.0689457058907;2;True;11;1;88.36615270376699
597;597;1449486012;2.15103149414;0.766004145145;0.0689493715763;2;True;11;1;88.36615270376699
598;598;1449486012;2.15083765984;0.765669882298;0.0692230910063;2;True;11;1;88.36615270376699
599;599;1449486012;2.15093278885;0.7657545208930001;0.0690543279052;2;True;11;1;88.36615270376699
600;600;1449486012;2.1510334014900003;0.765936434269;0.06898866593839999;2;True;11;1;88.36615270376699
601;601;1449486012;2.15069699287;0.765308797359;0.0692874416709;2;True;11;1;88.36615270376699
602;602;1449486012;2.15093564987;0.765556454659;0.06910423934460001;2;True;11;1;88.36615270376699
603;603;1449486012;2.15106678009;0.76570135355;0.06905958801510001;2;True;11;1;88.36615270376699
604;604;1449486012;2.15088486671;0.7655668854709999;0.06926982104780001;2;True;11;1;88.36615270376699
605;605;1449486012;2.1509230136900004;0.7655280232430001;0.06924236565830001;2;True;11;1;88.36615270376699
606;606;1449486012;2.15106272697;0.7656278610230001;0.06901434063910002;2;True;11;1;88.36615270376699
607;607;1449486012;2.15092992783;0.765678584576;0.0691592246294;2;True;11;1;88.36615270376699
