;Unnamed: 0;header_stamp_secs;pose_position_x;pose_position_y;pose_position_z;seconds;drop_values;flight_number;label;dtw
0;0;1449486149;2.1388864517200004;0.8955218791959999;0.067721426487;0;True;12;3;383.68559724094064
1;1;1449486149;2.13898158073;0.895831465721;0.0675937980413;0;True;12;3;383.68559724094064
2;2;1449486149;2.1390049457599996;0.8956358432770001;0.0676479265094;0;True;12;3;383.68559724094064
3;3;1449486149;2.13886976242;0.895657479763;0.0678022354841;0;True;12;3;383.68559724094064
4;4;1449486149;2.1389181613900003;0.895746529102;0.0677418038249;0;True;12;3;383.68559724094064
5;5;1449486149;2.1389849185900003;0.8958603739740001;0.0675976574421;0;True;12;3;383.68559724094064
6;6;1449486149;2.1388840675400003;0.895565152168;0.0677364245057;0;True;12;3;383.68559724094064
7;7;1449486149;2.13899540901;0.895734727383;0.0675730481744;0;True;12;3;383.68559724094064
8;8;1449486149;2.13874793053;0.8956775665279999;0.0678882300854;0;True;12;3;383.68559724094064
9;9;1449486149;2.1385595798500003;0.895366609097;0.0679181069136;0;True;12;3;383.68559724094064
10;10;1449486149;2.13896369934;0.895630419254;0.0677711367607;0;True;12;3;383.68559724094064
11;11;1449486149;2.13898944855;0.8956517577169999;0.0675685554743;0;True;12;3;383.68559724094064
12;12;1449486149;2.13900375366;0.895645916462;0.0676689296961;0;True;12;3;383.68559724094064
13;13;1449486149;2.1389751434299997;0.8955687880519999;0.0676033645868;0;True;12;3;383.68559724094064
14;14;1449486149;2.13894605637;0.895629703999;0.06769217550750001;0;True;12;3;383.68559724094064
15;15;1449486149;2.13894104958;0.895541012287;0.06762657314539999;0;True;12;3;383.68559724094064
16;16;1449486149;2.13896417618;0.895820915699;0.0676105543971;0;True;12;3;383.68559724094064
17;17;1449486149;2.13885831833;0.8956066966060001;0.0678337067366;0;True;12;3;383.68559724094064
18;18;1449486149;2.1387207508099997;0.89559674263;0.06793945282700001;0;True;12;3;383.68559724094064
19;19;1449486149;2.13894248009;0.895752429962;0.0678852275014;0;True;12;3;383.68559724094064
20;20;1449486149;2.1389477253;0.895592987537;0.0677317380905;0;True;12;3;383.68559724094064
21;21;1449486149;2.13884091377;0.8955439925190001;0.0678095445037;0;True;12;3;383.68559724094064
22;22;1449486149;2.13888144493;0.8955031633380001;0.06762663275;0;True;12;3;383.68559724094064
23;23;1449486149;2.13899278641;0.8956862688060001;0.0675993859768;0;True;12;3;383.68559724094064
24;24;1449486149;2.1389374733;0.8956243395810001;0.0677146315575;0;True;12;3;383.68559724094064
25;25;1449486149;2.13888072968;0.895596385002;0.0676165148616;0;True;12;3;383.68559724094064
26;26;1449486149;2.13891911507;0.895458698273;0.0676697418094;0;True;12;3;383.68559724094064
27;27;1449486149;2.1389758586900003;0.8957448005679999;0.0677087381482;0;True;12;3;383.68559724094064
28;28;1449486149;2.13898563385;0.895746827126;0.0675691589713;0;True;12;3;383.68559724094064
29;29;1449486149;2.13897609711;0.895682811737;0.0676314085722;0;True;12;3;383.68559724094064
30;30;1449486149;2.13888692856;0.89556825161;0.0676268041134;0;True;12;3;383.68559724094064
31;31;1449486149;2.13892626762;0.8956483602519999;0.0676138550043;0;True;12;3;383.68559724094064
32;32;1449486149;2.13887953758;0.895577132702;0.067823573947;0;True;12;3;383.68559724094064
33;33;1449486149;2.13902974129;0.895817220211;0.0677509009838;0;True;12;3;383.68559724094064
34;34;1449486149;2.13893318176;0.895607590675;0.067726880312;0;True;12;3;383.68559724094064
35;35;1449486149;2.1388494968400003;0.895636320114;0.0678122714162;0;True;12;3;383.68559724094064
36;36;1449486149;2.13898324966;0.895660102367;0.06759435683489999;0;True;12;3;383.68559724094064
37;37;1449486149;2.1389825344099997;0.8956613540649999;0.0676271915436;0;True;12;3;383.68559724094064
38;38;1449486149;2.1389803886400003;0.895691096783;0.0676579624414;0;True;12;3;383.68559724094064
39;39;1449486149;2.1387565136;0.895711779594;0.0679104849696;0;True;12;3;383.68559724094064
40;40;1449486149;2.1388628482799996;0.895759046078;0.0677991658449;0;True;12;3;383.68559724094064
41;41;1449486149;2.13901042938;0.8957435488700001;0.06758747994900001;0;True;12;3;383.68559724094064
42;42;1449486149;2.13885450363;0.895505130291;0.067631714046;0;True;12;3;383.68559724094064
43;43;1449486149;2.13890814781;0.8955366015430001;0.0677366107702;0;True;12;3;383.68559724094064
44;44;1449486149;2.1387960910799997;0.895528793335;0.0679725036025;0;True;12;3;383.68559724094064
45;45;1449486149;2.13885807991;0.8955214619640001;0.06780437380080001;0;True;12;3;383.68559724094064
46;46;1449486149;2.1389799118;0.8957273960109999;0.0677154362202;0;True;12;3;383.68559724094064
47;47;1449486149;2.1390068531;0.8956203460690001;0.06762415915730001;0;True;12;3;383.68559724094064
48;48;1449486149;2.13839650154;0.895573437214;0.0679837316275;0;True;12;3;383.68559724094064
49;49;1449486149;2.13895058632;0.895631968975;0.0677194073796;0;True;12;3;383.68559724094064
50;50;1449486149;2.13869094849;0.895366370678;0.0679195523262;0;True;12;3;383.68559724094064
51;51;1449486149;2.13884067535;0.895591378212;0.0678260400891;0;True;12;3;383.68559724094064
52;52;1449486149;2.1389439106;0.895563542843;0.0676495879889;0;True;12;3;383.68559724094064
53;53;1449486149;2.13896965981;0.89585763216;0.0676696002483;0;True;12;3;383.68559724094064
54;54;1449486149;2.13899111748;0.8956834673880001;0.06770414859059999;0;True;12;3;383.68559724094064
55;55;1449486149;2.13862848282;0.895433485508;0.0680746510625;0;True;12;3;383.68559724094064
56;56;1449486149;2.13882517815;0.8956053256990001;0.06787951290609999;0;True;12;3;383.68559724094064
57;57;1449486149;2.13882303238;0.8955598473549999;0.0679253786802;0;True;12;3;383.68559724094064
58;58;1449486149;2.13897371292;0.895703613758;0.0676674321294;0;True;12;3;383.68559724094064
59;59;1449486149;2.1387712955500002;0.895567178726;0.06787279248240001;0;True;12;3;383.68559724094064
60;60;1449486149;2.13899612427;0.895684599876;0.0676225423813;0;True;12;3;383.68559724094064
61;61;1449486149;2.13872456551;0.89557492733;0.0679712891579;0;True;12;3;383.68559724094064
62;62;1449486149;2.13884305954;0.895514428616;0.0678093358874;0;True;12;3;383.68559724094064
63;63;1449486149;2.1389610767400002;0.8955789208409999;0.0678900182247;0;True;12;3;383.68559724094064
64;64;1449486149;2.13879704475;0.895465016365;0.067870721221;0;True;12;3;383.68559724094064
65;65;1449486149;2.13899993896;0.895670294762;0.0676810741425;0;True;12;3;383.68559724094064
66;66;1449486149;2.13898944855;0.895710229874;0.0677016675472;0;True;12;3;383.68559724094064
67;67;1449486149;2.1387257576;0.8954614400859999;0.0679608881474;0;True;12;3;383.68559724094064
68;68;1449486149;2.13888454437;0.895556628704;0.06775891780849999;0;True;12;3;383.68559724094064
69;69;1449486149;2.13899993896;0.8956514596940001;0.06759570539;0;True;12;3;383.68559724094064
70;70;1449486149;2.13897967339;0.89582657814;0.0676147267222;0;True;12;3;383.68559724094064
71;71;1449486149;2.13895988464;0.895631372929;0.0677261427045;0;True;12;3;383.68559724094064
72;72;1449486149;2.1389892101299997;0.8956423401829999;0.06758570671080001;0;True;12;3;383.68559724094064
73;73;1449486149;2.1389853954299998;0.895709514618;0.0677983164787;0;True;12;3;383.68559724094064
74;74;1449486149;2.1390004158;0.89584082365;0.0676054731011;0;True;12;3;383.68559724094064
75;75;1449486149;2.13897848129;0.895751059055;0.0677067115903;0;True;12;3;383.68559724094064
76;76;1449486149;2.1390593051900004;0.895806312561;0.0677681639791;0;True;12;3;383.68559724094064
77;77;1449486149;2.13883876801;0.895521223545;0.0678074359894;0;True;12;3;383.68559724094064
78;78;1449486149;2.1387219428999997;0.895599484444;0.0679515525699;0;True;12;3;383.68559724094064
79;79;1449486149;2.13901352882;0.895856499672;0.0677631869912;0;True;12;3;383.68559724094064
80;80;1449486149;2.13892841339;0.895634591579;0.0677098333836;0;True;12;3;383.68559724094064
81;81;1449486149;2.13903260231;0.895758867264;0.06765016913409999;0;True;12;3;383.68559724094064
82;82;1449486149;2.13892602921;0.8956204056739999;0.0676469802856;0;True;12;3;383.68559724094064
83;83;1449486149;2.1389923095700003;0.895661830902;0.0675970688462;0;True;12;3;383.68559724094064
84;84;1449486149;2.13898324966;0.895603060722;0.0676686987281;0;True;12;3;383.68559724094064
85;85;1449486149;2.13895368576;0.8957256078720001;0.0676912888885;0;True;12;3;383.68559724094064
86;86;1449486149;2.13892865181;0.895594120026;0.0676990300417;0;True;12;3;383.68559724094064
87;87;1449486149;2.13896179199;0.895746588707;0.0678211450577;0;True;12;3;383.68559724094064
88;88;1449486149;2.1388466358200002;0.89552885294;0.06778601557019999;0;True;12;3;383.68559724094064
89;89;1449486149;2.1390850544;0.895602762699;0.0677975341678;0;True;12;3;383.68559724094064
90;90;1449486149;2.13899946213;0.895669102669;0.0676011517644;0;True;12;3;383.68559724094064
91;91;1449486149;2.13890194893;0.8955976367;0.0678839683533;0;True;12;3;383.68559724094064
92;92;1449486149;2.1389446258500002;0.8956298232080001;0.0677033662796;0;True;12;3;383.68559724094064
93;93;1449486149;2.13879656792;0.8956177830700001;0.0679831281304;0;True;12;3;383.68559724094064
94;94;1449486149;2.13896751404;0.8956346511839999;0.067590393126;0;True;12;3;383.68559724094064
95;95;1449486149;2.1389734744999997;0.8957101702689999;0.067677885294;0;True;12;3;383.68559724094064
96;96;1449486149;2.1388618946099998;0.895756185055;0.0677977055311;0;True;12;3;383.68559724094064
97;97;1449486149;2.13898897171;0.8957321047779999;0.06774026155469999;0;True;12;3;383.68559724094064
98;98;1449486149;2.1388998031599997;0.8955249786380001;0.067901045084;0;True;12;3;383.68559724094064
99;99;1449486149;2.13890457153;0.8954285979269999;0.06763534992930001;0;True;12;3;383.68559724094064
100;100;1449486149;2.13901758194;0.895656943321;0.06766546517609999;0;True;12;3;383.68559724094064
101;101;1449486149;2.13848042488;0.895613312721;0.0679699257016;0;True;12;3;383.68559724094064
102;102;1449486149;2.1389503479;0.895645141602;0.0677129253745;0;True;12;3;383.68559724094064
103;103;1449486149;2.1389865875200003;0.895651996136;0.0676319673657;0;True;12;3;383.68559724094064
104;104;1449486149;2.13895440102;0.8956470489499999;0.0677118971944;0;True;12;3;383.68559724094064
105;105;1449486149;2.13900351524;0.895852208138;0.0676045045257;0;True;12;3;383.68559724094064
106;106;1449486149;2.13899493217;0.895679235458;0.0676146969199;0;True;12;3;383.68559724094064
107;107;1449486149;2.13895964622;0.895648956299;0.0677035823464;0;True;12;3;383.68559724094064
108;108;1449486149;2.13897442818;0.895541369915;0.0676249489188;0;True;12;3;383.68559724094064
109;109;1449486149;2.1386885643;0.895337760448;0.0677640736103;0;True;12;3;383.68559724094064
110;110;1449486149;2.1390082836200004;0.895675420761;0.06759632378819999;0;True;12;3;383.68559724094064
111;111;1449486149;2.13888263702;0.895465910435;0.0677717849612;0;True;12;3;383.68559724094064
112;112;1449486149;2.1387243270900003;0.895608663559;0.0680324211717;0;True;12;3;383.68559724094064
113;113;1449486149;2.1390008926400004;0.895681023598;0.0675950944424;0;True;12;3;383.68559724094064
114;114;1449486149;2.13899564743;0.895705163479;0.06766477972269999;0;True;12;3;383.68559724094064
115;115;1449486149;2.13901329041;0.895689368248;0.0677181258798;0;True;12;3;383.68559724094064
116;116;1449486149;2.1390068531;0.895681619644;0.06759908050300001;0;True;12;3;383.68559724094064
117;117;1449486149;2.13899946213;0.89586275816;0.0676509216428;0;True;12;3;383.68559724094064
118;118;1449486149;2.1387104988099996;0.895439267159;0.0679779946804;0;True;12;3;383.68559724094064
119;119;1449486149;2.13894319534;0.8958092331890001;0.0677496269345;0;True;12;3;383.68559724094064
120;120;1449486149;2.13884925842;0.895501315594;0.0676646232605;0;True;12;3;383.68559724094064
121;121;1449486149;2.13902235031;0.8958525657649999;0.0676295012236;0;True;12;3;383.68559724094064
122;122;1449486149;2.13891649246;0.8956787586210001;0.0676865726709;0;True;12;3;383.68559724094064
123;123;1449486149;2.13887405396;0.8955650925640001;0.0677755251527;0;True;12;3;383.68559724094064
124;124;1449486149;2.13890695572;0.895584464073;0.06784743070600001;0;True;12;3;383.68559724094064
125;125;1449486149;2.13898348808;0.895679295063;0.06769732385869999;0;True;12;3;383.68559724094064
126;126;1449486149;2.13900232315;0.895840525627;0.06767227500680001;0;True;12;3;383.68559724094064
127;127;1449486149;2.1389098167400005;0.895526707172;0.0677515119314;0;True;12;3;383.68559724094064
128;128;1449486149;2.1389780044599997;0.895670235157;0.0676607713103;0;True;12;3;383.68559724094064
129;129;1449486149;2.1388874053999998;0.89557492733;0.0678285807371;0;True;12;3;383.68559724094064
130;130;1449486149;2.13900613785;0.895677864552;0.06762276589869999;0;True;12;3;383.68559724094064
131;131;1449486150;2.13883471489;0.895562648773;0.06783925741909999;1;True;12;3;383.68559724094064
132;132;1449486150;2.13898468018;0.8956986665729999;0.067677244544;1;True;12;3;383.68559724094064
133;133;1449486150;2.1389029026;0.895585656166;0.0677513405681;1;True;12;3;383.68559724094064
134;134;1449486150;2.13874554634;0.8954379558560001;0.06795158237219999;1;True;12;3;383.68559724094064
135;135;1449486150;2.13868832588;0.895339012146;0.0679351910949;1;True;12;3;383.68559724094064
136;136;1449486150;2.13881087303;0.895672500134;0.06791308522219999;1;True;12;3;383.68559724094064
137;137;1449486150;2.13896679878;0.895637750626;0.0677569583058;1;True;12;3;383.68559724094064
138;138;1449486150;2.13886213303;0.8954326510430001;0.0678200870752;1;True;12;3;383.68559724094064
139;139;1449486150;2.13902187347;0.8958684802060001;0.067635692656;1;True;12;3;383.68559724094064
140;140;1449486150;2.13901734352;0.895847737789;0.0676736161113;1;True;12;3;383.68559724094064
141;141;1449486150;2.1390051841699997;0.895699441433;0.0676591843367;1;True;12;3;383.68559724094064
142;142;1449486150;2.13892841339;0.895487785339;0.0679099336267;1;True;12;3;383.68559724094064
143;143;1449486150;2.1389145851099998;0.895681381226;0.0680102556944;1;True;12;3;383.68559724094064
144;144;1449486150;2.13892841339;0.895592153072;0.06775573641060001;1;True;12;3;383.68559724094064
145;145;1449486150;2.13898444176;0.895791351795;0.0677235499024;1;True;12;3;383.68559724094064
146;146;1449486150;2.1387338638299997;0.895648896694;0.0679276436567;1;True;12;3;383.68559724094064
147;147;1449486150;2.1389799118;0.8957324028020001;0.0677067115903;1;True;12;3;383.68559724094064
148;148;1449486150;2.13895583153;0.895723462105;0.0677017346025;1;True;12;3;383.68559724094064
149;149;1449486150;2.13887357712;0.8955510258670001;0.0677602142096;1;True;12;3;383.68559724094064
150;150;1449486150;2.13888478279;0.8955836296080001;0.0676682367921;1;True;12;3;383.68559724094064
151;151;1449486150;2.13888120651;0.895490884781;0.067935153842;1;True;12;3;383.68559724094064
152;152;1449486150;2.13869810104;0.895348548889;0.0678868591785;1;True;12;3;383.68559724094064
153;153;1449486150;2.13899970055;0.895673513412;0.0676017850637;1;True;12;3;383.68559724094064
154;154;1449486150;2.13886523247;0.8955251574519999;0.0677581578493;1;True;12;3;383.68559724094064
155;155;1449486150;2.13871502876;0.895406484604;0.0679244324565;1;True;12;3;383.68559724094064
156;156;1449486150;2.13898968697;0.895668983459;0.0676012411714;1;True;12;3;383.68559724094064
157;157;1449486150;2.1388268470800003;0.895575761795;0.06781518459319999;1;True;12;3;383.68559724094064
158;158;1449486150;2.13900136948;0.8956830501559999;0.0676438361406;1;True;12;3;383.68559724094064
159;159;1449486150;2.13900780678;0.895657002926;0.0675830766559;1;True;12;3;383.68559724094064
160;160;1449486150;2.1389143466900005;0.895606279373;0.0676172152162;1;True;12;3;383.68559724094064
161;161;1449486150;2.13894605637;0.895641446114;0.06773948669430001;1;True;12;3;383.68559724094064
162;162;1449486150;2.1387906074500003;0.895657360554;0.067948140204;1;True;12;3;383.68559724094064
163;163;1449486150;2.1389892101299997;0.8956686258319999;0.067592009902;1;True;12;3;383.68559724094064
164;164;1449486150;2.1390051841699997;0.895673215389;0.0676711797714;1;True;12;3;383.68559724094064
165;165;1449486150;2.13899207115;0.895676612854;0.067676961422;1;True;12;3;383.68559724094064
166;166;1449486150;2.13868641853;0.895347893238;0.06791241467;1;True;12;3;383.68559724094064
167;167;1449486150;2.1389706134799997;0.8958310484890001;0.0676281228662;1;True;12;3;383.68559724094064
168;168;1449486150;2.13896822929;0.895547151566;0.0677067488432;1;True;12;3;383.68559724094064
169;169;1449486150;2.13899731636;0.895664572716;0.0675878599286;1;True;12;3;383.68559724094064
170;170;1449486150;2.1385371685;0.895618438721;0.06792122870680001;1;True;12;3;383.68559724094064
171;171;1449486150;2.13883638382;0.8956335186959999;0.067896656692;1;True;12;3;383.68559724094064
172;172;1449486150;2.1389374733;0.8958139419560001;0.0676146969199;1;True;12;3;383.68559724094064
173;173;1449486150;2.1388893127400004;0.8955436944959999;0.067831993103;1;True;12;3;383.68559724094064
174;174;1449486150;2.1389799118;0.895700454712;0.06778972595930001;1;True;12;3;383.68559724094064
175;175;1449486150;2.13884186745;0.895528435707;0.06765791773799999;1;True;12;3;383.68559724094064
176;176;1449486150;2.1390166282700003;0.89566475153;0.0676154270768;1;True;12;3;383.68559724094064
177;177;1449486150;2.1385219097099997;0.895360469818;0.0679445266724;1;True;12;3;383.68559724094064
178;178;1449486150;2.13894724846;0.895613849163;0.0677268207073;1;True;12;3;383.68559724094064
179;179;1449486150;2.13899326324;0.8956653475759999;0.0675960108638;1;True;12;3;383.68559724094064
180;180;1449486150;2.13881897926;0.8955624103550001;0.0678214430809;1;True;12;3;383.68559724094064
181;181;1449486150;2.1389720439900004;0.895599961281;0.06765539199109999;1;True;12;3;383.68559724094064
182;182;1449486150;2.1388804912599997;0.895571887493;0.0677315294743;1;True;12;3;383.68559724094064
183;183;1449486150;2.13900160789;0.895681023598;0.0675935968757;1;True;12;3;383.68559724094064
184;184;1449486150;2.1390008926400004;0.8957393765449999;0.0677296221256;1;True;12;3;383.68559724094064
185;185;1449486150;2.13899278641;0.8957024812700001;0.06768889725209999;1;True;12;3;383.68559724094064
186;186;1449486150;2.13882875443;0.8955950737;0.067839384079;1;True;12;3;383.68559724094064
187;187;1449486150;2.13899564743;0.895678400993;0.06767906248569999;1;True;12;3;383.68559724094064
188;188;1449486150;2.13900661469;0.8956773877140001;0.06763498485090001;1;True;12;3;383.68559724094064
189;189;1449486150;2.1389937400799997;0.895674526691;0.0675984174013;1;True;12;3;383.68559724094064
190;190;1449486150;2.13896584511;0.895624101162;0.06764045357699999;1;True;12;3;383.68559724094064
191;191;1449486150;2.13889718056;0.8955120444299999;0.0677361190319;1;True;12;3;383.68559724094064
192;192;1449486150;2.13898348808;0.895700454712;0.06765695661309999;1;True;12;3;383.68559724094064
193;193;1449486150;2.13884115219;0.895429670811;0.06780057400469999;1;True;12;3;383.68559724094064
194;194;1449486150;2.13900351524;0.895650684834;0.06762143224480001;1;True;12;3;383.68559724094064
195;195;1449486150;2.13894319534;0.895556390285;0.06763992458580001;1;True;12;3;383.68559724094064
196;196;1449486150;2.1389367580400003;0.8956223726270001;0.0677243471146;1;True;12;3;383.68559724094064
197;197;1449486150;2.1388819217700004;0.895538210869;0.0677605345845;1;True;12;3;383.68559724094064
198;198;1449486150;2.13901042938;0.8956898450849999;0.0675903186202;1;True;12;3;383.68559724094064
199;199;1449486150;2.1389241218599997;0.895598351955;0.0676295012236;1;True;12;3;383.68559724094064
200;200;1449486150;2.13887238503;0.8954924345020001;0.0677550211549;1;True;12;3;383.68559724094064
201;201;1449486150;2.1390376091;0.8957670331;0.0677727460861;1;True;12;3;383.68559724094064
202;202;1449486150;2.1389713287400003;0.895645320415;0.0676957219839;1;True;12;3;383.68559724094064
203;203;1449486150;2.1388115882900003;0.895646095276;0.0678175389767;1;True;12;3;383.68559724094064
204;204;1449486150;2.13887190819;0.895544350147;0.0677962824702;1;True;12;3;383.68559724094064
205;205;1449486150;2.13899612427;0.895728230476;0.0677483007312;1;True;12;3;383.68559724094064
206;206;1449486150;2.13886094093;0.895519375801;0.0677647069097;1;True;12;3;383.68559724094064
207;207;1449486150;2.1386873722099997;0.895526826382;0.0679069906473;1;True;12;3;383.68559724094064
208;208;1449486150;2.1389939785;0.895657598972;0.0676125958562;1;True;12;3;383.68559724094064
209;209;1449486150;2.13895583153;0.895655870438;0.0678308829665;1;True;12;3;383.68559724094064
210;210;1449486150;2.13898801804;0.8956714272499999;0.06767524033780001;1;True;12;3;383.68559724094064
211;211;1449486150;2.1389374733;0.895632326603;0.0677144899964;1;True;12;3;383.68559724094064
212;212;1449486150;2.1387932300599997;0.895393908024;0.0679730772972;1;True;12;3;383.68559724094064
213;213;1449486150;2.13898324966;0.895649254322;0.06764168292280001;1;True;12;3;383.68559724094064
214;214;1449486150;2.1387801170299996;0.895424544811;0.06793428212399999;1;True;12;3;383.68559724094064
215;215;1449486150;2.1388494968400003;0.895593523979;0.06780125200749999;1;True;12;3;383.68559724094064
216;216;1449486150;2.13900375366;0.895682811737;0.0675822794437;1;True;12;3;383.68559724094064
217;217;1449486150;2.1389455795299996;0.895628094673;0.0677113905549;1;True;12;3;383.68559724094064
218;218;1449486150;2.13896274567;0.8957033157350001;0.0676985085011;1;True;12;3;383.68559724094064
219;219;1449486150;2.13883161545;0.8954782485959999;0.0678436309099;1;True;12;3;383.68559724094064
220;220;1449486150;2.1389462947799998;0.895604074001;0.0677462518215;1;True;12;3;383.68559724094064
221;221;1449486150;2.13890242577;0.895585715771;0.0678431764245;1;True;12;3;383.68559724094064
222;222;1449486150;2.13878321648;0.895529031754;0.06788070499900001;1;True;12;3;383.68559724094064
223;223;1449486150;2.13885879517;0.8955911397930001;0.06781762838359999;1;True;12;3;383.68559724094064
224;224;1449486150;2.13900661469;0.895638525486;0.0675806179643;1;True;12;3;383.68559724094064
225;225;1449486150;2.1387641429900004;0.895555436611;0.067924708128;1;True;12;3;383.68559724094064
226;226;1449486150;2.13888168335;0.895766437054;0.06778828799719999;1;True;12;3;383.68559724094064
227;227;1449486150;2.1390504837;0.8957864046100001;0.0677576288581;1;True;12;3;383.68559724094064
228;228;1449486150;2.1389465332;0.895755410194;0.0680078566074;1;True;12;3;383.68559724094064
229;229;1449486150;2.13869285583;0.895348548889;0.067893601954;1;True;12;3;383.68559724094064
230;230;1449486150;2.13883376122;0.895620167255;0.0678963363171;1;True;12;3;383.68559724094064
231;231;1449486150;2.1388642787900003;0.895595490932;0.06779970973730001;1;True;12;3;383.68559724094064
232;232;1449486150;2.13885450363;0.895532310009;0.0679188072681;1;True;12;3;383.68559724094064
233;233;1449486150;2.1390004158;0.895647704601;0.0675846636295;1;True;12;3;383.68559724094064
234;234;1449486150;2.13900208473;0.895661890507;0.0675909221172;1;True;12;3;383.68559724094064
235;235;1449486150;2.1390101909599997;0.895675361156;0.0675966665149;1;True;12;3;383.68559724094064
236;236;1449486150;2.13904643059;0.8958155512809999;0.0677212253213;1;True;12;3;383.68559724094064
237;237;1449486150;2.138920784;0.8955509066580001;0.0676210969687;1;True;12;3;383.68559724094064
238;238;1449486150;2.1390082836200004;0.8956524133679999;0.0675920471549;1;True;12;3;383.68559724094064
239;239;1449486150;2.13901853561;0.8958684802060001;0.06776957213880001;1;True;12;3;383.68559724094064
240;240;1449486150;2.1390063762700002;0.8958086371420001;0.0676723793149;1;True;12;3;383.68559724094064
241;241;1449486150;2.13895225525;0.895650625229;0.0676572099328;1;True;12;3;383.68559724094064
242;242;1449486150;2.13908267021;0.895864963531;0.0677387937903;1;True;12;3;383.68559724094064
243;243;1449486150;2.1388270854900004;0.895615756512;0.06771766394380001;1;True;12;3;383.68559724094064
244;244;1449486150;2.13888025284;0.895557045937;0.0676568225026;1;True;12;3;383.68559724094064
245;245;1449486150;2.13872456551;0.895301043987;0.0678465291858;1;True;12;3;383.68559724094064
246;246;1449486150;2.1388833522799997;0.895491719246;0.06761862337590001;1;True;12;3;383.68559724094064
247;247;1449486150;2.13899946213;0.8956285119059999;0.0675771981478;1;True;12;3;383.68559724094064
248;248;1449486150;2.13897919655;0.895701706409;0.0676921308041;1;True;12;3;383.68559724094064
249;249;1449486150;2.13899350166;0.895658314228;0.0676626935601;1;True;12;3;383.68559724094064
250;250;1449486150;2.13899946213;0.895631372929;0.0675856769085;1;True;12;3;383.68559724094064
251;251;1449486150;2.13899850845;0.8958556652069999;0.0676176920533;1;True;12;3;383.68559724094064
252;252;1449486150;2.13893079758;0.895591080189;0.0677293390036;1;True;12;3;383.68559724094064
253;253;1449486150;2.1390144825;0.8958733081820001;0.06760438531639999;1;True;12;3;383.68559724094064
254;254;1449486150;2.1388618946099998;0.8956264853479999;0.0678239911795;1;True;12;3;383.68559724094064
255;255;1449486150;2.1388926506;0.8956232070919999;0.0676343813539;1;True;12;3;383.68559724094064
256;256;1449486150;2.1390683651;0.8958609700200001;0.0677239820361;1;True;12;3;383.68559724094064
257;257;1449486150;2.1388149261500002;0.895416975021;0.0676593631506;1;True;12;3;383.68559724094064
258;258;1449486150;2.13896298409;0.895546555519;0.0676126331091;1;True;12;3;383.68559724094064
259;259;1449486150;2.13891196251;0.89566463232;0.0677847266197;1;True;12;3;383.68559724094064
260;260;1449486150;2.13900256157;0.895663678646;0.067589327693;1;True;12;3;383.68559724094064
261;261;1449486150;2.13888883591;0.895530283451;0.0677667409182;1;True;12;3;383.68559724094064
262;262;1449486150;2.13893604279;0.8955981135369999;0.0677007511258;1;True;12;3;383.68559724094064
263;263;1449486150;2.13891029358;0.895588696003;0.067852281034;1;True;12;3;383.68559724094064
264;264;1449486150;2.13902544975;0.895686686039;0.0675720795989;1;True;12;3;383.68559724094064
265;265;1449486150;2.13899946213;0.8955433964730001;0.0677126720548;1;True;12;3;383.68559724094064
266;266;1449486150;2.1388502121;0.8955469131470001;0.0678513869643;1;True;12;3;383.68559724094064
267;267;1449486150;2.13876056671;0.895563602448;0.0678727626801;1;True;12;3;383.68559724094064
268;268;1449486150;2.13875889778;0.8955681920049999;0.0677858665586;1;True;12;3;383.68559724094064
269;269;1449486150;2.13894534111;0.8955314755439999;0.06774913519619999;1;True;12;3;383.68559724094064
270;270;1449486150;2.1385676860799996;0.8956162333490001;0.0679360553622;1;True;12;3;383.68559724094064
271;271;1449486150;2.13878679276;0.8955435156820001;0.0680418536067;1;True;12;3;383.68559724094064
272;272;1449486150;2.13897633553;0.8958352804180001;0.0677822604775;1;True;12;3;383.68559724094064
273;273;1449486150;2.13884997368;0.895657062531;0.06785629689690001;1;True;12;3;383.68559724094064
274;274;1449486150;2.13898968697;0.8957610130310001;0.06772973388430001;1;True;12;3;383.68559724094064
275;275;1449486150;2.13887739182;0.895511865616;0.0677961781621;1;True;12;3;383.68559724094064
276;276;1449486150;2.1390068531;0.895711898804;0.0675810873508;1;True;12;3;383.68559724094064
277;277;1449486150;2.13899493217;0.8956914544110001;0.0676151067019;1;True;12;3;383.68559724094064
278;278;1449486150;2.13869214058;0.895400881767;0.0679383575916;1;True;12;3;383.68559724094064
279;279;1449486150;2.1388704776800003;0.895567953587;0.0678461864591;1;True;12;3;383.68559724094064
280;280;1449486150;2.1388037204700003;0.8956558108329999;0.0678198933601;1;True;12;3;383.68559724094064
281;281;1449486150;2.1389567852;0.8955565690989999;0.06764121353630001;1;True;12;3;383.68559724094064
282;282;1449486150;2.13900303841;0.8956548571590001;0.0675969645381;1;True;12;3;383.68559724094064
283;283;1449486150;2.13897538185;0.895687699318;0.0677710697055;1;True;12;3;383.68559724094064
284;284;1449486150;2.13881397247;0.895479500294;0.0676561444998;1;True;12;3;383.68559724094064
285;285;1449486150;2.1389966011;0.8956871628759999;0.067609578371;1;True;12;3;383.68559724094064
286;286;1449486150;2.13897180557;0.8957197666169999;0.0677344352007;1;True;12;3;383.68559724094064
287;287;1449486150;2.13900756836;0.895677030087;0.06761244684460001;1;True;12;3;383.68559724094064
288;288;1449486150;2.13872385025;0.8956432342530001;0.0679184347391;1;True;12;3;383.68559724094064
289;289;1449486150;2.1388745307900003;0.8955714106559999;0.067669712007;1;True;12;3;383.68559724094064
290;290;1449486150;2.1390047073400003;0.895659685135;0.0676486641169;1;True;12;3;383.68559724094064
291;291;1449486150;2.13899278641;0.895706415176;0.0676190033555;1;True;12;3;383.68559724094064
292;292;1449486150;2.1390051841699997;0.8956992030140001;0.0676069259644;1;True;12;3;383.68559724094064
293;293;1449486150;2.13894987106;0.8956372737880001;0.0677339732647;1;True;12;3;383.68559724094064
294;294;1449486150;2.1389863491099996;0.895692050457;0.06761926412580001;1;True;12;3;383.68559724094064
295;295;1449486150;2.1388654708900003;0.8955700397490001;0.0676675960422;1;True;12;3;383.68559724094064
296;296;1449486150;2.13897776604;0.8956837654109999;0.06768614798780001;1;True;12;3;383.68559724094064
297;297;1449486150;2.13897228241;0.895650684834;0.067726187408;1;True;12;3;383.68559724094064
298;298;1449486150;2.138890028;0.8956352472310001;0.0678421258926;1;True;12;3;383.68559724094064
299;299;1449486150;2.1389970779400005;0.8957033157350001;0.0675960183144;1;True;12;3;383.68559724094064
300;300;1449486150;2.13899278641;0.895704507828;0.06758752465250001;1;True;12;3;383.68559724094064
301;301;1449486150;2.13898873329;0.895698726177;0.0676621198654;1;True;12;3;383.68559724094064
302;302;1449486150;2.13898324966;0.895854949951;0.0676385238767;1;True;12;3;383.68559724094064
303;303;1449486150;2.1388590335799997;0.895590364933;0.0679297223687;1;True;12;3;383.68559724094064
304;304;1449486150;2.13899993896;0.8957148194310001;0.0676073282957;1;True;12;3;383.68559724094064
305;305;1449486150;2.13886904716;0.895622909069;0.06784145534040001;1;True;12;3;383.68559724094064
306;306;1449486150;2.13898277283;0.8956857323649999;0.0676529332995;1;True;12;3;383.68559724094064
307;307;1449486150;2.13899755478;0.8958780765530001;0.0676187351346;1;True;12;3;383.68559724094064
308;308;1449486150;2.13898968697;0.8957058191299999;0.0677121952176;1;True;12;3;383.68559724094064
309;309;1449486150;2.13866043091;0.895352005959;0.0679389536381;1;True;12;3;383.68559724094064
310;310;1449486150;2.13893771172;0.8956454396250001;0.0677137225866;1;True;12;3;383.68559724094064
311;311;1449486150;2.13894724846;0.8957037925720001;0.0678036734462;1;True;12;3;383.68559724094064
312;312;1449486150;2.13877034187;0.895638406277;0.0678911730647;1;True;12;3;383.68559724094064
313;313;1449486150;2.1388878822299997;0.895596444607;0.0678113847971;1;True;12;3;383.68559724094064
314;314;1449486150;2.13875889778;0.8956875801090001;0.0678938105702;1;True;12;3;383.68559724094064
315;315;1449486150;2.13853430748;0.895446181297;0.06794613599780001;1;True;12;3;383.68559724094064
316;316;1449486150;2.1389374733;0.895596146584;0.0676466822624;1;True;12;3;383.68559724094064
317;317;1449486150;2.13897705078;0.895862519741;0.0676166713238;1;True;12;3;383.68559724094064
318;318;1449486150;2.1389224529299997;0.895616590977;0.0677422583103;1;True;12;3;383.68559724094064
319;319;1449486150;2.13898348808;0.895701229572;0.0675763487816;1;True;12;3;383.68559724094064
320;320;1449486150;2.13895606995;0.89569914341;0.067649744451;1;True;12;3;383.68559724094064
321;321;1449486150;2.13900256157;0.895668685436;0.0675937980413;1;True;12;3;383.68559724094064
322;322;1449486150;2.13897371292;0.8957113027570001;0.06767822057009999;1;True;12;3;383.68559724094064
323;323;1449486150;2.13895559311;0.8956626653669999;0.0676421895623;1;True;12;3;383.68559724094064
324;324;1449486150;2.1388604641;0.895535230637;0.0678037106991;1;True;12;3;383.68559724094064
325;325;1449486150;2.13897752762;0.895679414272;0.0675943940878;1;True;12;3;383.68559724094064
326;326;1449486150;2.13895535469;0.8958373069760001;0.067601904273;1;True;12;3;383.68559724094064
327;327;1449486150;2.13884878159;0.895577847958;0.0677950531244;1;True;12;3;383.68559724094064
328;328;1449486150;2.1389091014900004;0.8958229422570001;0.0676162689924;1;True;12;3;383.68559724094064
329;329;1449486150;2.1390085220299997;0.895702838898;0.0676800385118;1;True;12;3;383.68559724094064
330;330;1449486150;2.13898181915;0.8955817222600001;0.06760330498219999;1;True;12;3;383.68559724094064
331;331;1449486150;2.13898348808;0.8956930637360001;0.06759367883209999;1;True;12;3;383.68559724094064
332;332;1449486150;2.13860654831;0.895539462566;0.0679208934307;1;True;12;3;383.68559724094064
333;333;1449486150;2.13896536827;0.895692110062;0.0676437392831;1;True;12;3;383.68559724094064
334;334;1449486150;2.13898944855;0.895677983761;0.0675875470042;1;True;12;3;383.68559724094064
335;335;1449486150;2.13890028;0.895647764206;0.0678215250373;1;True;12;3;383.68559724094064
336;336;1449486150;2.1388349533099995;0.895521044731;0.0677416473627;1;True;12;3;383.68559724094064
337;337;1449486150;2.13896870613;0.895811736584;0.0675857961178;1;True;12;3;383.68559724094064
338;338;1449486150;2.1387386322;0.895582616329;0.0677902325988;1;True;12;3;383.68559724094064
339;339;1449486150;2.1386487484;0.895460784435;0.067980773747;1;True;12;3;383.68559724094064
340;340;1449486150;2.1388013362900002;0.895628273487;0.0678924620152;1;True;12;3;383.68559724094064
341;341;1449486150;2.13898205757;0.895740866661;0.06757059693339999;1;True;12;3;383.68559724094064
342;342;1449486150;2.13862204552;0.895473778248;0.0679100751877;1;True;12;3;383.68559724094064
343;343;1449486150;2.13872861862;0.895630955696;0.0679638832808;1;True;12;3;383.68559724094064
344;344;1449486150;2.13882899284;0.895513236523;0.0678260028362;1;True;12;3;383.68559724094064
345;345;1449486150;2.13899803162;0.8956990838050001;0.067763954401;1;True;12;3;383.68559724094064
346;346;1449486150;2.13899874687;0.8956715464589999;0.0675992369652;1;True;12;3;383.68559724094064
347;347;1449486150;2.1388628482799996;0.895537436008;0.0677454546094;1;True;12;3;383.68559724094064
348;348;1449486150;2.1389853954299998;0.895668327808;0.0676114112139;1;True;12;3;383.68559724094064
349;349;1449486150;2.1389341354400004;0.895428836346;0.0676286146045;1;True;12;3;383.68559724094064
350;350;1449486150;2.13897252083;0.8957089781759999;0.0676756203175;1;True;12;3;383.68559724094064
351;351;1449486150;2.13896226883;0.895751178265;0.0677416846156;1;True;12;3;383.68559724094064
352;352;1449486150;2.13878488541;0.8953887224200001;0.06797115504739999;1;True;12;3;383.68559724094064
353;353;1449486150;2.13884234428;0.895528376102;0.0678196176887;1;True;12;3;383.68559724094064
354;354;1449486150;2.1389863491099996;0.895630300045;0.0675996616483;1;True;12;3;383.68559724094064
355;355;1449486150;2.13898801804;0.895728886127;0.0675844103098;1;True;12;3;383.68559724094064
356;356;1449486150;2.1389951705900003;0.895675480366;0.0676083192229;1;True;12;3;383.68559724094064
357;357;1449486150;2.1388568878200003;0.8955117464069999;0.0678043216467;1;True;12;3;383.68559724094064
358;358;1449486150;2.1389865875200003;0.895673036575;0.067609526217;1;True;12;3;383.68559724094064
359;359;1449486150;2.13879871368;0.8955544829369999;0.0678546726704;1;True;12;3;383.68559724094064
360;360;1449486150;2.13899302483;0.8956892490389999;0.0676071941853;1;True;12;3;383.68559724094064
361;361;1449486150;2.13870358467;0.895540833473;0.0679599568248;1;True;12;3;383.68559724094064
362;362;1449486150;2.13853859901;0.8954033255580001;0.0680422112346;1;True;12;3;383.68559724094064
363;363;1449486150;2.13898611069;0.8957259654999999;0.0676705688238;1;True;12;3;383.68559724094064
364;364;1449486150;2.13865709305;0.89532572031;0.0679203569889;1;True;12;3;383.68559724094064
365;365;1449486150;2.13895106316;0.8956170082089999;0.0677275806665;1;True;12;3;383.68559724094064
366;366;1449486150;2.1389915943099997;0.895614743233;0.0675966143608;1;True;12;3;383.68559724094064
367;367;1449486150;2.13907909393;0.8958742618559999;0.06777353584769999;1;True;12;3;383.68559724094064
368;368;1449486150;2.13898730278;0.8956505060200002;0.06759202480320001;1;True;12;3;383.68559724094064
369;369;1449486151;2.1389050483700003;0.895743846893;0.06775619089599999;2;True;12;3;383.68559724094064
370;370;1449486151;2.13899993896;0.8957402110100001;0.0676291584969;2;True;12;3;383.68559724094064
371;371;1449486151;2.1389915943099997;0.8956946730609999;0.06769987940790001;2;True;12;3;383.68559724094064
372;372;1449486151;2.13885188103;0.895498275757;0.0676420480013;2;True;12;3;383.68559724094064
373;373;1449486151;2.13898444176;0.895649969578;0.0675875619054;2;True;12;3;383.68559724094064
374;374;1449486151;2.13891625404;0.8957452178;0.0677447617054;2;True;12;3;383.68559724094064
375;375;1449486151;2.1390042305000003;0.895846545696;0.06760627031330001;2;True;12;3;383.68559724094064
376;376;1449486151;2.13903617859;0.895648479462;0.0676615908742;2;True;12;3;383.68559724094064
377;377;1449486151;2.13893175125;0.895556032658;0.06763534992930001;2;True;12;3;383.68559724094064
378;378;1449486151;2.13899564743;0.8956553936;0.0676003023982;2;True;12;3;383.68559724094064
379;379;1449486151;2.1389768123599997;0.895645260811;0.0676852464676;2;True;12;3;383.68559724094064
380;380;1449486151;2.1390051841699997;0.895666182041;0.06762821972369999;2;True;12;3;383.68559724094064
381;381;1449486151;2.13883256912;0.895766854286;0.0677091404796;2;True;12;3;383.68559724094064
382;382;1449486151;2.13878631592;0.895580470562;0.0677605718374;2;True;12;3;383.68559724094064
383;383;1449486151;2.13900613785;0.895624756813;0.06759267300369999;2;True;12;3;383.68559724094064
384;384;1449486151;2.13877058029;0.895561635494;0.06788616627449999;2;True;12;3;383.68559724094064
385;385;1449486151;2.13907623291;0.895877063274;0.0677422508597;2;True;12;3;383.68559724094064
386;386;1449486151;2.13889169693;0.8955177664759999;0.06775048375130001;2;True;12;3;383.68559724094064
387;387;1449486151;2.13898181915;0.895585238934;0.06766144931319999;2;True;12;3;383.68559724094064
388;388;1449486151;2.13876843452;0.8955698013310001;0.06780334562059999;2;True;12;3;383.68559724094064
389;389;1449486151;2.13901758194;0.8956577777860001;0.0676616504788;2;True;12;3;383.68559724094064
390;390;1449486151;2.13900256157;0.895695447922;0.0676867291331;2;True;12;3;383.68559724094064
391;391;1449486151;2.1390314102200003;0.8956480622290001;0.0676008760929;2;True;12;3;383.68559724094064
392;392;1449486151;2.1388466358200002;0.895641028881;0.0679324567318;2;True;12;3;383.68559724094064
393;393;1449486151;2.13871264458;0.895490288734;0.0678553134203;2;True;12;3;383.68559724094064
394;394;1449486151;2.13902068138;0.895659863949;0.0676090493798;2;True;12;3;383.68559724094064
395;395;1449486151;2.1390442848199998;0.895675301552;0.0680075362325;2;True;12;3;383.68559724094064
396;396;1449486151;2.1390123367299996;0.895678639412;0.067639760673;2;True;12;3;383.68559724094064
397;397;1449486151;2.13897633553;0.8956073522570001;0.0677454248071;2;True;12;3;383.68559724094064
398;398;1449486151;2.13907885551;0.8958289623260001;0.0677242651582;2;True;12;3;383.68559724094064
399;399;1449486151;2.13881087303;0.8954306840899999;0.0678884163499;2;True;12;3;383.68559724094064
400;400;1449486151;2.13865160942;0.8954665660860001;0.0679299607873;2;True;12;3;383.68559724094064
401;401;1449486151;2.13893461227;0.8957041501999999;0.0678127035499;2;True;12;3;383.68559724094064
402;402;1449486151;2.1388311386099996;0.8955932855609999;0.06788400560619999;2;True;12;3;383.68559724094064
403;403;1449486151;2.13901400566;0.8955895900730001;0.06768611073490001;2;True;12;3;383.68559724094064
404;404;1449486151;2.13901591301;0.8958245515819999;0.0676108673215;2;True;12;3;383.68559724094064
405;405;1449486151;2.13901734352;0.89571171999;0.0677167847753;2;True;12;3;383.68559724094064
406;406;1449486151;2.13896036148;0.8958148360250001;0.0676242783666;2;True;12;3;383.68559724094064
407;407;1449486151;2.1389241218599997;0.895500361919;0.0677740946412;2;True;12;3;383.68559724094064
408;408;1449486151;2.13890337944;0.895480692387;0.0677929595113;2;True;12;3;383.68559724094064
409;409;1449486151;2.13906288147;0.895585596561;0.0678092986345;2;True;12;3;383.68559724094064
410;410;1449486151;2.13887643814;0.8955347537989999;0.0677965730429;2;True;12;3;383.68559724094064
411;411;1449486151;2.13885951042;0.895567417145;0.0677448883653;2;True;12;3;383.68559724094064
412;412;1449486151;2.1388862133;0.895592272282;0.0678233280778;2;True;12;3;383.68559724094064
413;413;1449486151;2.13897538185;0.895805120468;0.0676130205393;2;True;12;3;383.68559724094064
414;414;1449486151;2.1389706134799997;0.895615160465;0.0677455216646;2;True;12;3;383.68559724094064
415;415;1449486151;2.13902139664;0.895662605762;0.06759977340699999;2;True;12;3;383.68559724094064
416;416;1449486151;2.13902688026;0.895748734474;0.067586325109;2;True;12;3;383.68559724094064
417;417;1449486151;2.1390080452;0.895806610584;0.0676062777638;2;True;12;3;383.68559724094064
418;418;1449486151;2.1390154361700002;0.895684599876;0.067611657083;2;True;12;3;383.68559724094064
419;419;1449486151;2.1388442516299997;0.895585238934;0.0678332895041;2;True;12;3;383.68559724094064
420;420;1449486151;2.1389708519;0.895748734474;0.06773347407580001;2;True;12;3;383.68559724094064
421;421;1449486151;2.13871479034;0.8954014778139999;0.06790662556890001;2;True;12;3;383.68559724094064
422;422;1449486151;2.1387295723;0.8956102132799999;0.0679544210434;2;True;12;3;383.68559724094064
423;423;1449486151;2.13892126083;0.895576655865;0.0677922517061;2;True;12;3;383.68559724094064
424;424;1449486151;2.1389865875200003;0.895627558231;0.067675486207;2;True;12;3;383.68559724094064
425;425;1449486151;2.13884329796;0.895507872105;0.0677768215537;2;True;12;3;383.68559724094064
426;426;1449486151;2.13896799088;0.895526826382;0.06779306381939999;2;True;12;3;383.68559724094064
427;427;1449486151;2.13901400566;0.895678222179;0.0676669850945;2;True;12;3;383.68559724094064
428;428;1449486151;2.13894939423;0.895777285099;0.067753508687;2;True;12;3;383.68559724094064
429;429;1449486151;2.13901472092;0.895760774612;0.0675917118788;2;True;12;3;383.68559724094064
430;430;1449486151;2.13871240616;0.895383298397;0.06788824498650001;2;True;12;3;383.68559724094064
431;431;1449486151;2.13864850998;0.895485401154;0.06803809851409999;2;True;12;3;383.68559724094064
432;432;1449486151;2.138869524;0.895526707172;0.0678554549813;2;True;12;3;383.68559724094064
433;433;1449486151;2.13893127441;0.8956004977230001;0.0676399320364;2;True;12;3;383.68559724094064
434;434;1449486151;2.13866734505;0.8955461978910001;0.0680334046483;2;True;12;3;383.68559724094064
435;435;1449486151;2.13861298561;0.895347118378;0.0680478438735;2;True;12;3;383.68559724094064
436;436;1449486151;2.1388561725599997;0.89542734623;0.0677841454744;2;True;12;3;383.68559724094064
437;437;1449486151;2.1388318538699997;0.8955218791959999;0.0679166913033;2;True;12;3;383.68559724094064
438;438;1449486151;2.1389708519;0.8957148790360001;0.0676853954792;2;True;12;3;383.68559724094064
439;439;1449486151;2.1389837265000002;0.895570337772;0.0679724514484;2;True;12;3;383.68559724094064
440;440;1449486151;2.1389877796200003;0.8957476615909999;0.06756676733490001;2;True;12;3;383.68559724094064
441;441;1449486151;2.13897252083;0.895683526993;0.067783921957;2;True;12;3;383.68559724094064
442;442;1449486151;2.13881468773;0.895565450191;0.06783375143999999;2;True;12;3;383.68559724094064
443;443;1449486151;2.13881874084;0.895556688309;0.0678194463253;2;True;12;3;383.68559724094064
444;444;1449486151;2.1388268470800003;0.8956079483030001;0.0678329765797;2;True;12;3;383.68559724094064
445;445;1449486151;2.13899326324;0.8956728577609999;0.06759999692440001;2;True;12;3;383.68559724094064
446;446;1449486151;2.13897919655;0.895711243153;0.06766022741790001;2;True;12;3;383.68559724094064
447;447;1449486151;2.13899040222;0.895695924759;0.0676316395402;2;True;12;3;383.68559724094064
448;448;1449486151;2.13886713982;0.895487248898;0.0677947774529;2;True;12;3;383.68559724094064
449;449;1449486151;2.13885474205;0.8954877257350001;0.0677891597152;2;True;12;3;383.68559724094064
450;450;1449486151;2.13907408714;0.895866274834;0.0677375942469;2;True;12;3;383.68559724094064
451;451;1449486151;2.13900065422;0.895658195019;0.0676013380289;2;True;12;3;383.68559724094064
452;452;1449486151;2.13898849487;0.8956659436229999;0.0676003098488;2;True;12;3;383.68559724094064
453;453;1449486151;2.13881850243;0.8954632282260001;0.0678577646613;2;True;12;3;383.68559724094064
454;454;1449486151;2.13869166374;0.895390450954;0.067921385169;2;True;12;3;383.68559724094064
455;455;1449486151;2.1388118267099996;0.895553231239;0.0679485052824;2;True;12;3;383.68559724094064
456;456;1449486151;2.13901686668;0.895718753338;0.06760530173780001;2;True;12;3;383.68559724094064
457;457;1449486151;2.13887310028;0.895608782768;0.0678726509213;2;True;12;3;383.68559724094064
458;458;1449486151;2.13897180557;0.895857095718;0.0676471740007;2;True;12;3;383.68559724094064
459;459;1449486151;2.13899612427;0.895647168159;0.0675876066089;2;True;12;3;383.68559724094064
460;460;1449486151;2.13902711868;0.895777761936;0.06776592135430001;2;True;12;3;383.68559724094064
461;461;1449486151;2.1388642787900003;0.895576357841;0.0678048655391;2;True;12;3;383.68559724094064
462;462;1449486151;2.1389780044599997;0.895656168461;0.06761501729489999;2;True;12;3;383.68559724094064
463;463;1449486151;2.13871216774;0.895682930946;0.0679356232285;2;True;12;3;383.68559724094064
464;464;1449486151;2.1389806270599996;0.8956725597380001;0.0676429271698;2;True;12;3;383.68559724094064
465;465;1449486151;2.1387681961099996;0.895553529263;0.0679081678391;2;True;12;3;383.68559724094064
466;466;1449486151;2.13894224167;0.895782649517;0.06779105216260001;2;True;12;3;383.68559724094064
467;467;1449486151;2.13890528679;0.8955157399179999;0.0678720623255;2;True;12;3;383.68559724094064
468;468;1449486151;2.1390051841699997;0.895896017551;0.0677945762873;2;True;12;3;383.68559724094064
469;469;1449486151;2.13890123367;0.8957831263539999;0.0677895322442;2;True;12;3;383.68559724094064
470;470;1449486151;2.1388218402900003;0.895437657833;0.0676602348685;2;True;12;3;383.68559724094064
471;471;1449486151;2.13892626762;0.895593762398;0.0676997005939;2;True;12;3;383.68559724094064
472;472;1449486151;2.13886761665;0.8956333398819999;0.0677943974733;2;True;12;3;383.68559724094064
473;473;1449486151;2.13893008232;0.895514726639;0.0676847845316;2;True;12;3;383.68559724094064
474;474;1449486151;2.13898730278;0.895675718784;0.06759539991619999;2;True;12;3;383.68559724094064
475;475;1449486151;2.13882851601;0.8956260085109999;0.0678903609514;2;True;12;3;383.68559724094064
476;476;1449486151;2.13878107071;0.895628392696;0.06787217408419999;2;True;12;3;383.68559724094064
477;477;1449486151;2.13894295692;0.895811855793;0.06761427223680001;2;True;12;3;383.68559724094064
478;478;1449486151;2.1388335228;0.8955264687540001;0.0677444040775;2;True;12;3;383.68559724094064
479;479;1449486151;2.1388747692099996;0.895593941212;0.0678716823459;2;True;12;3;383.68559724094064
480;480;1449486151;2.13865208626;0.8952831029889999;0.0677797198296;2;True;12;3;383.68559724094064
481;481;1449486151;2.13900065422;0.895770847797;0.0677390396595;2;True;12;3;383.68559724094064
482;482;1449486151;2.13873410225;0.895461559296;0.0679515972733;2;True;12;3;383.68559724094064
483;483;1449486151;2.13900542259;0.8957679271700001;0.0675881132483;2;True;12;3;383.68559724094064
484;484;1449486151;2.13897442818;0.895657598972;0.06769639998669999;2;True;12;3;383.68559724094064
485;485;1449486151;2.1389915943099997;0.8956674337389999;0.0676058828831;2;True;12;3;383.68559724094064
486;486;1449486151;2.13895225525;0.8955598473549999;0.0676269605756;2;True;12;3;383.68559724094064
487;487;1449486151;2.1388771534;0.8956006169320001;0.0676585361362;2;True;12;3;383.68559724094064
488;488;1449486151;2.1390538215599997;0.895807802677;0.0677522569895;2;True;12;3;383.68559724094064
489;489;1449486151;2.1389644146;0.895643174648;0.0677103847265;2;True;12;3;383.68559724094064
490;490;1449486151;2.1389951705900003;0.8956666588779999;0.06759247928859999;2;True;12;3;383.68559724094064
491;491;1449486151;2.1389183998099996;0.8957628011700002;0.067757576704;2;True;12;3;383.68559724094064
492;492;1449486151;2.13873815536;0.89558917284;0.0679370686412;2;True;12;3;383.68559724094064
493;493;1449486151;2.1389882564500002;0.8958603739740001;0.067602083087;2;True;12;3;383.68559724094064
494;494;1449486151;2.1389093399;0.895567834377;0.0676276385784;2;True;12;3;383.68559724094064
495;495;1449486151;2.13877511024;0.895386517048;0.06769100576640001;2;True;12;3;383.68559724094064
496;496;1449486151;2.1389293670700003;0.8956226110459999;0.0677390098572;2;True;12;3;383.68559724094064
497;497;1449486151;2.13894605637;0.895635545254;0.067704372108;2;True;12;3;383.68559724094064
498;498;1449486151;2.13889241219;0.895763516426;0.0677677467465;2;True;12;3;383.68559724094064
499;499;1449486151;2.1389183998099996;0.8955323696140001;0.0679113864899;2;True;12;3;383.68559724094064
500;500;1449486151;2.13902115822;0.8956531286239999;0.0675943344831;2;True;12;3;383.68559724094064
501;501;1449486151;2.13895082474;0.895638763905;0.0677341222763;2;True;12;3;383.68559724094064
502;502;1449486151;2.13889169693;0.895709097385;0.0678166151047;2;True;12;3;383.68559724094064
503;503;1449486151;2.13891243935;0.895704209805;0.0678703784943;2;True;12;3;383.68559724094064
504;504;1449486151;2.13900923729;0.895667016506;0.0676020309329;2;True;12;3;383.68559724094064
505;505;1449486151;2.13865566254;0.8954988718029999;0.0679571926594;2;True;12;3;383.68559724094064
506;506;1449486151;2.1388607025099997;0.895553469658;0.0677620247006;2;True;12;3;383.68559724094064
507;507;1449486151;2.13900208473;0.8956101536750001;0.0676773861051;2;True;12;3;383.68559724094064
508;508;1449486151;2.13897895813;0.8956257700920001;0.06766682118180001;2;True;12;3;383.68559724094064
509;509;1449486151;2.13886928558;0.895586133003;0.0676742941141;2;True;12;3;383.68559724094064
510;510;1449486151;2.13870167732;0.895440816879;0.0679334998131;2;True;12;3;383.68559724094064
511;511;1449486151;2.13899588585;0.8956924080850001;0.0676525086164;2;True;12;3;383.68559724094064
512;512;1449486151;2.1388514041900004;0.895626783371;0.0678376331925;2;True;12;3;383.68559724094064
513;513;1449486151;2.13878440857;0.895588874817;0.06792514026169999;2;True;12;3;383.68559724094064
514;514;1449486151;2.13883042336;0.895687997341;0.067868322134;2;True;12;3;383.68559724094064
515;515;1449486151;2.13878893852;0.895409047604;0.0677075684071;2;True;12;3;383.68559724094064
516;516;1449486151;2.13889169693;0.89556992054;0.0677529424429;2;True;12;3;383.68559724094064
517;517;1449486151;2.13897490501;0.895724773407;0.0677107647061;2;True;12;3;383.68559724094064
518;518;1449486151;2.13885807991;0.8955217599869999;0.067812025547;2;True;12;3;383.68559724094064
519;519;1449486151;2.13900399208;0.8956977725030001;0.0675960928202;2;True;12;3;383.68559724094064
520;520;1449486151;2.13897705078;0.8956626653669999;0.0676876604557;2;True;12;3;383.68559724094064
521;521;1449486151;2.1389441490200003;0.895569622517;0.0676523968577;2;True;12;3;383.68559724094064
522;522;1449486151;2.1389865875200003;0.895730435848;0.0676858648658;2;True;12;3;383.68559724094064
523;523;1449486151;2.1389174461400002;0.895606458187;0.0678296014667;2;True;12;3;383.68559724094064
524;524;1449486151;2.13898849487;0.895683288574;0.0676519498229;2;True;12;3;383.68559724094064
525;525;1449486151;2.1390376091;0.8957957625390001;0.0676613077521;2;True;12;3;383.68559724094064
526;526;1449486151;2.13885045052;0.8956134319310001;0.067880615592;2;True;12;3;383.68559724094064
527;527;1449486151;2.1388421058700002;0.895560622215;0.0679030418396;2;True;12;3;383.68559724094064
528;528;1449486151;2.1389214992500003;0.8955080509190001;0.06776801496740001;2;True;12;3;383.68559724094064
529;529;1449486151;2.13900756836;0.895673513412;0.067616187036;2;True;12;3;383.68559724094064
530;530;1449486151;2.13873434067;0.895439743996;0.06793400645259999;2;True;12;3;383.68559724094064
531;531;1449486151;2.13888287544;0.89561188221;0.06788220256569999;2;True;12;3;383.68559724094064
532;532;1449486151;2.13903689384;0.8958082199099999;0.067778877914;2;True;12;3;383.68559724094064
533;533;1449486151;2.13900375366;0.895658731461;0.06767577677969999;2;True;12;3;383.68559724094064
534;534;1449486151;2.13901805878;0.895791947842;0.0677579715848;2;True;12;3;383.68559724094064
535;535;1449486151;2.1388792991599996;0.8955155611040001;0.0676654726267;2;True;12;3;383.68559724094064
536;536;1449486151;2.1389446258500002;0.8958206772799998;0.0676467865705;2;True;12;3;383.68559724094064
537;537;1449486151;2.13889551163;0.895795285702;0.06782257556919999;2;True;12;3;383.68559724094064
538;538;1449486151;2.13903355598;0.895834803581;0.0676605924964;2;True;12;3;383.68559724094064
539;539;1449486151;2.13900756836;0.8956516385079999;0.06760691106319999;2;True;12;3;383.68559724094064
540;540;1449486151;2.1390056610099997;0.8956946730609999;0.06762476265430001;2;True;12;3;383.68559724094064
541;541;1449486151;2.13901114464;0.895771145821;0.0677159875631;2;True;12;3;383.68559724094064
542;542;1449486151;2.13909006119;0.8958534002299998;0.0677937120199;2;True;12;3;383.68559724094064
543;543;1449486151;2.13869452477;0.895390868187;0.06792154908180001;2;True;12;3;383.68559724094064
544;544;1449486151;2.1388463974;0.8954150080679999;0.0678092613816;2;True;12;3;383.68559724094064
545;545;1449486151;2.1388182640099997;0.8955690264700001;0.0680019184947;2;True;12;3;383.68559724094064
546;546;1449486151;2.13884401321;0.8955876231190001;0.0678388699889;2;True;12;3;383.68559724094064
547;547;1449486151;2.13884592056;0.8955619931219999;0.0677936971188;2;True;12;3;383.68559724094064
548;548;1449486151;2.1388018131299997;0.895833671093;0.0679393857718;2;True;12;3;383.68559724094064
549;549;1449486151;2.1389713287400003;0.895774126053;0.0678424909711;2;True;12;3;383.68559724094064
550;550;1449486151;2.13903307915;0.895670831203;0.0676141381264;2;True;12;3;383.68559724094064
551;551;1449486151;2.1390063762700002;0.895691335201;0.0676201209426;2;True;12;3;383.68559724094064
552;552;1449486151;2.1388514041900004;0.895512998104;0.0676715448499;2;True;12;3;383.68559724094064
553;553;1449486151;2.1389968395200003;0.8956966400149999;0.0676905885339;2;True;12;3;383.68559724094064
554;554;1449486151;2.1389138698599997;0.8955124616619999;0.0677502080798;2;True;12;3;383.68559724094064
555;555;1449486151;2.1388599872599996;0.895547747612;0.0678253397346;2;True;12;3;383.68559724094064
556;556;1449486151;2.13875460625;0.8955162763600001;0.0679966062307;2;True;12;3;383.68559724094064
557;557;1449486151;2.1385896205900004;0.895518660545;0.0679511204362;2;True;12;3;383.68559724094064
558;558;1449486151;2.1390156745900004;0.8956999778749999;0.067585632205;2;True;12;3;383.68559724094064
559;559;1449486151;2.13885378838;0.8955883383750001;0.0678421929479;2;True;12;3;383.68559724094064
560;560;1449486151;2.1390097141299997;0.8957421779629999;0.06764864176509999;2;True;12;3;383.68559724094064
561;561;1449486151;2.1388561725599997;0.895718753338;0.06771530210969999;2;True;12;3;383.68559724094064
562;562;1449486151;2.13890576363;0.895612418652;0.06776624917980001;2;True;12;3;383.68559724094064
563;563;1449486151;2.13902068138;0.895687103271;0.0676367804408;2;True;12;3;383.68559724094064
564;564;1449486151;2.1390125751499998;0.8957787156110001;0.0677437856793;2;True;12;3;383.68559724094064
565;565;1449486151;2.13893079758;0.895632266998;0.0677480921149;2;True;12;3;383.68559724094064
566;566;1449486151;2.13886737823;0.895524501801;0.0676425546408;2;True;12;3;383.68559724094064
567;567;1449486151;2.1389479637099997;0.895532310009;0.0677283629775;2;True;12;3;383.68559724094064
568;568;1449486151;2.1390051841699997;0.895690023899;0.067675165832;2;True;12;3;383.68559724094064
569;569;1449486151;2.13895773888;0.895635128021;0.0677180662751;2;True;12;3;383.68559724094064
570;570;1449486151;2.1388118267099996;0.895437240601;0.0676651895046;2;True;12;3;383.68559724094064
571;571;1449486151;2.13891983032;0.895763337612;0.06774354726080001;2;True;12;3;383.68559724094064
572;572;1449486151;2.13898396492;0.8956958055500001;0.06767906248569999;2;True;12;3;383.68559724094064
573;573;1449486151;2.1389079093900003;0.8954748511310001;0.0677405446768;2;True;12;3;383.68559724094064
574;574;1449486151;2.13890337944;0.8956152200700002;0.0678365379572;2;True;12;3;383.68559724094064
575;575;1449486151;2.13900208473;0.895761668682;0.0677426308393;2;True;12;3;383.68559724094064
576;576;1449486151;2.13889503479;0.895551264286;0.06772945076230001;2;True;12;3;383.68559724094064
577;577;1449486151;2.13895964622;0.895632386208;0.06773753464219999;2;True;12;3;383.68559724094064
578;578;1449486151;2.13897919655;0.895721852779;0.0677073001862;2;True;12;3;383.68559724094064
579;579;1449486151;2.13895893097;0.895649433136;0.0677133128047;2;True;12;3;383.68559724094064
580;580;1449486151;2.13885068893;0.895659029484;0.0678795799613;2;True;12;3;383.68559724094064
581;581;1449486151;2.13913965225;0.8959565162659999;0.0677586123347;2;True;12;3;383.68559724094064
582;582;1449486151;2.13898134232;0.8956466317180001;0.0676437020302;2;True;12;3;383.68559724094064
583;583;1449486151;2.13901114464;0.8956825733179999;0.067637719214;2;True;12;3;383.68559724094064
584;584;1449486151;2.13901758194;0.89568811655;0.0675875321031;2;True;12;3;383.68559724094064
585;585;1449486151;2.13883876801;0.895533502102;0.06777051836249999;2;True;12;3;383.68559724094064
586;586;1449486151;2.13885974884;0.895550429821;0.067826256156;2;True;12;3;383.68559724094064
587;587;1449486151;2.13899540901;0.8956479430200001;0.0676017180085;2;True;12;3;383.68559724094064
588;588;1449486151;2.1390171050999998;0.8958070278170001;0.0676530897617;2;True;12;3;383.68559724094064
589;589;1449486151;2.13902330399;0.8958312273029999;0.0677480474114;2;True;12;3;383.68559724094064
590;590;1449486151;2.13897943497;0.89583837986;0.067636705935;2;True;12;3;383.68559724094064
591;591;1449486151;2.13867712021;0.895450472832;0.0679624155164;2;True;12;3;383.68559724094064
592;592;1449486151;2.1390042305000003;0.895829856396;0.0676607862115;2;True;12;3;383.68559724094064
593;593;1449486151;2.13885307312;0.895640611649;0.0679079517722;2;True;12;3;383.68559724094064
594;594;1449486151;2.13900446892;0.895688414574;0.0676133260131;2;True;12;3;383.68559724094064
595;595;1449486151;2.13888144493;0.895567536354;0.0677805095911;2;True;12;3;383.68559724094064
596;596;1449486151;2.1389853954299998;0.895635485649;0.0676504001021;2;True;12;3;383.68559724094064
597;597;1449486151;2.1387872695900003;0.895701706409;0.0678911581635;2;True;12;3;383.68559724094064
598;598;1449486151;2.1391463279700003;0.896004676819;0.06775244325400001;2;True;12;3;383.68559724094064
599;599;1449486151;2.1388165950799998;0.895606219769;0.0679208114743;2;True;12;3;383.68559724094064
600;600;1449486151;2.1390156745900004;0.895688831806;0.0676155984402;2;True;12;3;383.68559724094064
601;601;1449486151;2.13885712624;0.895506322384;0.0678556114435;2;True;12;3;383.68559724094064
602;602;1449486151;2.13876652718;0.8954829573630001;0.0678740665317;2;True;12;3;383.68559724094064
603;603;1449486151;2.1388552188900003;0.8955541849140001;0.0678169578314;2;True;12;3;383.68559724094064
604;604;1449486151;2.13884067535;0.895658731461;0.0678930431604;2;True;12;3;383.68559724094064
