;Unnamed: 0;header_stamp_secs;pose_position_x;pose_position_y;pose_position_z;seconds;drop_values;flight_number;label;dtw
0;0;1449486552;2.13476490974;0.805361568928;0.0683316811919;0;True;13;2;173.7183526158546
1;1;1449486552;2.13470435143;0.8061922192569999;0.0683918297291;0;True;13;2;173.7183526158546
2;2;1449486552;2.1346654891999997;0.8058801293369999;0.0684902817011;0;True;13;2;173.7183526158546
3;3;1449486552;2.13469290733;0.805683970451;0.06835602223869999;0;True;13;2;173.7183526158546
4;4;1449486552;2.13477563858;0.805835962296;0.0682669207454;0;True;13;2;173.7183526158546
5;5;1449486552;2.13463902473;0.805733501911;0.0685101896524;0;True;13;2;173.7183526158546
6;6;1449486552;2.1347124576599996;0.8057472705840001;0.068390570581;0;True;13;2;173.7183526158546
7;7;1449486552;2.13471841812;0.805781245232;0.0683673545718;0;True;13;2;173.7183526158546
8;8;1449486552;2.13479042053;0.805832445621;0.06819185614590001;0;True;13;2;173.7183526158546
9;9;1449486552;2.1347353458400002;0.805697619915;0.0682943463326;0;True;13;2;173.7183526158546
10;10;1449486552;2.134578228;0.805527150631;0.068573705852;0;True;13;2;173.7183526158546
11;11;1449486553;2.1346056461300003;0.8057873845100001;0.0684796124697;1;True;13;2;173.7183526158546
12;12;1449486553;2.13467502594;0.805881619453;0.0684694871306;1;True;13;2;173.7183526158546
13;13;1449486553;2.1347513198900003;0.805777430534;0.0682454556227;1;True;13;2;173.7183526158546
14;14;1449486553;2.1346745491;0.80567419529;0.0684308186173;1;True;13;2;173.7183526158546
15;15;1449486553;2.13479566574;0.806026279926;0.0682248845696;1;True;13;2;173.7183526158546
16;16;1449486553;2.13460993767;0.8054332733149999;0.0684770718217;1;True;13;2;173.7183526158546
17;17;1449486553;2.1347255706799997;0.805656552315;0.0683928951621;1;True;13;2;173.7183526158546
18;18;1449486553;2.1348388195;0.806100904942;0.0681779906154;1;True;13;2;173.7183526158546
19;19;1449486553;2.13462805748;0.8057074546809999;0.06839907169340001;1;True;13;2;173.7183526158546
20;20;1449486553;2.13471841812;0.805771231651;0.0683702453971;1;True;13;2;173.7183526158546
21;21;1449486553;2.1347591877000003;0.8057139515880001;0.0683263465762;1;True;13;2;173.7183526158546
22;22;1449486553;2.13471198082;0.805706977844;0.06833633035419999;1;True;13;2;173.7183526158546
23;23;1449486553;2.13471364975;0.806002855301;0.0684339031577;1;True;13;2;173.7183526158546
24;24;1449486553;2.13475775719;0.805660188198;0.0682421326637;1;True;13;2;173.7183526158546
25;25;1449486553;2.1347053051;0.8056821227069999;0.0683402940631;1;True;13;2;173.7183526158546
26;26;1449486553;2.13469696045;0.805718183517;0.06832724064590001;1;True;13;2;173.7183526158546
27;27;1449486553;2.13467097282;0.805683732033;0.0684568807483;1;True;13;2;173.7183526158546
28;28;1449486553;2.13469791412;0.8056439161300001;0.06842685490849999;1;True;13;2;173.7183526158546
29;29;1449486553;2.1346487999;0.8054536581039999;0.0684635490179;1;True;13;2;173.7183526158546
30;30;1449486553;2.13475704193;0.805909097195;0.0683305412531;1;True;13;2;173.7183526158546
31;31;1449486553;2.1346023082700003;0.805729210377;0.06850148737430001;1;True;13;2;173.7183526158546
32;32;1449486553;2.13482737541;0.8057153820990001;0.068101093173;1;True;13;2;173.7183526158546
33;33;1449486553;2.13465237617;0.805886685848;0.0684704184532;1;True;13;2;173.7183526158546
34;34;1449486553;2.1346774101299997;0.805706679821;0.0683210045099;1;True;13;2;173.7183526158546
35;35;1449486553;2.13463306427;0.8056623935699999;0.0683733969927;1;True;13;2;173.7183526158546
36;36;1449486553;2.1347181797;0.805656552315;0.0684167444706;1;True;13;2;173.7183526158546
37;37;1449486553;2.13463020325;0.805671572685;0.06850566715;1;True;13;2;173.7183526158546
38;38;1449486553;2.1347987651800002;0.805626571178;0.06818519532680001;1;True;13;2;173.7183526158546
39;39;1449486553;2.1348221302;0.8057664036750001;0.0682172179222;1;True;13;2;173.7183526158546
40;40;1449486553;2.1346640586900003;0.805555820465;0.0684226155281;1;True;13;2;173.7183526158546
41;41;1449486553;2.1346879005400003;0.805602192879;0.06839402019980001;1;True;13;2;173.7183526158546
42;42;1449486553;2.1346056461300003;0.805657744408;0.068400144577;1;True;13;2;173.7183526158546
43;43;1449486553;2.1346871852900002;0.805802702904;0.068430274725;1;True;13;2;173.7183526158546
44;44;1449486553;2.13480877876;0.805859327316;0.0681755170226;1;True;13;2;173.7183526158546
45;45;1449486553;2.13467550278;0.805651128292;0.06838748604059999;1;True;13;2;173.7183526158546
46;46;1449486553;2.1346650123599997;0.8056268095970001;0.06848740577700001;1;True;13;2;173.7183526158546
47;47;1449486553;2.13479232788;0.805813133717;0.06821831315759999;1;True;13;2;173.7183526158546
48;48;1449486553;2.1348142623900004;0.805641770363;0.06812634319069999;1;True;13;2;173.7183526158546
49;49;1449486553;2.13481068611;0.8059710860250001;0.0682056620717;1;True;13;2;173.7183526158546
50;50;1449486553;2.13476443291;0.80567240715;0.0682360678911;1;True;13;2;173.7183526158546
51;51;1449486553;2.13462758064;0.8057168126109999;0.0684058442712;1;True;13;2;173.7183526158546
52;52;1449486553;2.13482236862;0.8056305646899999;0.0681360810995;1;True;13;2;173.7183526158546
53;53;1449486553;2.13474059105;0.8057929277420001;0.0683714747429;1;True;13;2;173.7183526158546
54;54;1449486553;2.1347837448099996;0.8058221936229999;0.0682785138488;1;True;13;2;173.7183526158546
55;55;1449486553;2.13484382629;0.806138217449;0.0682047456503;1;True;13;2;173.7183526158546
56;56;1449486553;2.13466048241;0.8057104349140001;0.0683916285634;1;True;13;2;173.7183526158546
57;57;1449486553;2.13477015495;0.805744111538;0.0682717561722;1;True;13;2;173.7183526158546
58;58;1449486553;2.1347892284400003;0.806051313877;0.0683352947235;1;True;13;2;173.7183526158546
59;59;1449486553;2.13475990295;0.805893182755;0.0683592781425;1;True;13;2;173.7183526158546
60;60;1449486553;2.134796381;0.8055240511890001;0.06830324232580001;1;True;13;2;173.7183526158546
61;61;1449486553;2.1344666481;0.805632412434;0.068546526134;1;True;13;2;173.7183526158546
62;62;1449486553;2.1348288059200002;0.8056799769399999;0.06815867125990001;1;True;13;2;173.7183526158546
63;63;1449486553;2.13473033905;0.805587589741;0.0683568939567;1;True;13;2;173.7183526158546
64;64;1449486553;2.13473939896;0.8056977391240001;0.0683536529541;1;True;13;2;173.7183526158546
65;65;1449486553;2.13481831551;0.805780529976;0.0681049227715;1;True;13;2;173.7183526158546
66;66;1449486553;2.1348226070400003;0.805712282658;0.0681398585439;1;True;13;2;173.7183526158546
67;67;1449486553;2.13469028473;0.805810570717;0.068430043757;1;True;13;2;173.7183526158546
68;68;1449486553;2.13464665413;0.8057679533959999;0.068494156003;1;True;13;2;173.7183526158546
69;69;1449486553;2.1346819400799997;0.8055064082150001;0.068403147161;1;True;13;2;173.7183526158546
70;70;1449486553;2.13458395004;0.805584430695;0.06857664883140001;1;True;13;2;173.7183526158546
71;71;1449486553;2.13467288017;0.805705606937;0.0683722794056;1;True;13;2;173.7183526158546
72;72;1449486553;2.1348083019299997;0.805738925934;0.06823764741419999;1;True;13;2;173.7183526158546
73;73;1449486553;2.1346926689099996;0.8058165907860001;0.0684046596289;1;True;13;2;173.7183526158546
74;74;1449486553;2.13472652435;0.8057087063789999;0.0684107095003;1;True;13;2;173.7183526158546
75;75;1449486553;2.13469958305;0.805844068527;0.06845936924219999;1;True;13;2;173.7183526158546
76;76;1449486553;2.13442873955;0.805495679379;0.06864417344330001;1;True;13;2;173.7183526158546
77;77;1449486553;2.13475370407;0.805732190609;0.0685248672962;1;True;13;2;173.7183526158546
78;78;1449486553;2.1346588134799998;0.805724382401;0.0684349089861;1;True;13;2;173.7183526158546
79;79;1449486553;2.13480854034;0.805859744549;0.0683077126741;1;True;13;2;173.7183526158546
80;80;1449486553;2.13465189934;0.8056902289390001;0.0684040263295;1;True;13;2;173.7183526158546
81;81;1449486553;2.13476395607;0.80595433712;0.06841024011369999;1;True;13;2;173.7183526158546
82;82;1449486553;2.13438773155;0.805504381657;0.06872022897010001;1;True;13;2;173.7183526158546
83;83;1449486553;2.13482618332;0.8058323264120001;0.0682083964348;1;True;13;2;173.7183526158546
84;84;1449486553;2.13461327553;0.805872261524;0.0685029253364;1;True;13;2;173.7183526158546
85;85;1449486553;2.13473105431;0.8056178689;0.0683194771409;1;True;13;2;173.7183526158546
86;86;1449486553;2.1347839832299997;0.8059162497519999;0.0682989284396;1;True;13;2;173.7183526158546
87;87;1449486553;2.13480138779;0.8057180643080001;0.0682404190302;1;True;13;2;173.7183526158546
88;88;1449486553;2.13481760025;0.8058595657350001;0.0682322084904;1;True;13;2;173.7183526158546
89;89;1449486553;2.13474583626;0.805727422237;0.06833447515959999;1;True;13;2;173.7183526158546
90;90;1449486553;2.13482785225;0.805647671223;0.0681928768754;1;True;13;2;173.7183526158546
91;91;1449486553;2.1349439621;0.805588006973;0.0684286355972;1;True;13;2;173.7183526158546
92;92;1449486553;2.13472342491;0.805709064007;0.0684839561582;1;True;13;2;173.7183526158546
93;93;1449486553;2.13481664658;0.8060517311100001;0.0683131068945;1;True;13;2;173.7183526158546
94;94;1449486553;2.1346476078;0.805543482304;0.0685903578997;1;True;13;2;173.7183526158546
95;95;1449486553;2.13485050201;0.805808842182;0.0682050362229;1;True;13;2;173.7183526158546
96;96;1449486553;2.13477087021;0.8056997656820001;0.068390801549;1;True;13;2;173.7183526158546
97;97;1449486553;2.13485908508;0.8057257533069999;0.0682022571564;1;True;13;2;173.7183526158546
98;98;1449486553;2.134765625;0.805726468563;0.06851164996619999;1;True;13;2;173.7183526158546
99;99;1449486553;2.13470506668;0.80568921566;0.0683840438724;1;True;13;2;173.7183526158546
100;100;1449486553;2.13467216492;0.8054773807529999;0.06843294948340001;1;True;13;2;173.7183526158546
101;101;1449486553;2.13468956947;0.805405378342;0.06840422004459999;1;True;13;2;173.7183526158546
102;102;1449486553;2.13484549522;0.8058072924609999;0.0681608989835;1;True;13;2;173.7183526158546
103;103;1449486553;2.1347360611000004;0.8057568073270001;0.0682866498828;1;True;13;2;173.7183526158546
104;104;1449486553;2.1347682476;0.8056814074519999;0.0682507902384;1;True;13;2;173.7183526158546
105;105;1449486553;2.1346983909599997;0.805559635162;0.0682637766004;1;True;13;2;173.7183526158546
106;106;1449486553;2.13477301598;0.8053572177889999;0.0682721883059;1;True;13;2;173.7183526158546
107;107;1449486553;2.1346962451900002;0.805740773678;0.06839880347249999;1;True;13;2;173.7183526158546
108;108;1449486553;2.13478899002;0.8059309720990001;0.0683472976089;1;True;13;2;173.7183526158546
109;109;1449486553;2.13475108147;0.805527150631;0.0684228390455;1;True;13;2;173.7183526158546
110;110;1449486553;2.13473939896;0.8056952357289999;0.06838978827;1;True;13;2;173.7183526158546
111;111;1449486553;2.1348345279700003;0.8057581782340001;0.06844291090969999;1;True;13;2;173.7183526158546
112;112;1449486553;2.13467907906;0.805878102779;0.0685731545091;1;True;13;2;173.7183526158546
113;113;1449486553;2.13465809822;0.805776715279;0.0685016512871;1;True;13;2;173.7183526158546
114;114;1449486553;2.13473439217;0.805711507797;0.0684374272823;1;True;13;2;173.7183526158546
115;115;1449486553;2.13482379913;0.805635213852;0.0682269409299;1;True;13;2;173.7183526158546
116;116;1449486553;2.13462996483;0.805534243584;0.0685462355614;1;True;13;2;173.7183526158546
117;117;1449486553;2.13479328156;0.805947482586;0.0683592930436;1;True;13;2;173.7183526158546
118;118;1449486553;2.1344022750900002;0.805645763874;0.0685745105147;1;True;13;2;173.7183526158546
119;119;1449486553;2.13470554352;0.805705606937;0.0683757439256;1;True;13;2;173.7183526158546
120;120;1449486553;2.13463497162;0.805492758751;0.0684218108654;1;True;13;2;173.7183526158546
121;121;1449486553;2.1346578598;0.805818974972;0.0683554783463;1;True;13;2;173.7183526158546
122;122;1449486553;2.13462281227;0.805822789669;0.06836102902890001;1;True;13;2;173.7183526158546
123;123;1449486553;2.13463592529;0.805814683437;0.0683983117342;1;True;13;2;173.7183526158546
124;124;1449486553;2.1347012519799997;0.806016981602;0.0683816447854;1;True;13;2;173.7183526158546
125;125;1449486553;2.13474082947;0.805684924126;0.06828320771459999;1;True;13;2;173.7183526158546
126;126;1449486553;2.13464808464;0.8058727383609999;0.06845141202209999;1;True;13;2;173.7183526158546
127;127;1449486553;2.13475942612;0.805726885796;0.06827734410759999;1;True;13;2;173.7183526158546
128;128;1449486553;2.13443088531;0.805701553822;0.0685684978962;1;True;13;2;173.7183526158546
129;129;1449486553;2.1347210407299997;0.8059703111650001;0.0684476941824;1;True;13;2;173.7183526158546
130;130;1449486553;2.1346254348800002;0.8056998252869999;0.0685229375958;1;True;13;2;173.7183526158546
131;131;1449486553;2.13486528397;0.805969536304;0.0682955831289;1;True;13;2;173.7183526158546
132;132;1449486553;2.1345307827;0.805666983128;0.068601436913;1;True;13;2;173.7183526158546
133;133;1449486553;2.13471388817;0.805608034134;0.0685230493546;1;True;13;2;173.7183526158546
134;134;1449486553;2.1347908973700003;0.805856764317;0.0683103352785;1;True;13;2;173.7183526158546
135;135;1449486553;2.13467359543;0.8056396842;0.06846617907290001;1;True;13;2;173.7183526158546
136;136;1449486553;2.13463878632;0.805624783039;0.0685066878796;1;True;13;2;173.7183526158546
137;137;1449486553;2.13470935822;0.805775702;0.0683483332396;1;True;13;2;173.7183526158546
138;138;1449486553;2.13480472565;0.805631816387;0.0681009590626;1;True;13;2;173.7183526158546
139;139;1449486553;2.13465261459;0.8055147528650001;0.0683650821447;1;True;13;2;173.7183526158546
140;140;1449486553;2.1347360611000004;0.805815696716;0.0682638883591;1;True;13;2;173.7183526158546
141;141;1449486553;2.13464331627;0.805663049221;0.0682826042175;1;True;13;2;173.7183526158546
142;142;1449486553;2.13453388214;0.8056365251540001;0.0683008283377;1;True;13;2;173.7183526158546
143;143;1449486553;2.1348195076;0.805843889713;0.0680574178696;1;True;13;2;173.7183526158546
144;144;1449486553;2.13470458984;0.805760681629;0.06822371482850001;1;True;13;2;173.7183526158546
145;145;1449486553;2.1346871852900002;0.8059996366500001;0.0683708712459;1;True;13;2;173.7183526158546
146;146;1449486553;2.13481330872;0.805702805519;0.0680786594748;1;True;13;2;173.7183526158546
147;147;1449486553;2.1347315311400004;0.805904388428;0.0683261826634;1;True;13;2;173.7183526158546
148;148;1449486553;2.13481211662;0.805741131306;0.0681526362896;1;True;13;2;173.7183526158546
149;149;1449486553;2.13480234146;0.805632352829;0.0681728497148;1;True;13;2;173.7183526158546
150;150;1449486553;2.13465261459;0.805686712265;0.0684989765286;1;True;13;2;173.7183526158546
151;151;1449486553;2.1345863342299998;0.805716872215;0.0685693696141;1;True;13;2;173.7183526158546
152;152;1449486553;2.13480591774;0.805642187595;0.0681972280145;1;True;13;2;173.7183526158546
153;153;1449486553;2.13481593132;0.8056561350820001;0.0681946352124;1;True;13;2;173.7183526158546
154;154;1449486553;2.1345949173;0.8055330514910001;0.068510144949;1;True;13;2;173.7183526158546
155;155;1449486553;2.13458371162;0.8056365251540001;0.0684210807085;1;True;13;2;173.7183526158546
156;156;1449486553;2.1346220970200003;0.805654466152;0.068516291678;1;True;13;2;173.7183526158546
157;157;1449486553;2.13465094566;0.8056732416150001;0.0683408454061;1;True;13;2;173.7183526158546
158;158;1449486553;2.1346204280900003;0.805579006672;0.06845762580630001;1;True;13;2;173.7183526158546
159;159;1449486553;2.1346104145099996;0.805765032768;0.0684104859829;1;True;13;2;173.7183526158546
160;160;1449486553;2.13469052315;0.8058724999429999;0.0683611556888;1;True;13;2;173.7183526158546
161;161;1449486553;2.1347386837;0.805933713913;0.06834527105089999;1;True;13;2;173.7183526158546
162;162;1449486553;2.13474678993;0.80571436882;0.0682168751955;1;True;13;2;173.7183526158546
163;163;1449486553;2.13478255272;0.805790066719;0.0681643635035;1;True;13;2;173.7183526158546
164;164;1449486553;2.13464021683;0.805745601654;0.06845813244580001;1;True;13;2;173.7183526158546
165;165;1449486553;2.13463497162;0.805499255657;0.06844259053469999;1;True;13;2;173.7183526158546
166;166;1449486553;2.13472175598;0.80557769537;0.0684082210064;1;True;13;2;173.7183526158546
167;167;1449486553;2.13466596603;0.805649101734;0.06851323693990001;1;True;13;2;173.7183526158546
168;168;1449486553;2.13480162621;0.805770158768;0.0681591331959;1;True;13;2;173.7183526158546
169;169;1449486553;2.13464832306;0.80554240942;0.068471737206;1;True;13;2;173.7183526158546
170;170;1449486553;2.13473939896;0.805802822113;0.068351097405;1;True;13;2;173.7183526158546
171;171;1449486553;2.1346924305;0.805696606636;0.06841706484559999;1;True;13;2;173.7183526158546
172;172;1449486553;2.13470315933;0.805550813675;0.06852273643019999;1;True;13;2;173.7183526158546
173;173;1449486553;2.13478255272;0.805768430233;0.06845233589409999;1;True;13;2;173.7183526158546
174;174;1449486553;2.13460469246;0.805712163448;0.0685052275658;1;True;13;2;173.7183526158546
175;175;1449486553;2.13472938538;0.8057207465170001;0.0683160573244;1;True;13;2;173.7183526158546
176;176;1449486553;2.13471412659;0.805799365044;0.06837310642000001;1;True;13;2;173.7183526158546
177;177;1449486553;2.13468647003;0.80562877655;0.0683494210243;1;True;13;2;173.7183526158546
178;178;1449486553;2.13476443291;0.8060641288760001;0.0682490393519;1;True;13;2;173.7183526158546
179;179;1449486553;2.13472270966;0.8056778311730001;0.0683313831687;1;True;13;2;173.7183526158546
180;180;1449486553;2.1346650123599997;0.8058656454090001;0.0684259086847;1;True;13;2;173.7183526158546
181;181;1449486553;2.13460946083;0.8057760596279999;0.0684226602316;1;True;13;2;173.7183526158546
182;182;1449486553;2.13473510742;0.8056918382639999;0.06825114041569999;1;True;13;2;173.7183526158546
183;183;1449486553;2.13476419449;0.8057351112369999;0.068178601563;1;True;13;2;173.7183526158546
184;184;1449486553;2.1348111629499997;0.805770993233;0.0681102350354;1;True;13;2;173.7183526158546
185;185;1449486553;2.13481044769;0.805657029152;0.06812264025209999;1;True;13;2;173.7183526158546
186;186;1449486553;2.13480448723;0.805825948715;0.0682479888201;1;True;13;2;173.7183526158546
187;187;1449486553;2.13456487656;0.8056412339210001;0.0685792416334;1;True;13;2;173.7183526158546
188;188;1449486553;2.13474965096;0.805861353874;0.0684208422899;1;True;13;2;173.7183526158546
189;189;1449486553;2.13482546806;0.805948734283;0.0681499019265;1;True;13;2;173.7183526158546
190;190;1449486553;2.13483309746;0.805656969547;0.0683265775442;1;True;13;2;173.7183526158546
191;191;1449486553;2.1346879005400003;0.805677652359;0.0684083253145;1;True;13;2;173.7183526158546
192;192;1449486553;2.13475108147;0.8056809306139999;0.0683484226465;1;True;13;2;173.7183526158546
193;193;1449486553;2.13462853432;0.8055711984630001;0.06850370019669999;1;True;13;2;173.7183526158546
194;194;1449486553;2.13459897041;0.805718421936;0.0685186162591;1;True;13;2;173.7183526158546
195;195;1449486553;2.13454794884;0.8056370019910001;0.0685268864036;1;True;13;2;173.7183526158546
196;196;1449486553;2.13480472565;0.806047797203;0.0682799741626;1;True;13;2;173.7183526158546
197;197;1449486553;2.13479471207;0.805681288242;0.0680938437581;1;True;13;2;173.7183526158546
198;198;1449486553;2.1346025466900005;0.8056281805040001;0.0683562457561;1;True;13;2;173.7183526158546
199;199;1449486553;2.1346197128299997;0.80579161644;0.0683898329735;1;True;13;2;173.7183526158546
200;200;1449486553;2.1346218586;0.8058065176010001;0.0684304833412;1;True;13;2;173.7183526158546
201;201;1449486553;2.13471412659;0.805550098419;0.06834430247550001;1;True;13;2;173.7183526158546
202;202;1449486553;2.13480520248;0.805759251118;0.0681641250849;1;True;13;2;173.7183526158546
203;203;1449486553;2.1348965168;0.8056949973109999;0.0683091282845;1;True;13;2;173.7183526158546
204;204;1449486553;2.1347413063;0.805701613426;0.0682262852788;1;True;13;2;173.7183526158546
205;205;1449486553;2.1347086429599997;0.805714905262;0.06832871586080001;1;True;13;2;173.7183526158546
206;206;1449486553;2.13474798203;0.805908858776;0.0684212073684;1;True;13;2;173.7183526158546
207;207;1449486553;2.1345744133;0.8055675625800001;0.0684584677219;1;True;13;2;173.7183526158546
208;208;1449486553;2.1346163749700002;0.8058805465700001;0.0685103088617;1;True;13;2;173.7183526158546
209;209;1449486553;2.1346368789700003;0.805707097054;0.06840425729749999;1;True;13;2;173.7183526158546
210;210;1449486553;2.13480496407;0.80569601059;0.0681711360812;1;True;13;2;173.7183526158546
211;211;1449486553;2.13461303711;0.805584728718;0.0685223340988;1;True;13;2;173.7183526158546
212;212;1449486553;2.13473129272;0.8059677481649999;0.0684493258595;1;True;13;2;173.7183526158546
213;213;1449486553;2.1348102092700003;0.805756211281;0.06818907707930001;1;True;13;2;173.7183526158546
214;214;1449486553;2.13459658623;0.8056281805040001;0.0683866813779;1;True;13;2;173.7183526158546
215;215;1449486553;2.1346793174700003;0.805668652058;0.0683568865061;1;True;13;2;173.7183526158546
216;216;1449486553;2.13480210304;0.805633246899;0.0681274235249;1;True;13;2;173.7183526158546
217;217;1449486553;2.13475060463;0.8057278394699999;0.0682844221592;1;True;13;2;173.7183526158546
218;218;1449486553;2.13481926918;0.8057513833050001;0.06807455420490001;1;True;13;2;173.7183526158546
219;219;1449486553;2.13468575478;0.8056761026379999;0.06832160800699999;1;True;13;2;173.7183526158546
220;220;1449486553;2.13471460342;0.805723369122;0.0682912319899;1;True;13;2;173.7183526158546
221;221;1449486553;2.1346938610099997;0.8057072758670001;0.0684202313423;1;True;13;2;173.7183526158546
222;222;1449486553;2.13481831551;0.805789351463;0.0681896433234;1;True;13;2;173.7183526158546
223;223;1449486553;2.13472723961;0.8057378530500001;0.0683020725846;1;True;13;2;173.7183526158546
224;224;1449486553;2.1347024440799998;0.8056343197820001;0.0682904720306;1;True;13;2;173.7183526158546
225;225;1449486553;2.1348493099200003;0.805830061436;0.06816625595089999;1;True;13;2;173.7183526158546
226;226;1449486553;2.13482141495;0.8060528039929999;0.0681371316314;1;True;13;2;173.7183526158546
227;227;1449486553;2.13476538658;0.8054038882260001;0.0683332234621;1;True;13;2;173.7183526158546
228;228;1449486553;2.13476276398;0.805694460869;0.06827916949990001;1;True;13;2;173.7183526158546
229;229;1449486553;2.13470220566;0.805714786053;0.06840229034419999;1;True;13;2;173.7183526158546
230;230;1449486553;2.13464522362;0.8057085275650001;0.0683941617608;1;True;13;2;173.7183526158546
231;231;1449486553;2.13471031189;0.805710673332;0.0684979110956;1;True;13;2;173.7183526158546
232;232;1449486553;2.13461947441;0.8056881427760001;0.06856256723399999;1;True;13;2;173.7183526158546
233;233;1449486553;2.13472127914;0.805823206902;0.0684071779251;1;True;13;2;173.7183526158546
234;234;1449486553;2.13473677635;0.805723369122;0.0683027505875;1;True;13;2;173.7183526158546
235;235;1449486553;2.1348578929900004;0.805840671062;0.0681311041117;1;True;13;2;173.7183526158546
236;236;1449486553;2.13461232185;0.8055388331409999;0.06844965368509999;1;True;13;2;173.7183526158546
237;237;1449486553;2.1343445777900003;0.805688977242;0.0685722231865;1;True;13;2;173.7183526158546
238;238;1449486553;2.13473200798;0.805691897869;0.06813375651840001;1;True;13;2;173.7183526158546
239;239;1449486553;2.13479351997;0.805805027485;0.0681884586811;1;True;13;2;173.7183526158546
240;240;1449486553;2.1347284316999997;0.805661559105;0.06813371181490001;1;True;13;2;173.7183526158546
241;241;1449486553;2.13468766212;0.805783867836;0.06838343292469999;1;True;13;2;173.7183526158546
242;242;1449486553;2.1347997188599996;0.8058282136920001;0.0681990236044;1;True;13;2;173.7183526158546
243;243;1449486553;2.1347424984;0.805678486824;0.068227596581;1;True;13;2;173.7183526158546
244;244;1449486553;2.13472056389;0.805957019329;0.0684024617076;1;True;13;2;173.7183526158546
245;245;1449486553;2.13475799561;0.805692076683;0.0683141574264;1;True;13;2;173.7183526158546
246;246;1449486553;2.13482618332;0.805771291256;0.0682246014476;1;True;13;2;173.7183526158546
247;247;1449486553;2.13461828232;0.805550456047;0.0685083717108;1;True;13;2;173.7183526158546
248;248;1449486553;2.1347937583900003;0.805631220341;0.06821484118700001;1;True;13;2;173.7183526158546
249;249;1449486553;2.1346397399900003;0.8057083487510001;0.0684576779604;1;True;13;2;173.7183526158546
250;250;1449486554;2.13471865654;0.805738985538;0.0684958472848;2;True;13;2;173.7183526158546
251;251;1449486554;2.13473820686;0.806057572365;0.06842914223669999;2;True;13;2;173.7183526158546
252;252;1449486554;2.13476729393;0.805724918842;0.0682382583618;2;True;13;2;173.7183526158546
253;253;1449486554;2.13461279869;0.805672645569;0.06838782876730001;2;True;13;2;173.7183526158546
254;254;1449486554;2.1347560882599996;0.805919587612;0.0683829709888;2;True;13;2;173.7183526158546
255;255;1449486554;2.1346294879900003;0.805633068085;0.0684836506844;2;True;13;2;173.7183526158546
256;256;1449486554;2.13472080231;0.805730998516;0.0682983100414;2;True;13;2;173.7183526158546
257;257;1449486554;2.13466238976;0.8055733442309999;0.0684473738074;2;True;13;2;173.7183526158546
258;258;1449486554;2.13475370407;0.80572271347;0.0682888701558;2;True;13;2;173.7183526158546
259;259;1449486554;2.1346178054799996;0.8057827949519999;0.0684043765068;2;True;13;2;173.7183526158546
260;260;1449486554;2.13481473923;0.8057820796969999;0.0682063177228;2;True;13;2;173.7183526158546
261;261;1449486554;2.13482141495;0.805674374104;0.0681078583002;2;True;13;2;173.7183526158546
262;262;1449486554;2.13478541374;0.805922567844;0.0683528110385;2;True;13;2;173.7183526158546
263;263;1449486554;2.13472485542;0.805742263794;0.06842745095490001;2;True;13;2;173.7183526158546
264;264;1449486554;2.13468027115;0.805616796017;0.0684621930122;2;True;13;2;173.7183526158546
265;265;1449486554;2.1346340179400003;0.805759549141;0.0684482529759;2;True;13;2;173.7183526158546
266;266;1449486554;2.13481545448;0.805712401867;0.0681323930621;2;True;13;2;173.7183526158546
267;267;1449486554;2.13479328156;0.805758833885;0.0682025253773;2;True;13;2;173.7183526158546
268;268;1449486554;2.13447403908;0.805390000343;0.06857172399759999;2;True;13;2;173.7183526158546
269;269;1449486554;2.13484096527;0.8058553338050001;0.068327344954;2;True;13;2;173.7183526158546
270;270;1449486554;2.13475418091;0.8057226538660001;0.0683012530208;2;True;13;2;173.7183526158546
271;271;1449486554;2.1347949504900003;0.805631279945;0.0682046338916;2;True;13;2;173.7183526158546
272;272;1449486554;2.13481783867;0.805774092674;0.068106405437;2;True;13;2;173.7183526158546
273;273;1449486554;2.13475942612;0.8059476614;0.0684007555246;2;True;13;2;173.7183526158546
274;274;1449486554;2.13474678993;0.806007564068;0.0684309825301;2;True;13;2;173.7183526158546
275;275;1449486554;2.13474798203;0.805921435356;0.0683860331774;2;True;13;2;173.7183526158546
276;276;1449486554;2.1347155571000003;0.805615544319;0.06840527802709999;2;True;13;2;173.7183526158546
277;277;1449486554;2.13482117653;0.8055902123450001;0.0681035891175;2;True;13;2;173.7183526158546
278;278;1449486554;2.13482093811;0.80583769083;0.0681020095944;2;True;13;2;173.7183526158546
279;279;1449486554;2.13479185104;0.805855035782;0.0682280361652;2;True;13;2;173.7183526158546
280;280;1449486554;2.13466644287;0.805779516697;0.0683839395642;2;True;13;2;173.7183526158546
281;281;1449486554;2.13482642174;0.8056840300560001;0.0681224986911;2;True;13;2;173.7183526158546
282;282;1449486554;2.13454461098;0.805676400661;0.0685550570488;2;True;13;2;173.7183526158546
283;283;1449486554;2.13462233543;0.8056185841560001;0.06839720159769999;2;True;13;2;173.7183526158546
284;284;1449486554;2.13456988335;0.805533826351;0.06847592443230001;2;True;13;2;173.7183526158546
285;285;1449486554;2.13452863693;0.8054510951039999;0.0685657784343;2;True;13;2;173.7183526158546
286;286;1449486554;2.13477277756;0.805742263794;0.0682802796364;2;True;13;2;173.7183526158546
287;287;1449486554;2.13481092453;0.8057194352150001;0.0682198107243;2;True;13;2;173.7183526158546
288;288;1449486554;2.13464093208;0.805829882622;0.0684789642692;2;True;13;2;173.7183526158546
289;289;1449486554;2.13482904434;0.805948793888;0.0682388171554;2;True;13;2;173.7183526158546
290;290;1449486554;2.13478183746;0.8059448599819999;0.0684110149741;2;True;13;2;173.7183526158546
291;291;1449486554;2.1347460746799998;0.805614411831;0.0684251636267;2;True;13;2;173.7183526158546
292;292;1449486554;2.13463640213;0.805806219578;0.0684822052717;2;True;13;2;173.7183526158546
293;293;1449486554;2.13479542732;0.8060193061830001;0.068239659071;2;True;13;2;173.7183526158546
294;294;1449486554;2.1345281601;0.805427193642;0.0685785636306;2;True;13;2;173.7183526158546
295;295;1449486554;2.13478279114;0.805705070496;0.0683409124613;2;True;13;2;173.7183526158546
296;296;1449486554;2.1347215175599996;0.8057196140289999;0.068397924304;2;True;13;2;173.7183526158546
297;297;1449486554;2.13475346565;0.8055921792980001;0.0683568641543;2;True;13;2;173.7183526158546
298;298;1449486554;2.13475775719;0.8057267665860001;0.0683017745614;2;True;13;2;173.7183526158546
299;299;1449486554;2.13473558426;0.805617630482;0.0684399157763;2;True;13;2;173.7183526158546
300;300;1449486554;2.13482618332;0.8056282997130001;0.0681711137295;2;True;13;2;173.7183526158546
301;301;1449486554;2.13482117653;0.8056825995450001;0.06815741956230001;2;True;13;2;173.7183526158546
302;302;1449486554;2.1346991062200003;0.8055896759029999;0.0683929994702;2;True;13;2;173.7183526158546
303;303;1449486554;2.13491415977;0.8061307668690001;0.0682842805982;2;True;13;2;173.7183526158546
304;304;1449486554;2.1347460746799998;0.805681765079;0.0684216320515;2;True;13;2;173.7183526158546
305;305;1449486554;2.13466310501;0.8057869672779999;0.0684287622571;2;True;13;2;173.7183526158546
306;306;1449486554;2.13465261459;0.8055302500720001;0.068499751389;2;True;13;2;173.7183526158546
307;307;1449486554;2.13463997841;0.8056277632709999;0.0685359463096;2;True;13;2;173.7183526158546
308;308;1449486554;2.13474941254;0.805973410606;0.06844394654040001;2;True;13;2;173.7183526158546
309;309;1449486554;2.13481998444;0.8057460188869999;0.0682723224163;2;True;13;2;173.7183526158546
310;310;1449486554;2.13472127914;0.805641591549;0.0684510469437;2;True;13;2;173.7183526158546
311;311;1449486554;2.13467121124;0.8054854273800001;0.0684611797333;2;True;13;2;173.7183526158546
312;312;1449486554;2.1346163749700002;0.805760145187;0.0684723630548;2;True;13;2;173.7183526158546
313;313;1449486554;2.13484954834;0.806245744228;0.0682832449675;2;True;13;2;173.7183526158546
314;314;1449486554;2.13479924202;0.8060981631280001;0.0682735666633;2;True;13;2;173.7183526158546
315;315;1449486554;2.13470983505;0.805599808693;0.06840483099219999;2;True;13;2;173.7183526158546
316;316;1449486554;2.13481163979;0.8056591153139999;0.06820710003380001;2;True;13;2;173.7183526158546
317;317;1449486554;2.1346013546;0.805632412434;0.0685711354017;2;True;13;2;173.7183526158546
318;318;1449486554;2.13471150398;0.8056256771089999;0.0683334767818;2;True;13;2;173.7183526158546
319;319;1449486554;2.13480639458;0.805870711803;0.0682707056403;2;True;13;2;173.7183526158546
320;320;1449486554;2.13482952118;0.805704176426;0.06814354658130001;2;True;13;2;173.7183526158546
321;321;1449486554;2.13481616974;0.8056527376170001;0.0681627169251;2;True;13;2;173.7183526158546
322;322;1449486554;2.1348228454599996;0.8060165047650001;0.0681879520416;2;True;13;2;173.7183526158546
323;323;1449486554;2.13479757309;0.8060135245319999;0.06818170845509999;2;True;13;2;173.7183526158546
324;324;1449486554;2.13471078873;0.805749833584;0.0683909580112;2;True;13;2;173.7183526158546
325;325;1449486554;2.13467359543;0.805823266506;0.06838751584290001;2;True;13;2;173.7183526158546
326;326;1449486554;2.1347863674200003;0.8057990670199999;0.06823146343230001;2;True;13;2;173.7183526158546
327;327;1449486554;2.13473343849;0.805993258953;0.0684531629086;2;True;13;2;173.7183526158546
328;328;1449486554;2.1347200870500003;0.805707573891;0.06836750358339999;2;True;13;2;173.7183526158546
329;329;1449486554;2.13480520248;0.80584025383;0.0682537555695;2;True;13;2;173.7183526158546
330;330;1449486554;2.13473057747;0.8057186603550001;0.0683181732893;2;True;13;2;173.7183526158546
331;331;1449486554;2.13481354713;0.805823922157;0.0681891962886;2;True;13;2;173.7183526158546
332;332;1449486554;2.13473033905;0.8056945204729999;0.06830168515440001;2;True;13;2;173.7183526158546
333;333;1449486554;2.13470220566;0.805716276169;0.0684003084898;2;True;13;2;173.7183526158546
334;334;1449486554;2.13477802277;0.8057017922399999;0.0681927278638;2;True;13;2;173.7183526158546
335;335;1449486554;2.13480114937;0.805842876434;0.0682169124484;2;True;13;2;173.7183526158546
336;336;1449486554;2.13464641571;0.805804729462;0.0684936568141;2;True;13;2;173.7183526158546
337;337;1449486554;2.13467264175;0.805488467216;0.0683970451355;2;True;13;2;173.7183526158546
338;338;1449486554;2.13443589211;0.8057100176809999;0.0685108155012;2;True;13;2;173.7183526158546
339;339;1449486554;2.13482713699;0.806000649929;0.0681553483009;2;True;13;2;173.7183526158546
340;340;1449486554;2.13463044167;0.805762827396;0.0684348717332;2;True;13;2;173.7183526158546
341;341;1449486554;2.13481783867;0.805832087994;0.0681123882532;2;True;13;2;173.7183526158546
342;342;1449486554;2.13462686539;0.805490136147;0.0684777498245;2;True;13;2;173.7183526158546
343;343;1449486554;2.13474965096;0.8057003617290001;0.0682988315821;2;True;13;2;173.7183526158546
344;344;1449486554;2.1344623565700003;0.805728912354;0.0686324462295;2;True;13;2;173.7183526158546
345;345;1449486554;2.1346640586900003;0.805726408958;0.0684535950422;2;True;13;2;173.7183526158546
346;346;1449486554;2.13476419449;0.8060433268549999;0.06840531528;2;True;13;2;173.7183526158546
347;347;1449486554;2.13466787338;0.80566829443;0.068373657763;2;True;13;2;173.7183526158546
348;348;1449486554;2.1347870826700004;0.8058372139929999;0.0682085156441;2;True;13;2;173.7183526158546
349;349;1449486554;2.1347360611000004;0.8057398796080001;0.0682927146554;2;True;13;2;173.7183526158546
350;350;1449486554;2.13473582268;0.805713474751;0.0683230683208;2;True;13;2;173.7183526158546
351;351;1449486554;2.13470983505;0.8058037161830001;0.0683787167072;2;True;13;2;173.7183526158546
352;352;1449486554;2.13477659225;0.8058371543880001;0.0682704523206;2;True;13;2;173.7183526158546
353;353;1449486554;2.1347851753200002;0.805857896805;0.0682426169515;2;True;13;2;173.7183526158546
354;354;1449486554;2.1347448825799997;0.805703341961;0.0683105438948;2;True;13;2;173.7183526158546
355;355;1449486554;2.13467907906;0.805709123611;0.0683042407036;2;True;13;2;173.7183526158546
356;356;1449486554;2.13475370407;0.805782914162;0.06835424155;2;True;13;2;173.7183526158546
357;357;1449486554;2.13480997086;0.806024074554;0.06819236278530001;2;True;13;2;173.7183526158546
358;358;1449486554;2.13466215134;0.805604636669;0.0683896616101;2;True;13;2;173.7183526158546
359;359;1449486554;2.13451719284;0.805728137493;0.0684663951397;2;True;13;2;173.7183526158546
360;360;1449486554;2.13476848602;0.805462539196;0.0683442279696;2;True;13;2;173.7183526158546
361;361;1449486554;2.13461589813;0.805698812008;0.0684379562736;2;True;13;2;173.7183526158546
362;362;1449486554;2.13467001915;0.805755734444;0.06833083182569999;2;True;13;2;173.7183526158546
363;363;1449486554;2.13471484184;0.805708289146;0.0683412402868;2;True;13;2;173.7183526158546
364;364;1449486554;2.1345908641799998;0.805647850037;0.0684021636844;2;True;13;2;173.7183526158546
365;365;1449486554;2.13467502594;0.8056514263150001;0.0683335736394;2;True;13;2;173.7183526158546
366;366;1449486554;2.1347925663;0.80584615469;0.0682232603431;2;True;13;2;173.7183526158546
367;367;1449486554;2.1347029209099997;0.805695176125;0.0684166774154;2;True;13;2;173.7183526158546
368;368;1449486554;2.13467288017;0.8058512210850001;0.06847227364780001;2;True;13;2;173.7183526158546
369;369;1449486554;2.13481259346;0.805687785149;0.0681347921491;2;True;13;2;173.7183526158546
370;370;1449486554;2.1346967220299997;0.8056792616840001;0.0683445036411;2;True;13;2;173.7183526158546
371;371;1449486554;2.1346600055700002;0.805568814278;0.0684593394399;2;True;13;2;173.7183526158546
372;372;1449486554;2.13472723961;0.805725157261;0.068317271769;2;True;13;2;173.7183526158546
373;373;1449486554;2.13474535942;0.8057092428210001;0.0682862401009;2;True;13;2;173.7183526158546
374;374;1449486554;2.13460850716;0.805752694607;0.068426631391;2;True;13;2;173.7183526158546
375;375;1449486554;2.13471055031;0.805711328983;0.0683747455478;2;True;13;2;173.7183526158546
376;376;1449486554;2.1347362995099997;0.805672943592;0.0682608932257;2;True;13;2;173.7183526158546
377;377;1449486554;2.13471484184;0.805650472641;0.0683976113796;2;True;13;2;173.7183526158546
378;378;1449486554;2.1347079277;0.805729448795;0.06838154047730001;2;True;13;2;173.7183526158546
379;379;1449486554;2.1346163749700002;0.805698096752;0.0683771446347;2;True;13;2;173.7183526158546
380;380;1449486554;2.13476538658;0.8054012656209999;0.068302065134;2;True;13;2;173.7183526158546
381;381;1449486554;2.13466191292;0.805864870548;0.0684558749199;2;True;13;2;173.7183526158546
382;382;1449486554;2.1346316337599998;0.805425405502;0.068449690938;2;True;13;2;173.7183526158546
383;383;1449486554;2.1343812942500002;0.8056145906450001;0.0685952231288;2;True;13;2;173.7183526158546
384;384;1449486554;2.13478255272;0.8060412406919999;0.0682400092483;2;True;13;2;173.7183526158546
385;385;1449486554;2.13482141495;0.8057547807690001;0.0681174769998;2;True;13;2;173.7183526158546
386;386;1449486554;2.13472986221;0.8058618307109999;0.06826518476009999;2;True;13;2;173.7183526158546
387;387;1449486554;2.13469052315;0.8058460354800001;0.068380638957;2;True;13;2;173.7183526158546
388;388;1449486554;2.1348118782;0.805751144886;0.0682092607021;2;True;13;2;173.7183526158546
389;389;1449486554;2.13462376595;0.805421829224;0.0684668496251;2;True;13;2;173.7183526158546
390;390;1449486554;2.13479542732;0.8056445121770001;0.0682547166944;2;True;13;2;173.7183526158546
391;391;1449486554;2.1346256732900004;0.80563557148;0.0683943480253;2;True;13;2;173.7183526158546
392;392;1449486554;2.1345806121799997;0.8056964278219999;0.0685187801719;2;True;13;2;173.7183526158546
393;393;1449486554;2.13471961021;0.805635929108;0.0683967769146;2;True;13;2;173.7183526158546
394;394;1449486554;2.1348283290900003;0.8058719038959999;0.0681282430887;2;True;13;2;173.7183526158546
395;395;1449486554;2.1347124576599996;0.80570679903;0.0683279111981;2;True;13;2;173.7183526158546
396;396;1449486554;2.13463234901;0.805814146996;0.0684512034059;2;True;13;2;173.7183526158546
397;397;1449486554;2.13481259346;0.805715560913;0.0681062936783;2;True;13;2;173.7183526158546
398;398;1449486554;2.13460278511;0.8058819174770001;0.068496145308;2;True;13;2;173.7183526158546
399;399;1449486554;2.1346111297599997;0.8060349226000001;0.0683774873614;2;True;13;2;173.7183526158546
400;400;1449486554;2.13471198082;0.805622696877;0.0683797597885;2;True;13;2;173.7183526158546
401;401;1449486554;2.1347796917;0.8060486912729999;0.0682450458407;2;True;13;2;173.7183526158546
402;402;1449486554;2.13471388817;0.8057610392569999;0.068371579051;2;True;13;2;173.7183526158546
403;403;1449486554;2.1346249580400003;0.805487751961;0.0684068500996;2;True;13;2;173.7183526158546
404;404;1449486554;2.1347475051900004;0.805828273296;0.0683680400252;2;True;13;2;173.7183526158546
405;405;1449486554;2.1347463131;0.8057245612139999;0.068413451314;2;True;13;2;173.7183526158546
406;406;1449486554;2.13471508026;0.80577224493;0.0683980062604;2;True;13;2;173.7183526158546
407;407;1449486554;2.13469457626;0.805553972721;0.0684242621064;2;True;13;2;173.7183526158546
408;408;1449486554;2.13481283188;0.805904567242;0.0681568905711;2;True;13;2;173.7183526158546
409;409;1449486554;2.1347181797;0.805703401566;0.0683294311166;2;True;13;2;173.7183526158546
410;410;1449486554;2.13474798203;0.805712997913;0.06830373406410001;2;True;13;2;173.7183526158546
411;411;1449486554;2.1347117424;0.805619239807;0.0683660954237;2;True;13;2;173.7183526158546
412;412;1449486554;2.1347019672400003;0.8057500720020001;0.0683374032378;2;True;13;2;173.7183526158546
413;413;1449486554;2.13472938538;0.8057047128679999;0.0683475807309;2;True;13;2;173.7183526158546
414;414;1449486554;2.1348235607099997;0.8058845400810001;0.0680995509028;2;True;13;2;173.7183526158546
415;415;1449486554;2.13473916054;0.805715918541;0.06830389797690001;2;True;13;2;173.7183526158546
416;416;1449486554;2.1346368789700003;0.805495321751;0.0684548094869;2;True;13;2;173.7183526158546
417;417;1449486554;2.1347784996;0.8058398365970001;0.0682439208031;2;True;13;2;173.7183526158546
418;418;1449486554;2.13469958305;0.80567920208;0.068426348269;2;True;13;2;173.7183526158546
419;419;1449486554;2.13479852676;0.805895388126;0.0681715160608;2;True;13;2;173.7183526158546
420;420;1449486554;2.1346650123599997;0.80545759201;0.0684199929237;2;True;13;2;173.7183526158546
421;421;1449486554;2.13481068611;0.805654585361;0.0681347548962;2;True;13;2;173.7183526158546
422;422;1449486554;2.1345911026;0.805384576321;0.068495862186;2;True;13;2;173.7183526158546
423;423;1449486554;2.13480114937;0.805813848972;0.0682258009911;2;True;13;2;173.7183526158546
424;424;1449486554;2.13476252556;0.805506050587;0.0682615712285;2;True;13;2;173.7183526158546
425;425;1449486554;2.1346321106;0.805537700653;0.06848054379219999;2;True;13;2;173.7183526158546
426;426;1449486554;2.13462400436;0.8056059479709999;0.0685325339437;2;True;13;2;173.7183526158546
427;427;1449486554;2.1348195076;0.805720567703;0.06814335286619999;2;True;13;2;173.7183526158546
428;428;1449486554;2.1347951888999996;0.805776238441;0.06823412328959999;2;True;13;2;173.7183526158546
429;429;1449486554;2.13466191292;0.8058709502220001;0.0684520602226;2;True;13;2;173.7183526158546
430;430;1449486554;2.13481998444;0.8058887720110001;0.0681267529726;2;True;13;2;173.7183526158546
431;431;1449486554;2.1346297264099996;0.805636048317;0.06838303059340001;2;True;13;2;173.7183526158546
432;432;1449486554;2.1346774101299997;0.8055262565610001;0.0683795064688;2;True;13;2;173.7183526158546
433;433;1449486554;2.13467049599;0.805653274059;0.0683438107371;2;True;13;2;173.7183526158546
434;434;1449486554;2.13473057747;0.805710852146;0.0681528747082;2;True;13;2;173.7183526158546
435;435;1449486554;2.13462615013;0.805617749691;0.068487547338;2;True;13;2;173.7183526158546
436;436;1449486554;2.13471102715;0.805669188499;0.0683505833149;2;True;13;2;173.7183526158546
437;437;1449486554;2.13480806351;0.805748999119;0.0681071281433;2;True;13;2;173.7183526158546
438;438;1449486554;2.13478422165;0.805846989155;0.0682553574443;2;True;13;2;173.7183526158546
439;439;1449486554;2.1346039772;0.805810749531;0.0684442594647;2;True;13;2;173.7183526158546
440;440;1449486554;2.1346809864;0.805674135685;0.0684351399541;2;True;13;2;173.7183526158546
441;441;1449486554;2.13455367088;0.8058928251270001;0.0685306489468;2;True;13;2;173.7183526158546
442;442;1449486554;2.13462901115;0.8054631352420001;0.0684479475021;2;True;13;2;173.7183526158546
443;443;1449486554;2.13480854034;0.8058360218999999;0.0682346597314;2;True;13;2;173.7183526158546
444;444;1449486554;2.1346533298500003;0.805496037006;0.0684281513095;2;True;13;2;173.7183526158546
445;445;1449486554;2.13438606262;0.805763542652;0.0684890002012;2;True;13;2;173.7183526158546
446;446;1449486554;2.13481283188;0.805660426617;0.0681555941701;2;True;13;2;173.7183526158546
447;447;1449486554;2.13480234146;0.805679678917;0.0681538358331;2;True;13;2;173.7183526158546
448;448;1449486554;2.1347835063900003;0.805765807629;0.0682140812278;2;True;13;2;173.7183526158546
449;449;1449486554;2.1347441673299996;0.805713474751;0.0682935938239;2;True;13;2;173.7183526158546
450;450;1449486554;2.1347181797;0.8059310317039999;0.0684143006802;2;True;13;2;173.7183526158546
451;451;1449486554;2.13475298882;0.805959701538;0.06832006573680001;2;True;13;2;173.7183526158546
452;452;1449486554;2.13468289375;0.805509746075;0.068386733532;2;True;13;2;173.7183526158546
453;453;1449486554;2.13457274437;0.8056731224060001;0.0685297548771;2;True;13;2;173.7183526158546
454;454;1449486554;2.13479924202;0.8056379556659999;0.068137422204;2;True;13;2;173.7183526158546
455;455;1449486554;2.13468837738;0.8055404424670001;0.06837864965200001;2;True;13;2;173.7183526158546
456;456;1449486554;2.13465595245;0.8055986166;0.0684108510613;2;True;13;2;173.7183526158546
457;457;1449486554;2.13468170166;0.805810272694;0.06842965632680001;2;True;13;2;173.7183526158546
458;458;1449486554;2.1346998214700004;0.805661857128;0.0683491080999;2;True;13;2;173.7183526158546
459;459;1449486554;2.1347794532799997;0.8057003617290001;0.0682032480836;2;True;13;2;173.7183526158546
460;460;1449486554;2.1347258091;0.805720448494;0.06829442083840001;2;True;13;2;173.7183526158546
461;461;1449486554;2.13459944725;0.805865883827;0.0685008242726;2;True;13;2;173.7183526158546
462;462;1449486554;2.13468360901;0.805793106556;0.06843109428880001;2;True;13;2;173.7183526158546
463;463;1449486554;2.13481926918;0.8057779073720001;0.06812347471710001;2;True;13;2;173.7183526158546
464;464;1449486554;2.13473200798;0.805695176125;0.068265773356;2;True;13;2;173.7183526158546
465;465;1449486554;2.13455033302;0.805577337742;0.068441927433;2;True;13;2;173.7183526158546
466;466;1449486554;2.13479542732;0.805680572987;0.0681402310729;2;True;13;2;173.7183526158546
467;467;1449486554;2.13462018967;0.805432856083;0.0684116184711;2;True;13;2;173.7183526158546
468;468;1449486554;2.13458013535;0.805411040783;0.0684526711702;2;True;13;2;173.7183526158546
469;469;1449486554;2.13470888138;0.805762410164;0.0683000311255;2;True;13;2;173.7183526158546
470;470;1449486554;2.13473320007;0.805688977242;0.0683320909739;2;True;13;2;173.7183526158546
471;471;1449486554;2.13471436501;0.8056223988529999;0.0684091076255;2;True;13;2;173.7183526158546
472;472;1449486554;2.1347322464;0.805882394314;0.0683481246233;2;True;13;2;173.7183526158546
473;473;1449486554;2.13469028473;0.80572527647;0.0682899579406;2;True;13;2;173.7183526158546
474;474;1449486554;2.13469576836;0.8055588603020001;0.06829775869850001;2;True;13;2;173.7183526158546
475;475;1449486554;2.13461852074;0.8058662414550001;0.06849253177640001;2;True;13;2;173.7183526158546
476;476;1449486554;2.1347434520700004;0.805689513683;0.068286255002;2;True;13;2;173.7183526158546
477;477;1449486554;2.1347219944;0.805679142475;0.0682853460312;2;True;13;2;173.7183526158546
478;478;1449486554;2.1347994804400003;0.805602788925;0.0682572871447;2;True;13;2;173.7183526158546
479;479;1449486554;2.1347994804400003;0.8056903481479999;0.0681270360947;2;True;13;2;173.7183526158546
480;480;1449486554;2.1347851753200002;0.805715739727;0.0682310089469;2;True;13;2;173.7183526158546
481;481;1449486554;2.13479447365;0.8058120012279999;0.0682306736708;2;True;13;2;173.7183526158546
482;482;1449486554;2.1347856521599997;0.8057350516320001;0.068229265511;2;True;13;2;173.7183526158546
483;483;1449486554;2.1347911357900005;0.805843949318;0.068247385323;2;True;13;2;173.7183526158546
484;484;1449486554;2.13472652435;0.805751264095;0.06825938075780001;2;True;13;2;173.7183526158546
485;485;1449486554;2.1347951888999996;0.805768251419;0.0682145506144;2;True;13;2;173.7183526158546
486;486;1449486554;2.1346693038900004;0.8055737614630001;0.0683956220746;2;True;13;2;173.7183526158546
487;487;1449486554;2.13478970528;0.8058112859729999;0.0682103782892;2;True;13;2;173.7183526158546
488;488;1449486554;2.13456130028;0.80557179451;0.0685471817851;2;True;13;2;173.7183526158546
489;489;1449486555;2.13464474678;0.805743515491;0.06831508874890001;3;True;13;2;173.7183526158546
490;490;1449486555;2.13480448723;0.8059616684909999;0.0681146904826;3;True;13;2;173.7183526158546
491;491;1449486555;2.13473844528;0.8056939244269999;0.0682801157236;3;True;13;2;173.7183526158546
492;492;1449486555;2.13471055031;0.8056162595749999;0.06832729279989999;3;True;13;2;173.7183526158546
493;493;1449486555;2.1347155571000003;0.8055917620659999;0.06838481128219999;3;True;13;2;173.7183526158546
494;494;1449486555;2.13473677635;0.805704116821;0.0682522505522;3;True;13;2;173.7183526158546
495;495;1449486555;2.13470101357;0.805596768856;0.068354152143;3;True;13;2;173.7183526158546
496;496;1449486555;2.13443136215;0.8055928945540001;0.0686439946294;3;True;13;2;173.7183526158546
497;497;1449486555;2.13465595245;0.805666387081;0.0683457031846;3;True;13;2;173.7183526158546
498;498;1449486555;2.13461589813;0.805703580379;0.06845721602440001;3;True;13;2;173.7183526158546
499;499;1449486555;2.13457393646;0.8055915832520001;0.0684220939875;3;True;13;2;173.7183526158546
500;500;1449486555;2.1347513198900003;0.8057262897490001;0.0682363286614;3;True;13;2;173.7183526158546
501;501;1449486555;2.13475108147;0.805694758892;0.06822512298820001;3;True;13;2;173.7183526158546
502;502;1449486555;2.13480877876;0.805737018585;0.06812661141160001;3;True;13;2;173.7183526158546
503;503;1449486555;2.13471746445;0.8059376478200001;0.0684092268348;3;True;13;2;173.7183526158546
504;504;1449486555;2.1346487999;0.8056795001029999;0.068335942924;3;True;13;2;173.7183526158546
505;505;1449486555;2.13480639458;0.8056901097300001;0.0681318119168;3;True;13;2;173.7183526158546
506;506;1449486555;2.1345908641799998;0.8055699467659999;0.06842921674250001;3;True;13;2;173.7183526158546
507;507;1449486555;2.1345205307;0.805379211903;0.0684902891517;3;True;13;2;173.7183526158546
508;508;1449486555;2.13481092453;0.8057894110680001;0.068232409656;3;True;13;2;173.7183526158546
509;509;1449486555;2.13470339775;0.8056563138959999;0.0683514252305;3;True;13;2;173.7183526158546
510;510;1449486555;2.13472127914;0.8056603074070001;0.0683238729835;3;True;13;2;173.7183526158546
511;511;1449486555;2.13476276398;0.8057059049609999;0.0681896060705;3;True;13;2;173.7183526158546
512;512;1449486555;2.134806633;0.80568253994;0.068395793438;3;True;13;2;173.7183526158546
513;513;1449486555;2.13480448723;0.8057807683939999;0.0682083666325;3;True;13;2;173.7183526158546
514;514;1449486555;2.13479614258;0.806009471416;0.0682100206614;3;True;13;2;173.7183526158546
515;515;1449486555;2.13465571404;0.8055126667020001;0.068406522274;3;True;13;2;173.7183526158546
516;516;1449486555;2.13471007347;0.805697262287;0.06836678832769999;3;True;13;2;173.7183526158546
517;517;1449486555;2.13478541374;0.805788636208;0.0681943595409;3;True;13;2;173.7183526158546
518;518;1449486555;2.1347448825799997;0.8058552145960001;0.0683609172702;3;True;13;2;173.7183526158546
519;519;1449486555;2.13469529152;0.8055351376530001;0.06840085238219999;3;True;13;2;173.7183526158546
520;520;1449486555;2.13470482826;0.8056482076639999;0.0683607533574;3;True;13;2;173.7183526158546
521;521;1449486555;2.1346917152400002;0.8056908845899999;0.0684040263295;3;True;13;2;173.7183526158546
522;522;1449486555;2.1346204280900003;0.805694758892;0.0683895871043;3;True;13;2;173.7183526158546
523;523;1449486555;2.13482403755;0.805907130241;0.0681141838431;3;True;13;2;173.7183526158546
524;524;1449486555;2.13472032547;0.805978298187;0.06843339651819999;3;True;13;2;173.7183526158546
525;525;1449486555;2.13480901718;0.8056442141529999;0.0681494027376;3;True;13;2;173.7183526158546
526;526;1449486555;2.1347987651800002;0.8058174848559999;0.0682424679399;3;True;13;2;173.7183526158546
527;527;1449486555;2.13467764854;0.8056830167769999;0.0683589354157;3;True;13;2;173.7183526158546
528;528;1449486555;2.1346745491;0.805645763874;0.06841722130780001;3;True;13;2;173.7183526158546
529;529;1449486555;2.1346797943099998;0.8055452704430001;0.0683871358633;3;True;13;2;173.7183526158546
530;530;1449486555;2.13474583626;0.805933833122;0.0684072524309;3;True;13;2;173.7183526158546
531;531;1449486555;2.13477182388;0.805767059326;0.0682459846139;3;True;13;2;173.7183526158546
532;532;1449486555;2.13467478752;0.805513978004;0.0684070810676;3;True;13;2;173.7183526158546
533;533;1449486555;2.13473916054;0.8057134151459999;0.0683099851012;3;True;13;2;173.7183526158546
534;534;1449486555;2.13460803032;0.805352389812;0.0684779882431;3;True;13;2;173.7183526158546
535;535;1449486555;2.13470482826;0.805984973907;0.0684346333146;3;True;13;2;173.7183526158546
536;536;1449486555;2.13478016853;0.8056746125220001;0.0683892443776;3;True;13;2;173.7183526158546
537;537;1449486555;2.1346707344099998;0.805767118931;0.06832388788459999;3;True;13;2;173.7183526158546
538;538;1449486555;2.13480186462;0.805779755116;0.0682357251644;3;True;13;2;173.7183526158546
539;539;1449486555;2.13466215134;0.805626034737;0.06845521926880001;3;True;13;2;173.7183526158546
540;540;1449486555;2.13472223282;0.8056983351710001;0.0683035925031;3;True;13;2;173.7183526158546
541;541;1449486555;2.1347835063900003;0.805899381638;0.06818575412030001;3;True;13;2;173.7183526158546
542;542;1449486555;2.13467693329;0.805849552155;0.068384245038;3;True;13;2;173.7183526158546
543;543;1449486555;2.13463449478;0.8056454658509999;0.06838840991259999;3;True;13;2;173.7183526158546
544;544;1449486555;2.13467025757;0.805470168591;0.0684067457914;3;True;13;2;173.7183526158546
545;545;1449486555;2.1348228454599996;0.805921018124;0.068135984242;3;True;13;2;173.7183526158546
546;546;1449486555;2.13471150398;0.8056017756460001;0.0684047341347;3;True;13;2;173.7183526158546
547;547;1449486555;2.13478755951;0.8059425354;0.0681924447417;3;True;13;2;173.7183526158546
548;548;1449486555;2.13471531868;0.8056196570399999;0.0683990642428;3;True;13;2;173.7183526158546
549;549;1449486555;2.1347835063900003;0.805698037148;0.06818775087590001;3;True;13;2;173.7183526158546
550;550;1449486555;2.13480114937;0.80578237772;0.0681569203734;3;True;13;2;173.7183526158546
551;551;1449486555;2.13481712341;0.8057888150220001;0.0682107806206;3;True;13;2;173.7183526158546
552;552;1449486555;2.1345036029799997;0.805330097675;0.0685466825962;3;True;13;2;173.7183526158546
553;553;1449486555;2.13478803635;0.805602967739;0.06818427145480001;3;True;13;2;173.7183526158546
554;554;1449486555;2.1346111297599997;0.805666089058;0.06840727478269999;3;True;13;2;173.7183526158546
555;555;1449486555;2.1347012519799997;0.805727899075;0.0684194639325;3;True;13;2;173.7183526158546
556;556;1449486555;2.13471388817;0.805634737015;0.0684094727039;3;True;13;2;173.7183526158546
557;557;1449486555;2.13471984863;0.805629909039;0.06840483099219999;3;True;13;2;173.7183526158546
558;558;1449486555;2.1345660686500003;0.805561363697;0.0684466063976;3;True;13;2;173.7183526158546
559;559;1449486555;2.13474798203;0.805729091167;0.0683109089732;3;True;13;2;173.7183526158546
560;560;1449486555;2.13478899002;0.8057392239569999;0.0682253465056;3;True;13;2;173.7183526158546
561;561;1449486555;2.13477802277;0.8056563138959999;0.0682029575109;3;True;13;2;173.7183526158546
562;562;1449486555;2.13479042053;0.8054155707359999;0.0682926252484;3;True;13;2;173.7183526158546
563;563;1449486555;2.1346924305;0.805693089962;0.0684373155236;3;True;13;2;173.7183526158546
564;564;1449486555;2.13464641571;0.805542290211;0.06846199929709999;3;True;13;2;173.7183526158546
565;565;1449486555;2.13472080231;0.8056263327600001;0.068410769105;3;True;13;2;173.7183526158546
566;566;1449486555;2.1343677043900002;0.805634856224;0.0685806721449;3;True;13;2;173.7183526158546
567;567;1449486555;2.13463664055;0.8057162165639999;0.0683804750443;3;True;13;2;173.7183526158546
568;568;1449486555;2.13475513458;0.805682182312;0.0682755336165;3;True;13;2;173.7183526158546
569;569;1449486555;2.1345398426099997;0.805854618549;0.0684094578028;3;True;13;2;173.7183526158546
570;570;1449486555;2.13454842567;0.805665314198;0.0685846284032;3;True;13;2;173.7183526158546
571;571;1449486555;2.1346778869599996;0.805837631226;0.06837312132119999;3;True;13;2;173.7183526158546
572;572;1449486555;2.134724617;0.805960595608;0.0684088245034;3;True;13;2;173.7183526158546
573;573;1449486555;2.13479399681;0.8058311939239999;0.06821040064100001;3;True;13;2;173.7183526158546
574;574;1449486555;2.1346633434299997;0.80552738905;0.06837833672759999;3;True;13;2;173.7183526158546
575;575;1449486555;2.13459300995;0.805693745613;0.06837140023709999;3;True;13;2;173.7183526158546
576;576;1449486555;2.13479733467;0.805827260017;0.0682170242071;3;True;13;2;173.7183526158546
577;577;1449486555;2.1347994804400003;0.8058046698569999;0.0682095214725;3;True;13;2;173.7183526158546
578;578;1449486555;2.1346340179400003;0.805714964867;0.0683570429683;3;True;13;2;173.7183526158546
579;579;1449486555;2.13471150398;0.805801272392;0.0683729276061;3;True;13;2;173.7183526158546
580;580;1449486555;2.13465046883;0.8054800033570001;0.0684114992619;3;True;13;2;173.7183526158546
581;581;1449486555;2.13470721245;0.805644154549;0.0683435276151;3;True;13;2;173.7183526158546
582;582;1449486555;2.13478469849;0.805845022202;0.0682413801551;3;True;13;2;173.7183526158546
583;583;1449486555;2.1348028183000003;0.805689513683;0.0681357160211;3;True;13;2;173.7183526158546
584;584;1449486555;2.1345946788799997;0.8055743575100001;0.0684629455209;3;True;13;2;173.7183526158546
585;585;1449486555;2.13438844681;0.8056719303129999;0.0685003101826;3;True;13;2;173.7183526158546
586;586;1449486555;2.1346809864;0.8057047128679999;0.0683518350124;3;True;13;2;173.7183526158546
587;587;1449486555;2.13477563858;0.8058586120610001;0.06823780387640001;3;True;13;2;173.7183526158546
588;588;1449486555;2.1346077919;0.8056086897849999;0.0683802068233;3;True;13;2;173.7183526158546
589;589;1449486555;2.13464856148;0.805857479572;0.0684681534767;3;True;13;2;173.7183526158546
590;590;1449486555;2.1346204280900003;0.8055604100229999;0.0683900415897;3;True;13;2;173.7183526158546
591;591;1449486555;2.1346554756200002;0.8058100938799999;0.0684279501438;3;True;13;2;173.7183526158546
592;592;1449486555;2.13464283943;0.805659353733;0.0683449581265;3;True;13;2;173.7183526158546
593;593;1449486555;2.13477134705;0.805852293968;0.0682369843125;3;True;13;2;173.7183526158546
594;594;1449486555;2.13471770287;0.8057593703270001;0.0682955980301;3;True;13;2;173.7183526158546
595;595;1449486555;2.13475990295;0.8057839870450001;0.0683634877205;3;True;13;2;173.7183526158546
596;596;1449486555;2.13476490974;0.805676460266;0.06819486618040001;3;True;13;2;173.7183526158546
597;597;1449486555;2.13469719887;0.8056884408;0.0683360695839;3;True;13;2;173.7183526158546
598;598;1449486555;2.13456249237;0.8056154251100001;0.0683744549751;3;True;13;2;173.7183526158546
599;599;1449486555;2.13481664658;0.8057304024699999;0.0680895000696;3;True;13;2;173.7183526158546
600;600;1449486555;2.1346023082700003;0.805451452732;0.06846666336059999;3;True;13;2;173.7183526158546
601;601;1449486555;2.13458824158;0.8055880665780001;0.0683906301856;3;True;13;2;173.7183526158546
602;602;1449486555;2.13454151154;0.805583834648;0.06856007874009999;3;True;13;2;173.7183526158546
603;603;1449486555;2.13477158546;0.805933713913;0.0682610571384;3;True;13;2;173.7183526158546
604;604;1449486555;2.13475775719;0.805414140224;0.068306773901;3;True;13;2;173.7183526158546
605;605;1449486555;2.13472270966;0.805715739727;0.0683039575815;3;True;13;2;173.7183526158546
606;606;1449486555;2.13471460342;0.8057196140289999;0.0683184936643;3;True;13;2;173.7183526158546
607;607;1449486555;2.13477611542;0.805738687515;0.0682121813297;3;True;13;2;173.7183526158546
608;608;1449486555;2.13466691971;0.805543899536;0.0683825686574;3;True;13;2;173.7183526158546
609;609;1449486555;2.13461947441;0.8054537773129999;0.06840907782319999;3;True;13;2;173.7183526158546
610;610;1449486555;2.13484239578;0.8058353066439999;0.0681423321366;3;True;13;2;173.7183526158546
611;611;1449486555;2.13468599319;0.805627346039;0.0684341043234;3;True;13;2;173.7183526158546
