;Unnamed: 0;header_stamp_secs;pose_position_x;pose_position_y;pose_position_z;seconds;drop_values;flight_number;label;dtw
0;0;1449487781;2.1444885730700003;0.796722531319;0.0684089809656;0;True;18;2;153.95492905379314
1;1;1449487781;2.14451146126;0.796722114086;0.0684041455388;0;True;18;2;153.95492905379314
2;2;1449487781;2.1444940566999997;0.796737790108;0.0684043690562;0;True;18;2;153.95492905379314
3;3;1449487781;2.14447498322;0.7969101667399999;0.0686064362526;0;True;18;2;153.95492905379314
4;4;1449487781;2.14449214935;0.796826601028;0.0684280097485;0;True;18;2;153.95492905379314
5;5;1449487781;2.14451909065;0.79664683342;0.0683501213789;0;True;18;2;153.95492905379314
6;6;1449487781;2.1444170475;0.79678195715;0.0684835389256;0;True;18;2;153.95492905379314
7;7;1449487781;2.1444387435900003;0.7969047427179999;0.0684964805841;0;True;18;2;153.95492905379314
8;8;1449487781;2.14440727234;0.7967560887340001;0.0685249194503;0;True;18;2;153.95492905379314
9;9;1449487781;2.14450001717;0.7967236042020001;0.0684240981936;0;True;18;2;153.95492905379314
10;10;1449487781;2.14445662498;0.7967154979709999;0.0684494301677;0;True;18;2;153.95492905379314
11;11;1449487781;2.1445083618200003;0.7967820167540001;0.0684061124921;0;True;18;2;153.95492905379314
12;12;1449487781;2.1444787979099997;0.796802282333;0.068535014987;0;True;18;2;153.95492905379314
13;13;1449487781;2.1444549560499997;0.796573340893;0.0684802830219;0;True;18;2;153.95492905379314
14;14;1449487781;2.14450383186;0.796772062778;0.0684020444751;0;True;18;2;153.95492905379314
15;15;1449487781;2.14442276955;0.797001063824;0.0685580819845;0;True;18;2;153.95492905379314
16;16;1449487781;2.1444885730700003;0.796751141548;0.0684244334698;0;True;18;2;153.95492905379314
17;17;1449487781;2.14452505112;0.796866774559;0.0684289634228;0;True;18;2;153.95492905379314
18;18;1449487781;2.1444618701900002;0.796765744686;0.0685651525855;0;True;18;2;153.95492905379314
19;19;1449487781;2.1444091796900002;0.796811640263;0.0685537979007;0;True;18;2;153.95492905379314
20;20;1449487781;2.14451956749;0.796795427799;0.0684064477682;0;True;18;2;153.95492905379314
21;21;1449487781;2.14440560341;0.7968160510060001;0.0685816034675;0;True;18;2;153.95492905379314
22;22;1449487781;2.1443099975599997;0.796781361103;0.0686158910394;0;True;18;2;153.95492905379314
23;23;1449487782;2.1443977356;0.7967981100079999;0.068600513041;1;True;18;2;153.95492905379314
24;24;1449487782;2.1444337368;0.7968668341640001;0.0685981288552;1;True;18;2;153.95492905379314
25;25;1449487782;2.14448022842;0.796835780144;0.0685862824321;1;True;18;2;153.95492905379314
26;26;1449487782;2.14439678192;0.7966972589489999;0.06855947524310001;1;True;18;2;153.95492905379314
27;27;1449487782;2.14458751678;0.7969430089;0.0683626681566;1;True;18;2;153.95492905379314
28;28;1449487782;2.14452004433;0.7967588901520001;0.0684702843428;1;True;18;2;153.95492905379314
29;29;1449487782;2.14442634583;0.796940207481;0.06857812404630001;1;True;18;2;153.95492905379314
30;30;1449487782;2.1442966461200004;0.796804249287;0.0686674043536;1;True;18;2;153.95492905379314
31;31;1449487782;2.14442014694;0.7969202995300001;0.0685819089413;1;True;18;2;153.95492905379314
32;32;1449487782;2.14439606667;0.796676874161;0.0686144977808;1;True;18;2;153.95492905379314
33;33;1449487782;2.14453434944;0.79699331522;0.06847848743200001;1;True;18;2;153.95492905379314
34;34;1449487782;2.14453434944;0.7967578768729999;0.0684778541327;1;True;18;2;153.95492905379314
35;35;1449487782;2.14450120926;0.7967739105220001;0.0685968250036;1;True;18;2;153.95492905379314
36;36;1449487782;2.14444518089;0.796791017056;0.0686639621854;1;True;18;2;153.95492905379314
37;37;1449487782;2.14453840256;0.7969912290569999;0.0684978961945;1;True;18;2;153.95492905379314
38;38;1449487782;2.14447307587;0.796707332134;0.0685512199998;1;True;18;2;153.95492905379314
39;39;1449487782;2.14444565773;0.7968236207960001;0.0686305388808;1;True;18;2;153.95492905379314
40;40;1449487782;2.14451408386;0.7968258261679999;0.0686050355434;1;True;18;2;153.95492905379314
41;41;1449487782;2.14457297325;0.7968707084659999;0.0684843659401;1;True;18;2;153.95492905379314
42;42;1449487782;2.14448142052;0.7969012260439999;0.0687064602971;1;True;18;2;153.95492905379314
43;43;1449487782;2.1445527076700004;0.7967896461489999;0.0684972852468;1;True;18;2;153.95492905379314
44;44;1449487782;2.1445899009700002;0.796934366226;0.0684186667204;1;True;18;2;153.95492905379314
45;45;1449487782;2.144520998;0.7969753146170001;0.0686393678188;1;True;18;2;153.95492905379314
46;46;1449487782;2.144572258;0.7967740893359999;0.06848718225959999;1;True;18;2;153.95492905379314
47;47;1449487782;2.14454722404;0.7968595623970001;0.0685666948557;1;True;18;2;153.95492905379314
48;48;1449487782;2.1444606781;0.796713888645;0.0686125904322;1;True;18;2;153.95492905379314
49;49;1449487782;2.1445217132599996;0.796822190285;0.0686041265726;1;True;18;2;153.95492905379314
50;50;1449487782;2.14443802834;0.79674243927;0.0686269029975;1;True;18;2;153.95492905379314
51;51;1449487782;2.1444780826599996;0.796839177608;0.0686470940709;1;True;18;2;153.95492905379314
52;52;1449487782;2.144562006;0.7967432737350001;0.0684952959418;1;True;18;2;153.95492905379314
53;53;1449487782;2.14460253716;0.796894013882;0.0684598609805;1;True;18;2;153.95492905379314
54;54;1449487782;2.1444389820099996;0.7967434525489999;0.0686355680227;1;True;18;2;153.95492905379314
55;55;1449487782;2.1444413662;0.7966616153720001;0.068616785109;1;True;18;2;153.95492905379314
56;56;1449487782;2.14452958107;0.7966773509980001;0.068562977016;1;True;18;2;153.95492905379314
57;57;1449487782;2.14457440376;0.796708703041;0.06849619746209999;1;True;18;2;153.95492905379314
58;58;1449487782;2.14457178116;0.79699754715;0.06849282234910001;1;True;18;2;153.95492905379314
59;59;1449487782;2.14447021484;0.796610951424;0.06862466037269999;1;True;18;2;153.95492905379314
60;60;1449487782;2.1445548534400003;0.796730697155;0.06848567724230001;1;True;18;2;153.95492905379314
61;61;1449487782;2.1444489955900004;0.7967700958249999;0.06863776594399999;1;True;18;2;153.95492905379314
62;62;1449487782;2.14456653595;0.7967289686200001;0.068455837667;1;True;18;2;153.95492905379314
63;63;1449487782;2.1445543766;0.79692274332;0.0685863420367;1;True;18;2;153.95492905379314
64;64;1449487782;2.14444375038;0.796780943871;0.0686093866825;1;True;18;2;153.95492905379314
65;65;1449487782;2.14459252357;0.7968970537190001;0.0684424266219;1;True;18;2;153.95492905379314
66;66;1449487782;2.14453434944;0.7967945933339999;0.0685365200043;1;True;18;2;153.95492905379314
67;67;1449487782;2.14446878433;0.796647965908;0.0685584396124;1;True;18;2;153.95492905379314
68;68;1449487782;2.14446496964;0.7966923713680001;0.0685572400689;1;True;18;2;153.95492905379314
69;69;1449487782;2.14454603195;0.796713590622;0.0684936121106;1;True;18;2;153.95492905379314
70;70;1449487782;2.14453649521;0.796963393688;0.06859777867790001;1;True;18;2;153.95492905379314
71;71;1449487782;2.14436078072;0.796535134315;0.0687119215727;1;True;18;2;153.95492905379314
72;72;1449487782;2.1444041729;0.796628236771;0.06859975308180001;1;True;18;2;153.95492905379314
73;73;1449487782;2.1445684433000003;0.796946763992;0.0684095472097;1;True;18;2;153.95492905379314
74;74;1449487782;2.14453601837;0.796629428864;0.068425424397;1;True;18;2;153.95492905379314
75;75;1449487782;2.14436936378;0.7966481447220001;0.0685856342316;1;True;18;2;153.95492905379314
76;76;1449487782;2.14455533028;0.7967249751090001;0.0684604868293;1;True;18;2;153.95492905379314
77;77;1449487782;2.14449501038;0.7968543171879999;0.06853849440809999;1;True;18;2;153.95492905379314
78;78;1449487782;2.14440941811;0.796796858311;0.06859233975409999;1;True;18;2;153.95492905379314
79;79;1449487782;2.14443731308;0.796883761883;0.06852070987219999;1;True;18;2;153.95492905379314
80;80;1449487782;2.14454889297;0.7970227599140001;0.06846488267180001;1;True;18;2;153.95492905379314
81;81;1449487782;2.14452648163;0.796745121479;0.0684673264623;1;True;18;2;153.95492905379314
82;82;1449487782;2.1445133686099997;0.7967345714569999;0.0684623494744;1;True;18;2;153.95492905379314
83;83;1449487782;2.14441370964;0.796782612801;0.0686130821705;1;True;18;2;153.95492905379314
84;84;1449487782;2.14451432228;0.796822369099;0.06858987361190001;1;True;18;2;153.95492905379314
85;85;1449487782;2.14441394806;0.7967669963840001;0.0685767829418;1;True;18;2;153.95492905379314
86;86;1449487782;2.14451622963;0.796939074993;0.0685335844755;1;True;18;2;153.95492905379314
87;87;1449487782;2.14439225197;0.7970060110089999;0.06853619962930001;1;True;18;2;153.95492905379314
88;88;1449487782;2.14437460899;0.7967056036;0.0686126798391;1;True;18;2;153.95492905379314
89;89;1449487782;2.14452075958;0.796797394753;0.0684553012252;1;True;18;2;153.95492905379314
90;90;1449487782;2.1445016861000004;0.7967466712000001;0.0684560015798;1;True;18;2;153.95492905379314
91;91;1449487782;2.14442777634;0.796786367893;0.0685685351491;1;True;18;2;153.95492905379314
92;92;1449487782;2.14444279671;0.7967897057529999;0.0685737207532;1;True;18;2;153.95492905379314
93;93;1449487782;2.14451003075;0.796838879585;0.06849964708089999;1;True;18;2;153.95492905379314
94;94;1449487782;2.14438438416;0.796736001968;0.0685562565923;1;True;18;2;153.95492905379314
95;95;1449487782;2.14446091652;0.796870946884;0.0686353892088;1;True;18;2;153.95492905379314
96;96;1449487782;2.14453363419;0.796884417534;0.0684547200799;1;True;18;2;153.95492905379314
97;97;1449487782;2.1444661617299996;0.796959877014;0.0686046555638;1;True;18;2;153.95492905379314
98;98;1449487782;2.14438700676;0.796772062778;0.0686080530286;1;True;18;2;153.95492905379314
99;99;1449487782;2.1444344520599996;0.7967433929440001;0.0685234218836;1;True;18;2;153.95492905379314
100;100;1449487782;2.1445081234;0.7967780828479999;0.0684152022004;1;True;18;2;153.95492905379314
101;101;1449487782;2.1444239616400003;0.796836495399;0.0686001330614;1;True;18;2;153.95492905379314
102;102;1449487782;2.1444580555;0.796697854996;0.0685841143131;1;True;18;2;153.95492905379314
103;103;1449487782;2.1444866657299997;0.7967860102650001;0.0684744417667;1;True;18;2;153.95492905379314
104;104;1449487782;2.14438152313;0.7967734932899999;0.0685811191797;1;True;18;2;153.95492905379314
105;105;1449487782;2.1444375515000003;0.796952664852;0.0685666128993;1;True;18;2;153.95492905379314
106;106;1449487782;2.14447903633;0.796702384949;0.06843131035569999;1;True;18;2;153.95492905379314
107;107;1449487782;2.1444985866499997;0.796830952168;0.0685036703944;1;True;18;2;153.95492905379314
108;108;1449487782;2.14448189735;0.796806335449;0.0685608237982;1;True;18;2;153.95492905379314
109;109;1449487782;2.1445119381;0.7968237400049999;0.0684610009193;1;True;18;2;153.95492905379314
110;110;1449487782;2.14454054832;0.796950519085;0.0683829635382;1;True;18;2;153.95492905379314
111;111;1449487782;2.1444740295400004;0.796832084656;0.0685322135687;1;True;18;2;153.95492905379314
112;112;1449487782;2.1445105075799997;0.796760261059;0.06843338906759999;1;True;18;2;153.95492905379314
113;113;1449487782;2.14451098442;0.796975672245;0.068497851491;1;True;18;2;153.95492905379314
114;114;1449487782;2.14446997643;0.79681044817;0.0685459598899;1;True;18;2;153.95492905379314
115;115;1449487782;2.14453554153;0.79683893919;0.06838306784630001;1;True;18;2;153.95492905379314
116;116;1449487782;2.14440321922;0.796665489674;0.0684329345822;1;True;18;2;153.95492905379314
117;117;1449487782;2.14448738098;0.7967391610150001;0.0684203058481;1;True;18;2;153.95492905379314
118;118;1449487782;2.14448165894;0.7968378663060001;0.0684503912926;1;True;18;2;153.95492905379314
119;119;1449487782;2.14447832108;0.796949923038;0.0685655027628;1;True;18;2;153.95492905379314
120;120;1449487782;2.14440774918;0.7967726588249999;0.0685222521424;1;True;18;2;153.95492905379314
121;121;1449487782;2.1444535255400003;0.796908318996;0.0685186162591;1;True;18;2;153.95492905379314
122;122;1449487782;2.14447999001;0.796733021736;0.0684433579445;1;True;18;2;153.95492905379314
123;123;1449487782;2.1445009708400002;0.796886742115;0.0684437602758;1;True;18;2;153.95492905379314
124;124;1449487782;2.14437413216;0.796867012978;0.0685225650668;1;True;18;2;153.95492905379314
125;125;1449487782;2.14433526993;0.79664337635;0.0684948191047;1;True;18;2;153.95492905379314
126;126;1449487782;2.14445662498;0.7966281175609999;0.0685495510697;1;True;18;2;153.95492905379314
127;127;1449487782;2.1444668769799997;0.79675412178;0.06847033649680001;1;True;18;2;153.95492905379314
128;128;1449487782;2.14448809624;0.796827554703;0.0684501975775;1;True;18;2;153.95492905379314
129;129;1449487782;2.1443169117;0.796754956245;0.0686370357871;1;True;18;2;153.95492905379314
130;130;1449487782;2.14435911179;0.796672403812;0.0685057640076;1;True;18;2;153.95492905379314
131;131;1449487782;2.14447116852;0.79669880867;0.0684206187725;1;True;18;2;153.95492905379314
132;132;1449487782;2.14434957504;0.796737551689;0.06855344772340001;1;True;18;2;153.95492905379314
133;133;1449487782;2.14443349838;0.796938896179;0.0685408934951;1;True;18;2;153.95492905379314
134;134;1449487782;2.1445286274;0.796723008156;0.0683474689722;1;True;18;2;153.95492905379314
135;135;1449487782;2.14437556267;0.796728074551;0.0687287077308;1;True;18;2;153.95492905379314
136;136;1449487782;2.14447307587;0.796790421009;0.0685340166092;1;True;18;2;153.95492905379314
137;137;1449487782;2.14438390732;0.7968093156810001;0.0685423985124;1;True;18;2;153.95492905379314
138;138;1449487782;2.1444509029400005;0.7967963814740001;0.0685000345111;1;True;18;2;153.95492905379314
139;139;1449487782;2.1445031166099997;0.796720921993;0.0684141516685;1;True;18;2;153.95492905379314
140;140;1449487782;2.14453125;0.796854794025;0.0684189274907;1;True;18;2;153.95492905379314
141;141;1449487782;2.14444851875;0.796732246876;0.06844407320019999;1;True;18;2;153.95492905379314
142;142;1449487782;2.14444518089;0.796753287315;0.06848333776;1;True;18;2;153.95492905379314
143;143;1449487782;2.14447903633;0.7967721819879999;0.06855043768880001;1;True;18;2;153.95492905379314
144;144;1449487782;2.1444914341;0.7968752384190001;0.06863448023799999;1;True;18;2;153.95492905379314
145;145;1449487782;2.14438414574;0.7967731952670001;0.0687719210982;1;True;18;2;153.95492905379314
146;146;1449487782;2.14450931549;0.7967501878740001;0.0684120133519;1;True;18;2;153.95492905379314
147;147;1449487782;2.1444668769799997;0.7967513799670001;0.068578235805;1;True;18;2;153.95492905379314
148;148;1449487782;2.14441156387;0.7967548966410001;0.06856650114059999;1;True;18;2;153.95492905379314
149;149;1449487782;2.14454865456;0.7969937324519999;0.0684727430344;1;True;18;2;153.95492905379314
150;150;1449487782;2.1444110870400004;0.796631932259;0.0685537680984;1;True;18;2;153.95492905379314
151;151;1449487782;2.14452505112;0.796814143658;0.0684637129307;1;True;18;2;153.95492905379314
152;152;1449487782;2.1445333957700004;0.796779990196;0.0684046894312;1;True;18;2;153.95492905379314
153;153;1449487782;2.1445291042299996;0.79697984457;0.0685545876622;1;True;18;2;153.95492905379314
154;154;1449487782;2.14453554153;0.7969427704809999;0.06855835765599999;1;True;18;2;153.95492905379314
155;155;1449487782;2.14451646805;0.7967867851260001;0.0685693323612;1;True;18;2;153.95492905379314
156;156;1449487782;2.14448809624;0.796536922455;0.06852863729;1;True;18;2;153.95492905379314
157;157;1449487782;2.14451384544;0.7967516779899999;0.0685861855745;1;True;18;2;153.95492905379314
158;158;1449487782;2.14458060265;0.796945810318;0.0684094801545;1;True;18;2;153.95492905379314
159;159;1449487782;2.1445899009700002;0.796952366829;0.0684010609984;1;True;18;2;153.95492905379314
160;160;1449487782;2.14447021484;0.7966819405560001;0.06853054463859999;1;True;18;2;153.95492905379314
161;161;1449487782;2.1445119381;0.7967733740809999;0.06860128045080001;1;True;18;2;153.95492905379314
162;162;1449487782;2.1445059776299997;0.7967699170110001;0.06853549182419999;1;True;18;2;153.95492905379314
163;163;1449487782;2.14456129074;0.797003567219;0.0684731528163;1;True;18;2;153.95492905379314
164;164;1449487782;2.1445453167;0.7969726920129999;0.06860101222989999;1;True;18;2;153.95492905379314
165;165;1449487782;2.1445555687;0.7969352602959999;0.06849794089790001;1;True;18;2;153.95492905379314
166;166;1449487782;2.14456915855;0.7967475652689999;0.068414144218;1;True;18;2;153.95492905379314
167;167;1449487782;2.14446163177;0.7967712879180001;0.0685967803001;1;True;18;2;153.95492905379314
168;168;1449487782;2.14457178116;0.79667788744;0.0684371739626;1;True;18;2;153.95492905379314
169;169;1449487782;2.14442253113;0.796776533127;0.0686614066362;1;True;18;2;153.95492905379314
170;170;1449487782;2.14453315735;0.796896696091;0.0685140490532;1;True;18;2;153.95492905379314
171;171;1449487782;2.1445286274;0.796970546246;0.06858182698490001;1;True;18;2;153.95492905379314
172;172;1449487782;2.14449954033;0.796579003334;0.0684771165252;1;True;18;2;153.95492905379314
173;173;1449487782;2.14444231987;0.796799659729;0.0686154663563;1;True;18;2;153.95492905379314
174;174;1449487782;2.1443972587599998;0.796767055988;0.0686398223042;1;True;18;2;153.95492905379314
175;175;1449487782;2.14448642731;0.7967733740809999;0.0685382410884;1;True;18;2;153.95492905379314
176;176;1449487782;2.14456224442;0.7969044446950001;0.06844925135369999;1;True;18;2;153.95492905379314
177;177;1449487782;2.14451503754;0.796821415424;0.06853006035090001;1;True;18;2;153.95492905379314
178;178;1449487782;2.1445307731599996;0.7967433333399999;0.0684871450067;1;True;18;2;153.95492905379314
179;179;1449487782;2.14451551437;0.796940147877;0.068585075438;1;True;18;2;153.95492905379314
180;180;1449487782;2.14453792572;0.7966420650480001;0.0684559196234;1;True;18;2;153.95492905379314
181;181;1449487782;2.144520998;0.796804308891;0.0685194805264;1;True;18;2;153.95492905379314
182;182;1449487782;2.1445016861000004;0.7967928051950001;0.0686013773084;1;True;18;2;153.95492905379314
183;183;1449487782;2.14444923401;0.796771943569;0.0686020329595;1;True;18;2;153.95492905379314
184;184;1449487782;2.14453458786;0.796812236309;0.0685127452016;1;True;18;2;153.95492905379314
185;185;1449487782;2.14443802834;0.7966578006739999;0.0687722042203;1;True;18;2;153.95492905379314
186;186;1449487782;2.14445018768;0.7968354225159999;0.06860574334859999;1;True;18;2;153.95492905379314
187;187;1449487782;2.14449286461;0.796716988087;0.06854378432040001;1;True;18;2;153.95492905379314
188;188;1449487782;2.14440608025;0.796750128269;0.0687514320016;1;True;18;2;153.95492905379314
189;189;1449487782;2.1445400714900003;0.796715080738;0.0684908032417;1;True;18;2;153.95492905379314
190;190;1449487782;2.14442777634;0.796657681465;0.0685979500413;1;True;18;2;153.95492905379314
191;191;1449487782;2.14441871643;0.7967495322229999;0.06862836331130001;1;True;18;2;153.95492905379314
192;192;1449487782;2.14442205429;0.796867787838;0.06861280649899999;1;True;18;2;153.95492905379314
193;193;1449487782;2.14440274239;0.7967065572740001;0.06863622367380001;1;True;18;2;153.95492905379314
194;194;1449487782;2.1444475650799997;0.796762049198;0.0686220154166;1;True;18;2;153.95492905379314
195;195;1449487782;2.14456796646;0.796728491783;0.0684975162148;1;True;18;2;153.95492905379314
196;196;1449487782;2.14455103874;0.796822547913;0.0685250759125;1;True;18;2;153.95492905379314
197;197;1449487782;2.1444311141999997;0.796769499779;0.0686157643795;1;True;18;2;153.95492905379314
198;198;1449487782;2.14446020126;0.796864271164;0.0685691982508;1;True;18;2;153.95492905379314
199;199;1449487782;2.14440965652;0.796713232994;0.0685956627131;1;True;18;2;153.95492905379314
200;200;1449487782;2.14458680153;0.796742618084;0.06842050701380001;1;True;18;2;153.95492905379314
201;201;1449487782;2.14452004433;0.796740114689;0.06851591914890001;1;True;18;2;153.95492905379314
202;202;1449487782;2.14449691772;0.7968249320980001;0.0685556083918;1;True;18;2;153.95492905379314
203;203;1449487782;2.14453959465;0.7968115210529999;0.0685279816389;1;True;18;2;153.95492905379314
204;204;1449487782;2.14455723763;0.796768128872;0.0685010254383;1;True;18;2;153.95492905379314
205;205;1449487782;2.14434838295;0.79666864872;0.0687506049871;1;True;18;2;153.95492905379314
206;206;1449487782;2.14447140694;0.796827554703;0.0685608237982;1;True;18;2;153.95492905379314
207;207;1449487782;2.14446592331;0.7968220114710001;0.0686614513397;1;True;18;2;153.95492905379314
208;208;1449487782;2.1445727348299997;0.7968561649320001;0.068408511579;1;True;18;2;153.95492905379314
209;209;1449487782;2.14444065094;0.7967597842219999;0.0685658827424;1;True;18;2;153.95492905379314
210;210;1449487782;2.14440202713;0.796852111816;0.0687385499477;1;True;18;2;153.95492905379314
211;211;1449487782;2.1444640159599997;0.7967838048929999;0.0685921534896;1;True;18;2;153.95492905379314
212;212;1449487782;2.1445698738099996;0.797005951405;0.06855638325209999;1;True;18;2;153.95492905379314
213;213;1449487782;2.1444683075;0.796853363514;0.0685725733638;1;True;18;2;153.95492905379314
214;214;1449487782;2.1444535255400003;0.7967796921729999;0.0685757026076;1;True;18;2;153.95492905379314
215;215;1449487782;2.1444466114;0.796847820282;0.0685545727611;1;True;18;2;153.95492905379314
216;216;1449487782;2.14448785782;0.796799659729;0.0685634240508;1;True;18;2;153.95492905379314
217;217;1449487782;2.14451384544;0.796963691711;0.0685936510563;1;True;18;2;153.95492905379314
218;218;1449487782;2.14454054832;0.796894013882;0.0684303790331;1;True;18;2;153.95492905379314
219;219;1449487782;2.14446282387;0.796871602535;0.06856764853;1;True;18;2;153.95492905379314
220;220;1449487782;2.1443514823900003;0.7968175411220001;0.0685420557857;1;True;18;2;153.95492905379314
221;221;1449487782;2.14441919327;0.796817183495;0.06856132298709999;1;True;18;2;153.95492905379314
222;222;1449487782;2.1445608138999996;0.7970930337909999;0.0684059783816;1;True;18;2;153.95492905379314
223;223;1449487782;2.14452195168;0.796835958958;0.0684665516019;1;True;18;2;153.95492905379314
224;224;1449487782;2.1444857120500003;0.796763300896;0.0684466809034;1;True;18;2;153.95492905379314
225;225;1449487782;2.1444063186599998;0.7968381047249999;0.06860497593880001;1;True;18;2;153.95492905379314
226;226;1449487782;2.14450001717;0.796970129013;0.0685191601515;1;True;18;2;153.95492905379314
227;227;1449487782;2.14450025558;0.796781182289;0.0684491470456;1;True;18;2;153.95492905379314
228;228;1449487782;2.14448642731;0.7967710495;0.0684270709753;1;True;18;2;153.95492905379314
229;229;1449487782;2.1445131301900004;0.796818375587;0.0684642270207;1;True;18;2;153.95492905379314
230;230;1449487782;2.14449310303;0.796781301498;0.0684067383409;1;True;18;2;153.95492905379314
231;231;1449487782;2.14440083504;0.796784758568;0.06852850317959999;1;True;18;2;153.95492905379314
232;232;1449487782;2.14440226555;0.796726107597;0.0685413777828;1;True;18;2;153.95492905379314
233;233;1449487782;2.14452433586;0.7969009876250001;0.0684275478125;1;True;18;2;153.95492905379314
234;234;1449487782;2.1444623470299997;0.796917915344;0.0685094371438;1;True;18;2;153.95492905379314
235;235;1449487782;2.14452552795;0.796768426895;0.068351700902;1;True;18;2;153.95492905379314
236;236;1449487782;2.14441347122;0.7968839406970001;0.0685166865587;1;True;18;2;153.95492905379314
237;237;1449487782;2.14444851875;0.79681456089;0.06855373829599999;1;True;18;2;153.95492905379314
238;238;1449487782;2.14449882507;0.7967220544820001;0.0684172585607;1;True;18;2;153.95492905379314
239;239;1449487782;2.14439368248;0.7968127727509999;0.0685838535428;1;True;18;2;153.95492905379314
240;240;1449487782;2.14444160461;0.796815097332;0.0685619413853;1;True;18;2;153.95492905379314
241;241;1449487782;2.1445019245099997;0.796726047993;0.0684134364128;1;True;18;2;153.95492905379314
242;242;1449487782;2.14448332787;0.7967776060100001;0.068439245224;1;True;18;2;153.95492905379314
243;243;1449487782;2.1444709301;0.796798765659;0.0685453787446;1;True;18;2;153.95492905379314
244;244;1449487782;2.1444747448;0.796795070171;0.068545781076;1;True;18;2;153.95492905379314
245;245;1449487782;2.14451265335;0.7967314720149999;0.06841284036640001;1;True;18;2;153.95492905379314
246;246;1449487782;2.14450407028;0.7967222929000001;0.0684047937393;1;True;18;2;153.95492905379314
247;247;1449487782;2.1445055007900002;0.796764075756;0.0684457346797;1;True;18;2;153.95492905379314
248;248;1449487782;2.144572258;0.7970066666600001;0.0683520361781;1;True;18;2;153.95492905379314
249;249;1449487782;2.14439249039;0.796673476696;0.0685328543186;1;True;18;2;153.95492905379314
250;250;1449487782;2.14452290535;0.796821594238;0.0684200152755;1;True;18;2;153.95492905379314
251;251;1449487782;2.14447832108;0.796787559986;0.0685488283634;1;True;18;2;153.95492905379314
252;252;1449487782;2.14447522163;0.796783924103;0.0685441643;1;True;18;2;153.95492905379314
253;253;1449487782;2.14438223839;0.79675257206;0.06854377686980001;1;True;18;2;153.95492905379314
254;254;1449487782;2.1445133686099997;0.79680544138;0.06848520040509999;1;True;18;2;153.95492905379314
255;255;1449487782;2.14452719688;0.7968690395360001;0.06842842698099999;1;True;18;2;153.95492905379314
256;256;1449487782;2.144520998;0.7967481613160001;0.068444095552;1;True;18;2;153.95492905379314
257;257;1449487782;2.1445145607;0.796712398529;0.0684364140034;1;True;18;2;153.95492905379314
258;258;1449487782;2.1445400714900003;0.796801924706;0.0684277787805;1;True;18;2;153.95492905379314
259;259;1449487782;2.1444780826599996;0.7967805862430001;0.0685651004314;1;True;18;2;153.95492905379314
260;260;1449487782;2.14451909065;0.7967106103899999;0.0684468671679;1;True;18;2;153.95492905379314
261;261;1449487782;2.14448285103;0.796778440475;0.068541303277;1;True;18;2;153.95492905379314
262;262;1449487783;2.1444826126099996;0.796789824963;0.0685378089547;2;True;18;2;153.95492905379314
263;263;1449487783;2.14450502396;0.796742975712;0.06846424937250001;2;True;18;2;153.95492905379314
264;264;1449487783;2.1444973945599997;0.796805679798;0.068497672677;2;True;18;2;153.95492905379314
265;265;1449487783;2.1444973945599997;0.7967711091040001;0.0685608163476;2;True;18;2;153.95492905379314
266;266;1449487783;2.14454221725;0.796858906746;0.0684557929635;2;True;18;2;153.95492905379314
267;267;1449487783;2.14452028275;0.796741068363;0.0684524849057;2;True;18;2;153.95492905379314
268;268;1449487783;2.14438414574;0.7966014742849999;0.0685737207532;2;True;18;2;153.95492905379314
269;269;1449487783;2.144500494;0.7967844009399999;0.0684650093317;2;True;18;2;153.95492905379314
270;270;1449487783;2.14451646805;0.796646356583;0.0684265196323;2;True;18;2;153.95492905379314
271;271;1449487783;2.1445491313900003;0.797010302544;0.06846417486669999;2;True;18;2;153.95492905379314
272;272;1449487783;2.14441490173;0.7969158887860001;0.068596534431;2;True;18;2;153.95492905379314
273;273;1449487783;2.1443862915;0.796715199947;0.068716160953;2;True;18;2;153.95492905379314
274;274;1449487783;2.14453697205;0.796806871891;0.0684546604753;2;True;18;2;153.95492905379314
275;275;1449487783;2.14453005791;0.79670882225;0.0684643015265;2;True;18;2;153.95492905379314
276;276;1449487783;2.14454984665;0.796805024147;0.0685175806284;2;True;18;2;153.95492905379314
277;277;1449487783;2.14441776276;0.7967733740809999;0.068616040051;2;True;18;2;153.95492905379314
278;278;1449487783;2.1444461345700003;0.796889960766;0.0686677619815;2;True;18;2;153.95492905379314
279;279;1449487783;2.1444401741;0.796694874763;0.0685808956623;2;True;18;2;153.95492905379314
280;280;1449487783;2.14453148842;0.7967905998229999;0.0685912817717;2;True;18;2;153.95492905379314
281;281;1449487783;2.14444160461;0.796697497368;0.0685981139541;2;True;18;2;153.95492905379314
282;282;1449487783;2.14451241493;0.7967872023579999;0.0686050951481;2;True;18;2;153.95492905379314
283;283;1449487783;2.1445441246;0.796990096569;0.06860630959269999;2;True;18;2;153.95492905379314
284;284;1449487783;2.14442229271;0.796735227108;0.0686326920986;2;True;18;2;153.95492905379314
285;285;1449487783;2.1445753574400004;0.7967291474339999;0.06843491643670001;2;True;18;2;153.95492905379314
286;286;1449487783;2.14448904991;0.7967197299;0.0686058476567;2;True;18;2;153.95492905379314
287;287;1449487783;2.14463305473;0.7970477342610001;0.0684239417315;2;True;18;2;153.95492905379314
288;288;1449487783;2.14456415176;0.796908915043;0.0685968473554;2;True;18;2;153.95492905379314
289;289;1449487783;2.14458155632;0.7969473004340001;0.0685821473598;2;True;18;2;153.95492905379314
290;290;1449487783;2.14452123642;0.7967330813410001;0.06847850233319999;2;True;18;2;153.95492905379314
291;291;1449487783;2.14455509186;0.7968149185179999;0.0685402974486;2;True;18;2;153.95492905379314
292;292;1449487783;2.14455461502;0.7967686057089999;0.0685311853886;2;True;18;2;153.95492905379314
293;293;1449487783;2.1443479061099997;0.796446740627;0.0688023120165;2;True;18;2;153.95492905379314
294;294;1449487783;2.14448404312;0.7967977523800001;0.0686600804329;2;True;18;2;153.95492905379314
295;295;1449487783;2.1445710659;0.796722412109;0.0685015395284;2;True;18;2;153.95492905379314
296;296;1449487783;2.14452004433;0.796798825264;0.0686402842402;2;True;18;2;153.95492905379314
297;297;1449487783;2.14462852478;0.7969999313349999;0.0684686079621;2;True;18;2;153.95492905379314
298;298;1449487783;2.14460110664;0.797028660774;0.0685081407428;2;True;18;2;153.95492905379314
299;299;1449487783;2.14449429512;0.7967802882189999;0.0686309412122;2;True;18;2;153.95492905379314
300;300;1449487783;2.1444866657299997;0.796794891357;0.0686480849981;2;True;18;2;153.95492905379314
301;301;1449487783;2.1444435119599996;0.796792030334;0.0688565447927;2;True;18;2;153.95492905379314
302;302;1449487783;2.14440464973;0.796506762505;0.0686138421297;2;True;18;2;153.95492905379314
303;303;1449487783;2.1445009708400002;0.7967903018000001;0.06863455474380001;2;True;18;2;153.95492905379314
304;304;1449487783;2.14456582069;0.7968031167980001;0.0685422196984;2;True;18;2;153.95492905379314
305;305;1449487783;2.1445798873900004;0.7968468070029999;0.0685448944569;2;True;18;2;153.95492905379314
306;306;1449487783;2.14456582069;0.7967855334280001;0.06850803643469999;2;True;18;2;153.95492905379314
307;307;1449487783;2.14453411102;0.7967244386669999;0.0685471072793;2;True;18;2;153.95492905379314
308;308;1449487783;2.1445899009700002;0.796925127506;0.0684654414654;2;True;18;2;153.95492905379314
309;309;1449487783;2.1444675922400003;0.79686331749;0.0686078667641;2;True;18;2;153.95492905379314
310;310;1449487783;2.14433789253;0.7966033220290001;0.0687562376261;2;True;18;2;153.95492905379314
311;311;1449487783;2.14444065094;0.796798884869;0.0686355009675;2;True;18;2;153.95492905379314
312;312;1449487783;2.1443910598800002;0.796718478203;0.0686902999878;2;True;18;2;153.95492905379314
313;313;1449487783;2.14453673363;0.7968223094939999;0.0686228200793;2;True;18;2;153.95492905379314
314;314;1449487783;2.14448070526;0.7968215346340001;0.06864868849519999;2;True;18;2;153.95492905379314
315;315;1449487783;2.14443564415;0.796677470207;0.0686159878969;2;True;18;2;153.95492905379314
316;316;1449487783;2.14456224442;0.796781659126;0.0685069784522;2;True;18;2;153.95492905379314
317;317;1449487783;2.1446135044099996;0.7970588803290001;0.0684326514602;2;True;18;2;153.95492905379314
318;318;1449487783;2.14452528954;0.796938717365;0.06856928020719999;2;True;18;2;153.95492905379314
319;319;1449487783;2.1445274353;0.7968445420270001;0.0686049088836;2;True;18;2;153.95492905379314
320;320;1449487783;2.14447045326;0.796854972839;0.0686232075095;2;True;18;2;153.95492905379314
321;321;1449487783;2.14453983307;0.796777367592;0.0684698596597;2;True;18;2;153.95492905379314
322;322;1449487783;2.14446377754;0.7968291044239999;0.0685931295156;2;True;18;2;153.95492905379314
323;323;1449487783;2.14446592331;0.7967550754549999;0.0685240253806;2;True;18;2;153.95492905379314
324;324;1449487783;2.1444926261900004;0.796826660633;0.06850261986259999;2;True;18;2;153.95492905379314
325;325;1449487783;2.14452838898;0.7967671155930001;0.0684403032064;2;True;18;2;153.95492905379314
326;326;1449487783;2.14442157745;0.796690702438;0.068581238389;2;True;18;2;153.95492905379314
327;327;1449487783;2.1445169448900003;0.7968480587010001;0.0684778541327;2;True;18;2;153.95492905379314
328;328;1449487783;2.14451646805;0.796791136265;0.0684592872858;2;True;18;2;153.95492905379314
329;329;1449487783;2.14457702637;0.797004759312;0.0683872252703;2;True;18;2;153.95492905379314
330;330;1449487783;2.14454030991;0.796728491783;0.0684437677264;2;True;18;2;153.95492905379314
331;331;1449487783;2.14444994926;0.796770751476;0.0685207769275;2;True;18;2;153.95492905379314
332;332;1449487783;2.14452934265;0.7967904806139999;0.0684860646725;2;True;18;2;153.95492905379314
333;333;1449487783;2.1445133686099997;0.796877801418;0.0684652104974;2;True;18;2;153.95492905379314
334;334;1449487783;2.14442777634;0.796711981297;0.06851007789369999;2;True;18;2;153.95492905379314
335;335;1449487783;2.1445112228400003;0.796974956989;0.0685171112418;2;True;18;2;153.95492905379314
336;336;1449487783;2.14427113533;0.796436369419;0.0687580257654;2;True;18;2;153.95492905379314
337;337;1449487783;2.14441490173;0.796765446663;0.0685617849231;2;True;18;2;153.95492905379314
338;338;1449487783;2.14457249641;0.797074437141;0.0684362128377;2;True;18;2;153.95492905379314
339;339;1449487783;2.14438891411;0.796665072441;0.06855766475200001;2;True;18;2;153.95492905379314
340;340;1449487783;2.14455246925;0.7970384359360001;0.0684568211436;2;True;18;2;153.95492905379314
341;341;1449487783;2.1443939209000002;0.7967286705969999;0.0685629546642;2;True;18;2;153.95492905379314
342;342;1449487783;2.14453363419;0.7967236042020001;0.0684087723494;2;True;18;2;153.95492905379314
343;343;1449487783;2.1445555687;0.796928703785;0.0683525577188;2;True;18;2;153.95492905379314
344;344;1449487783;2.14450645447;0.796764433384;0.068388313055;2;True;18;2;153.95492905379314
345;345;1449487783;2.14452123642;0.796806037426;0.0684440657496;2;True;18;2;153.95492905379314
346;346;1449487783;2.144520998;0.796793520451;0.0684411972761;2;True;18;2;153.95492905379314
347;347;1449487783;2.1443772316;0.796653985977;0.068541906774;2;True;18;2;153.95492905379314
348;348;1449487783;2.14448618889;0.796760797501;0.0684372186661;2;True;18;2;153.95492905379314
349;349;1449487783;2.1445128917700003;0.796856701374;0.0684484690428;2;True;18;2;153.95492905379314
350;350;1449487783;2.14436674118;0.796516001225;0.06854224205019999;2;True;18;2;153.95492905379314
351;351;1449487783;2.14443469048;0.796813547611;0.06852857768540001;2;True;18;2;153.95492905379314
352;352;1449487783;2.14451813698;0.796722412109;0.0683799982071;2;True;18;2;153.95492905379314
353;353;1449487783;2.14441490173;0.796596229076;0.0685124695301;2;True;18;2;153.95492905379314
354;354;1449487783;2.14444041252;0.796563506126;0.06841774284839999;2;True;18;2;153.95492905379314
355;355;1449487783;2.14461731911;0.7969655990600001;0.0683444365859;2;True;18;2;153.95492905379314
356;356;1449487783;2.14437007904;0.796700119972;0.068638779223;2;True;18;2;153.95492905379314
357;357;1449487783;2.14443564415;0.796777784824;0.06855490803719999;2;True;18;2;153.95492905379314
358;358;1449487783;2.1445059776299997;0.796697854996;0.0684359222651;2;True;18;2;153.95492905379314
359;359;1449487783;2.14445638657;0.796622276306;0.0684836059809;2;True;18;2;153.95492905379314
360;360;1449487783;2.14450287819;0.7967562675480001;0.06851802766319999;2;True;18;2;153.95492905379314
361;361;1449487783;2.14436292648;0.7966313958169999;0.0685475245118;2;True;18;2;153.95492905379314
362;362;1449487783;2.14440774918;0.796759903431;0.0685356855392;2;True;18;2;153.95492905379314
363;363;1449487783;2.14450740814;0.796988964081;0.0685499384999;2;True;18;2;153.95492905379314
364;364;1449487783;2.14451003075;0.796856701374;0.06845659762619999;2;True;18;2;153.95492905379314
365;365;1449487783;2.14450716972;0.7968747019769999;0.06847304850819999;2;True;18;2;153.95492905379314
366;366;1449487783;2.14442276955;0.7968338131899999;0.0685402825475;2;True;18;2;153.95492905379314
367;367;1449487783;2.14436006546;0.796644330025;0.0685492232442;2;True;18;2;153.95492905379314
368;368;1449487783;2.1444683075;0.796755850315;0.0685024410486;2;True;18;2;153.95492905379314
369;369;1449487783;2.14449381828;0.796875;0.068504601717;2;True;18;2;153.95492905379314
370;370;1449487783;2.14431786537;0.79656034708;0.0686707422137;2;True;18;2;153.95492905379314
371;371;1449487783;2.1445350647;0.796881318092;0.0684362500906;2;True;18;2;153.95492905379314
372;372;1449487783;2.14439225197;0.796751022339;0.0686083212495;2;True;18;2;153.95492905379314
373;373;1449487783;2.14450788498;0.796602249146;0.0684288367629;2;True;18;2;153.95492905379314
374;374;1449487783;2.14446139336;0.7969260811810001;0.0685733929276;2;True;18;2;153.95492905379314
375;375;1449487783;2.14453721046;0.796754777431;0.0684598460793;2;True;18;2;153.95492905379314
376;376;1449487783;2.14454865456;0.7969536781309999;0.0684669241309;2;True;18;2;153.95492905379314
377;377;1449487783;2.14454245567;0.796786427498;0.0684821382165;2;True;18;2;153.95492905379314
378;378;1449487783;2.14454340935;0.796858012676;0.068494938314;2;True;18;2;153.95492905379314
379;379;1449487783;2.14450883865;0.796845793724;0.0685936436057;2;True;18;2;153.95492905379314
380;380;1449487783;2.14452004433;0.796981990337;0.0686477720737;2;True;18;2;153.95492905379314
381;381;1449487783;2.14449453354;0.796849787235;0.068617939949;2;True;18;2;153.95492905379314
382;382;1449487783;2.14418530464;0.796724200249;0.068761959672;2;True;18;2;153.95492905379314
383;383;1449487783;2.1445581913;0.7967914938930001;0.0684833675623;2;True;18;2;153.95492905379314
384;384;1449487783;2.14453601837;0.796836078167;0.0686314254999;2;True;18;2;153.95492905379314
385;385;1449487783;2.1444661617299996;0.7967040538789999;0.06864791363480001;2;True;18;2;153.95492905379314
386;386;1449487783;2.14450335503;0.796861946583;0.06860261410469999;2;True;18;2;153.95492905379314
387;387;1449487783;2.1444857120500003;0.796925425529;0.0686252936721;2;True;18;2;153.95492905379314
388;388;1449487783;2.14446115494;0.7968262434010001;0.0686648339033;2;True;18;2;153.95492905379314
389;389;1449487783;2.1446466445900003;0.7969909906389999;0.06840100884440001;2;True;18;2;153.95492905379314
390;390;1449487783;2.14445662498;0.7969230413439999;0.0686408951879;2;True;18;2;153.95492905379314
391;391;1449487783;2.1444573402400002;0.796690225601;0.0686044842005;2;True;18;2;153.95492905379314
392;392;1449487783;2.14463973045;0.797061264515;0.0684919804335;2;True;18;2;153.95492905379314
393;393;1449487783;2.1445543766;0.797006249428;0.06868339329959999;2;True;18;2;153.95492905379314
394;394;1449487783;2.14444923401;0.796662867069;0.068745687604;2;True;18;2;153.95492905379314
395;395;1449487783;2.14458537102;0.796902954578;0.06853905320169999;2;True;18;2;153.95492905379314
396;396;1449487783;2.1446146965;0.796976208687;0.0685145109892;2;True;18;2;153.95492905379314
397;397;1449487783;2.144520998;0.796938300133;0.0686815306544;2;True;18;2;153.95492905379314
398;398;1449487783;2.1445169448900003;0.7968819737430001;0.0686848163605;2;True;18;2;153.95492905379314
399;399;1449487783;2.14445662498;0.796832978725;0.06858748197560001;2;True;18;2;153.95492905379314
400;400;1449487783;2.14455842972;0.796954512596;0.0686658918858;2;True;18;2;153.95492905379314
401;401;1449487783;2.1444981098199998;0.796948075294;0.0686837658286;2;True;18;2;153.95492905379314
402;402;1449487783;2.14456248283;0.7968631386759999;0.0686686858535;2;True;18;2;153.95492905379314
403;403;1449487783;2.14453053474;0.7968774437899999;0.06865903735159999;2;True;18;2;153.95492905379314
404;404;1449487783;2.14452934265;0.7968046069149999;0.0685937777162;2;True;18;2;153.95492905379314
405;405;1449487783;2.14444231987;0.796766638756;0.0686976090074;2;True;18;2;153.95492905379314
406;406;1449487783;2.14459466934;0.797051846981;0.0685626268387;2;True;18;2;153.95492905379314
407;407;1449487783;2.14448904991;0.7967618107800001;0.06864690780640001;2;True;18;2;153.95492905379314
408;408;1449487783;2.14457726479;0.7967746853829999;0.0685458928347;2;True;18;2;153.95492905379314
409;409;1449487783;2.1444668769799997;0.7967869043350001;0.0686692744493;2;True;18;2;153.95492905379314
410;410;1449487783;2.14451360703;0.7968326210979999;0.0686579719186;2;True;18;2;153.95492905379314
411;411;1449487783;2.1444196701;0.797043085098;0.0686990916729;2;True;18;2;153.95492905379314
412;412;1449487783;2.14443540573;0.79683637619;0.0686858296394;2;True;18;2;153.95492905379314
413;413;1449487783;2.1444747448;0.796827852726;0.06860698759560001;2;True;18;2;153.95492905379314
414;414;1449487783;2.1444053649900003;0.796539604664;0.0686707571149;2;True;18;2;153.95492905379314
415;415;1449487783;2.1444170475;0.796877384186;0.0687141865492;2;True;18;2;153.95492905379314
416;416;1449487783;2.14444971085;0.796822071075;0.0686695575714;2;True;18;2;153.95492905379314
417;417;1449487783;2.1445753574400004;0.7968707084659999;0.0684790983796;2;True;18;2;153.95492905379314
418;418;1449487783;2.14452672005;0.796806275845;0.0685474798083;2;True;18;2;153.95492905379314
419;419;1449487783;2.14457774162;0.796798169613;0.0684501007199;2;True;18;2;153.95492905379314
420;420;1449487783;2.14441990852;0.7968405485150001;0.06877763569360001;2;True;18;2;153.95492905379314
421;421;1449487783;2.1445057392099995;0.7969413995739999;0.0687115341425;2;True;18;2;153.95492905379314
422;422;1449487783;2.1445453167;0.7967745065690001;0.0685103982687;2;True;18;2;153.95492905379314
423;423;1449487783;2.14450716972;0.7967080473899999;0.0685089081526;2;True;18;2;153.95492905379314
424;424;1449487783;2.1444053649900003;0.796664178371;0.0686138942838;2;True;18;2;153.95492905379314
425;425;1449487783;2.14438056946;0.7968813776970001;0.06871215999130001;2;True;18;2;153.95492905379314
426;426;1449487783;2.14438891411;0.7968270778659999;0.0686726644635;2;True;18;2;153.95492905379314
427;427;1449487783;2.14440488815;0.7969334721570001;0.0684684664011;2;True;18;2;153.95492905379314
428;428;1449487783;2.14441800117;0.7968071103100001;0.0685794129968;2;True;18;2;153.95492905379314
429;429;1449487783;2.1444826126099996;0.7968447208399999;0.06855152547360001;2;True;18;2;153.95492905379314
430;430;1449487783;2.1444270610799996;0.796761453152;0.0685918629169;2;True;18;2;153.95492905379314
431;431;1449487783;2.14449524879;0.7969943881029999;0.0685831010342;2;True;18;2;153.95492905379314
432;432;1449487783;2.1445026397699998;0.796753287315;0.0684645548463;2;True;18;2;153.95492905379314
433;433;1449487783;2.1443927288099998;0.796686768532;0.0686283931136;2;True;18;2;153.95492905379314
434;434;1449487783;2.14444446564;0.796762883663;0.068605273962;2;True;18;2;153.95492905379314
435;435;1449487783;2.14454722404;0.7967205643649999;0.0684511587024;2;True;18;2;153.95492905379314
436;436;1449487783;2.1444272994999998;0.796847581863;0.06852901726959999;2;True;18;2;153.95492905379314
437;437;1449487783;2.14442586899;0.796681523323;0.0687138959765;2;True;18;2;153.95492905379314
438;438;1449487783;2.14443778992;0.7967841029170001;0.0685331299901;2;True;18;2;153.95492905379314
439;439;1449487783;2.14455866814;0.797013401985;0.0684198215604;2;True;18;2;153.95492905379314
440;440;1449487783;2.1445043087;0.7968561649320001;0.0685069486499;2;True;18;2;153.95492905379314
441;441;1449487783;2.14458632469;0.796949982643;0.06836412101980001;2;True;18;2;153.95492905379314
442;442;1449487783;2.14454054832;0.796928226948;0.06842400878669999;2;True;18;2;153.95492905379314
443;443;1449487783;2.14453125;0.7967065572740001;0.0684235319495;2;True;18;2;153.95492905379314
444;444;1449487783;2.14447999001;0.796774446964;0.068538531661;2;True;18;2;153.95492905379314
445;445;1449487783;2.1444735527;0.7969297766689999;0.0685646086931;2;True;18;2;153.95492905379314
446;446;1449487783;2.14437913895;0.7966032028200001;0.06853791326280001;2;True;18;2;153.95492905379314
447;447;1449487783;2.14454388618;0.7969799041750001;0.0684298500419;2;True;18;2;153.95492905379314
448;448;1449487783;2.14442801476;0.796637773514;0.0685705393553;2;True;18;2;153.95492905379314
449;449;1449487783;2.14450454712;0.7968010902399999;0.0685402005911;2;True;18;2;153.95492905379314
450;450;1449487783;2.1445183754;0.7967181801800001;0.0684043392539;2;True;18;2;153.95492905379314
451;451;1449487783;2.14448332787;0.796552956104;0.0684835985303;2;True;18;2;153.95492905379314
452;452;1449487783;2.14437818527;0.796714007854;0.0686163753271;2;True;18;2;153.95492905379314
453;453;1449487783;2.14445757866;0.796764791012;0.0685108229518;2;True;18;2;153.95492905379314
454;454;1449487783;2.1444070339200003;0.7968670725820001;0.0685236826539;2;True;18;2;153.95492905379314
455;455;1449487783;2.1445698738099996;0.797041416168;0.0683699995279;2;True;18;2;153.95492905379314
456;456;1449487783;2.1443688869499997;0.796637356281;0.0685267597437;2;True;18;2;153.95492905379314
457;457;1449487783;2.14454698563;0.796860635281;0.0684105008841;2;True;18;2;153.95492905379314
458;458;1449487783;2.14438271523;0.796759843826;0.0685658976436;2;True;18;2;153.95492905379314
459;459;1449487783;2.1445174217200003;0.7969754338259999;0.0685205087066;2;True;18;2;153.95492905379314
460;460;1449487783;2.1445248127000003;0.7967544794079999;0.0683817565441;2;True;18;2;153.95492905379314
461;461;1449487783;2.14452958107;0.7968115210529999;0.06837144494059999;2;True;18;2;153.95492905379314
462;462;1449487783;2.14455890656;0.796819865704;0.06837321072819999;2;True;18;2;153.95492905379314
463;463;1449487783;2.14446902275;0.7969984412190001;0.0685440078378;2;True;18;2;153.95492905379314
464;464;1449487783;2.14445710182;0.796742558479;0.06847033649680001;2;True;18;2;153.95492905379314
465;465;1449487783;2.14446783066;0.796824038029;0.06853615492580001;2;True;18;2;153.95492905379314
466;466;1449487783;2.14452433586;0.7968486547470001;0.0684195682406;2;True;18;2;153.95492905379314
467;467;1449487783;2.1444737911200003;0.796696662903;0.06844287365669999;2;True;18;2;153.95492905379314
468;468;1449487783;2.1444654464700004;0.796727657318;0.0685541182756;2;True;18;2;153.95492905379314
469;469;1449487783;2.14445614815;0.796800911427;0.0686333328485;2;True;18;2;153.95492905379314
470;470;1449487783;2.14439582825;0.7968242168430001;0.0685726925731;2;True;18;2;153.95492905379314
471;471;1449487783;2.14442205429;0.796664297581;0.0685944631696;2;True;18;2;153.95492905379314
472;472;1449487783;2.14443564415;0.79677772522;0.06848619133230001;2;True;18;2;153.95492905379314
473;473;1449487783;2.14440369606;0.7968927621840001;0.0685692876577;2;True;18;2;153.95492905379314
474;474;1449487783;2.1444725990299998;0.796774029732;0.06857404857869999;2;True;18;2;153.95492905379314
475;475;1449487783;2.14458942413;0.7969596981999999;0.06840857118369999;2;True;18;2;153.95492905379314
476;476;1449487783;2.1445169448900003;0.796839058399;0.0684717595577;2;True;18;2;153.95492905379314
477;477;1449487783;2.14447522163;0.796690583229;0.0684836432338;2;True;18;2;153.95492905379314
478;478;1449487783;2.1444623470299997;0.7968412637710001;0.0685955733061;2;True;18;2;153.95492905379314
479;479;1449487783;2.1445508003200002;0.796990871429;0.06841670721769999;2;True;18;2;153.95492905379314
480;480;1449487783;2.14445996284;0.796824038029;0.0683858767152;2;True;18;2;153.95492905379314
481;481;1449487783;2.14452815056;0.796798050404;0.0684716552496;2;True;18;2;153.95492905379314
482;482;1449487783;2.1443610191299998;0.7966606020929999;0.0685188695788;2;True;18;2;153.95492905379314
483;483;1449487783;2.14440941811;0.7966896891590001;0.0686656087637;2;True;18;2;153.95492905379314
484;484;1449487783;2.14447712898;0.796928167343;0.0685558840632;2;True;18;2;153.95492905379314
485;485;1449487783;2.14452505112;0.796767234802;0.06847251206640001;2;True;18;2;153.95492905379314
486;486;1449487783;2.14453935623;0.7967574596410001;0.0684834122658;2;True;18;2;153.95492905379314
487;487;1449487783;2.14454627037;0.796853125095;0.0685366019607;2;True;18;2;153.95492905379314
488;488;1449487783;2.1444010734599996;0.796887993813;0.0686554312706;2;True;18;2;153.95492905379314
489;489;1449487783;2.14453196526;0.796854257584;0.068614885211;2;True;18;2;153.95492905379314
490;490;1449487783;2.14448070526;0.7967994213099999;0.06862612813709999;2;True;18;2;153.95492905379314
491;491;1449487783;2.1444489955900004;0.796720504761;0.0685774832964;2;True;18;2;153.95492905379314
492;492;1449487783;2.14446973801;0.796844422817;0.06865426897999999;2;True;18;2;153.95492905379314
493;493;1449487783;2.14460682869;0.7970176339149999;0.06843190640209999;2;True;18;2;153.95492905379314
494;494;1449487783;2.14456748962;0.7966446280480001;0.0684851035476;2;True;18;2;153.95492905379314
495;495;1449487783;2.14444231987;0.79682725668;0.0686399564147;2;True;18;2;153.95492905379314
496;496;1449487783;2.14448809624;0.7968852519990001;0.0685262531042;2;True;18;2;153.95492905379314
497;497;1449487783;2.14452695847;0.796800196171;0.068530112505;2;True;18;2;153.95492905379314
498;498;1449487783;2.14443302155;0.796688556671;0.0686376616359;2;True;18;2;153.95492905379314
499;499;1449487783;2.14445853233;0.796677649021;0.0686434060335;2;True;18;2;153.95492905379314
500;500;1449487783;2.1444780826599996;0.7968663573270001;0.0686299577355;2;True;18;2;153.95492905379314
501;501;1449487784;2.1444504261;0.79677683115;0.06862604618069999;3;True;18;2;153.95492905379314
502;502;1449487784;2.14444732666;0.796741843224;0.0686388462782;3;True;18;2;153.95492905379314
503;503;1449487784;2.14462256432;0.7970044612880001;0.0684367418289;3;True;18;2;153.95492905379314
504;504;1449487784;2.14454984665;0.796896338463;0.0685620903969;3;True;18;2;153.95492905379314
505;505;1449487784;2.14443778992;0.796656429768;0.068622559309;3;True;18;2;153.95492905379314
506;506;1449487784;2.14445972443;0.7966542243960001;0.0685662031174;3;True;18;2;153.95492905379314
507;507;1449487784;2.14444041252;0.7967903018000001;0.0686293393373;3;True;18;2;153.95492905379314
508;508;1449487784;2.14453268051;0.796758115292;0.068556189537;3;True;18;2;153.95492905379314
509;509;1449487784;2.14459204674;0.796938538551;0.0684802010655;3;True;18;2;153.95492905379314
510;510;1449487784;2.14452695847;0.7968358397480001;0.0686122253537;3;True;18;2;153.95492905379314
511;511;1449487784;2.14449453354;0.796827852726;0.06858175247909999;3;True;18;2;153.95492905379314
512;512;1449487784;2.1445133686099997;0.796825885773;0.0686487033963;3;True;18;2;153.95492905379314
513;513;1449487784;2.14457821846;0.796903908253;0.06851842999459999;3;True;18;2;153.95492905379314
514;514;1449487784;2.1444926261900004;0.7968342304230001;0.0686578080058;3;True;18;2;153.95492905379314
515;515;1449487784;2.14453315735;0.7967962026600001;0.0686280652881;3;True;18;2;153.95492905379314
516;516;1449487784;2.1445131301900004;0.796828269958;0.0686465278268;3;True;18;2;153.95492905379314
517;517;1449487784;2.14454293251;0.796778202057;0.068636149168;3;True;18;2;153.95492905379314
518;518;1449487784;2.14453577995;0.7968789339069999;0.0685675218701;3;True;18;2;153.95492905379314
519;519;1449487784;2.1445176601400004;0.7968596816060001;0.06863932311530001;3;True;18;2;153.95492905379314
520;520;1449487784;2.14452815056;0.7968208193780001;0.0685439407825;3;True;18;2;153.95492905379314
521;521;1449487784;2.14448213577;0.7967604994769999;0.0685957819223;3;True;18;2;153.95492905379314
522;522;1449487784;2.1445176601400004;0.796938061714;0.0685874894261;3;True;18;2;153.95492905379314
523;523;1449487784;2.1444194316900003;0.796773433685;0.0686460286379;3;True;18;2;153.95492905379314
524;524;1449487784;2.14452338219;0.796726047993;0.0684961304069;3;True;18;2;153.95492905379314
525;525;1449487784;2.1444461345700003;0.7967904806139999;0.068722769618;3;True;18;2;153.95492905379314
526;526;1449487784;2.14451503754;0.796558320522;0.0684534832835;3;True;18;2;153.95492905379314
527;527;1449487784;2.14452648163;0.79674744606;0.06848696619269999;3;True;18;2;153.95492905379314
528;528;1449487784;2.14453363419;0.796733796597;0.06848913431169999;3;True;18;2;153.95492905379314
529;529;1449487784;2.14441394806;0.79684650898;0.06855431944130001;3;True;18;2;153.95492905379314
530;530;1449487784;2.1444787979099997;0.796792089939;0.0685786381364;3;True;18;2;153.95492905379314
531;531;1449487784;2.1444387435900003;0.796806871891;0.06859607994559999;3;True;18;2;153.95492905379314
532;532;1449487784;2.1444647312200003;0.796835184097;0.0686919242144;3;True;18;2;153.95492905379314
533;533;1449487784;2.14449334145;0.7968856692309999;0.06855130195619999;3;True;18;2;153.95492905379314
534;534;1449487784;2.1444170475;0.7966769337649999;0.06856629252430001;3;True;18;2;153.95492905379314
535;535;1449487784;2.1446170806900002;0.797027051449;0.0683944895864;3;True;18;2;153.95492905379314
536;536;1449487784;2.1444535255400003;0.7967147827150001;0.0685537829995;3;True;18;2;153.95492905379314
537;537;1449487784;2.14451646805;0.796797394753;0.0685811936855;3;True;18;2;153.95492905379314
538;538;1449487784;2.14451551437;0.7969560027120001;0.0685331746936;3;True;18;2;153.95492905379314
539;539;1449487784;2.14442205429;0.796940624714;0.06878570467230001;3;True;18;2;153.95492905379314
540;540;1449487784;2.14453673363;0.7967571616169999;0.0684790089726;3;True;18;2;153.95492905379314
541;541;1449487784;2.1444194316900003;0.7966486215590001;0.0685641467571;3;True;18;2;153.95492905379314
542;542;1449487784;2.14437460899;0.7966851592059999;0.0686160698533;3;True;18;2;153.95492905379314
543;543;1449487784;2.1445217132599996;0.796915054321;0.0685682818294;3;True;18;2;153.95492905379314
544;544;1449487784;2.14455366135;0.7967597246170001;0.0684675052762;3;True;18;2;153.95492905379314
545;545;1449487784;2.1444633007;0.7967930436130001;0.0686004087329;3;True;18;2;153.95492905379314
546;546;1449487784;2.14457416534;0.797030806541;0.0684230327606;3;True;18;2;153.95492905379314
547;547;1449487784;2.1445651054400003;0.7969943881029999;0.0685379728675;3;True;18;2;153.95492905379314
548;548;1449487784;2.14444971085;0.796718537807;0.0685464888811;3;True;18;2;153.95492905379314
549;549;1449487784;2.14454627037;0.7967314720149999;0.0684520378709;3;True;18;2;153.95492905379314
550;550;1449487784;2.1445128917700003;0.7967605590819999;0.0684770643711;3;True;18;2;153.95492905379314
551;551;1449487784;2.14454603195;0.7970540523530001;0.0684431344271;3;True;18;2;153.95492905379314
552;552;1449487784;2.14440941811;0.7967283725740001;0.0685990974307;3;True;18;2;153.95492905379314
553;553;1449487784;2.14454698563;0.7967516779899999;0.0684614405036;3;True;18;2;153.95492905379314
554;554;1449487784;2.1444973945599997;0.796722650528;0.06857661157850001;3;True;18;2;153.95492905379314
555;555;1449487784;2.14447569847;0.7967503666879999;0.06851621717209999;3;True;18;2;153.95492905379314
556;556;1449487784;2.1444461345700003;0.796872496605;0.0686306357384;3;True;18;2;153.95492905379314
557;557;1449487784;2.14448881149;0.7968229651450001;0.0685587748885;3;True;18;2;153.95492905379314
558;558;1449487784;2.14443731308;0.796671569347;0.0685831233859;3;True;18;2;153.95492905379314
559;559;1449487784;2.1445178985599997;0.796816706657;0.06844527274369999;3;True;18;2;153.95492905379314
560;560;1449487784;2.14443778992;0.7968520522120001;0.06862530112269999;3;True;18;2;153.95492905379314
561;561;1449487784;2.14454746246;0.796935021877;0.0684022977948;3;True;18;2;153.95492905379314
562;562;1449487784;2.1443674564400004;0.796648085117;0.06857359409330001;3;True;18;2;153.95492905379314
563;563;1449487784;2.14446663857;0.796766757965;0.0685677602887;3;True;18;2;153.95492905379314
564;564;1449487784;2.14450335503;0.79674243927;0.0684443637729;3;True;18;2;153.95492905379314
565;565;1449487784;2.14449453354;0.7967394590379999;0.0684650316834;3;True;18;2;153.95492905379314
566;566;1449487784;2.1443836688999998;0.796827614307;0.06866602599619999;3;True;18;2;153.95492905379314
567;567;1449487784;2.14448690414;0.796847701073;0.0684740692377;3;True;18;2;153.95492905379314
568;568;1449487784;2.1444013118700003;0.7968697547910001;0.0685495063663;3;True;18;2;153.95492905379314
569;569;1449487784;2.14450120926;0.7968780398370001;0.0684108883142;3;True;18;2;153.95492905379314
570;570;1449487784;2.14445590973;0.796799600124;0.0685617253184;3;True;18;2;153.95492905379314
571;571;1449487784;2.14434432983;0.79665261507;0.068570971489;3;True;18;2;153.95492905379314
572;572;1449487784;2.1444256305700002;0.796817183495;0.06862160563469999;3;True;18;2;153.95492905379314
573;573;1449487784;2.14439415932;0.796757221222;0.068549670279;3;True;18;2;153.95492905379314
574;574;1449487784;2.14432668686;0.796649992466;0.06855999678369999;3;True;18;2;153.95492905379314
575;575;1449487784;2.14451670647;0.796763658524;0.0683945640922;3;True;18;2;153.95492905379314
576;576;1449487784;2.14452695847;0.797035038471;0.06843588501209999;3;True;18;2;153.95492905379314
577;577;1449487784;2.1444780826599996;0.7967903614040001;0.0684795454144;3;True;18;2;153.95492905379314
578;578;1449487784;2.1443874836;0.7967455387119999;0.0685782134533;3;True;18;2;153.95492905379314
579;579;1449487784;2.1444683075;0.7968128323549999;0.0685564950109;3;True;18;2;153.95492905379314
580;580;1449487784;2.1443836688999998;0.796635627747;0.0685905367136;3;True;18;2;153.95492905379314
581;581;1449487784;2.14446973801;0.79692864418;0.06855221092699999;3;True;18;2;153.95492905379314
582;582;1449487784;2.14448022842;0.7968039512630001;0.0685789510608;3;True;18;2;153.95492905379314
583;583;1449487784;2.144500494;0.7967387437819999;0.0684424489737;3;True;18;2;153.95492905379314
584;584;1449487784;2.144541502;0.7968700528139999;0.0684219673276;3;True;18;2;153.95492905379314
585;585;1449487784;2.14454054832;0.7967536449429999;0.0684008300304;3;True;18;2;153.95492905379314
586;586;1449487784;2.14440560341;0.79678606987;0.0685895904899;3;True;18;2;153.95492905379314
587;587;1449487784;2.14454984665;0.796732723713;0.06837757676839999;3;True;18;2;153.95492905379314
588;588;1449487784;2.1444211006200002;0.796787917614;0.06863459944730001;3;True;18;2;153.95492905379314
589;589;1449487784;2.14452052116;0.7969732880589999;0.06859350949529999;3;True;18;2;153.95492905379314
590;590;1449487784;2.14453315735;0.79686743021;0.06841132044789999;3;True;18;2;153.95492905379314
591;591;1449487784;2.14452028275;0.796755194664;0.06843344122169999;3;True;18;2;153.95492905379314
592;592;1449487784;2.14441561699;0.796809673309;0.068577721715;3;True;18;2;153.95492905379314
593;593;1449487784;2.14446592331;0.796812593937;0.0685921534896;3;True;18;2;153.95492905379314
594;594;1449487784;2.14439630508;0.79662334919;0.0686048790812;3;True;18;2;153.95492905379314
595;595;1449487784;2.14452576637;0.796737670898;0.0684625729918;3;True;18;2;153.95492905379314
596;596;1449487784;2.14439630508;0.796804726124;0.06859659403559999;3;True;18;2;153.95492905379314
597;597;1449487784;2.1444964408900002;0.7967203259469999;0.0684756189585;3;True;18;2;153.95492905379314
598;598;1449487784;2.1445322036700003;0.7967344522480001;0.0684607699513;3;True;18;2;153.95492905379314
599;599;1449487784;2.14438700676;0.79676926136;0.0685864090919;3;True;18;2;153.95492905379314
600;600;1449487784;2.14450407028;0.7969672083849999;0.0685537680984;3;True;18;2;153.95492905379314
601;601;1449487784;2.14453792572;0.796754717827;0.0684610232711;3;True;18;2;153.95492905379314
602;602;1449487784;2.1444113254499997;0.7966339588169999;0.0685959607363;3;True;18;2;153.95492905379314
603;603;1449487784;2.14452958107;0.796637773514;0.0684289559722;3;True;18;2;153.95492905379314
604;604;1449487784;2.14427304268;0.796862185001;0.0686500295997;3;True;18;2;153.95492905379314
