;Unnamed: 0;header_stamp_secs;pose_position_x;pose_position_y;pose_position_z;seconds;drop_values;flight_number;label;dtw
0;0;1449488087;2.13845896721;0.804564774036;0.068631708622;0;True;20;2;179.8401617407868
1;1;1449488087;2.13846206665;0.804539322853;0.0686861425638;0;True;20;2;179.8401617407868
2;2;1449488087;2.13841843605;0.8045886158939999;0.06865060329440001;0;True;20;2;179.8401617407868
3;3;1449488087;2.1385531425499997;0.804680466652;0.0685116797686;0;True;20;2;179.8401617407868
4;4;1449488087;2.13841366768;0.804487586021;0.06868913024659999;0;True;20;2;179.8401617407868
5;5;1449488087;2.13842582703;0.8043286800380001;0.06866864115;0;True;20;2;179.8401617407868
6;6;1449488087;2.13854217529;0.804663658142;0.0685223117471;0;True;20;2;179.8401617407868
7;7;1449488087;2.13849520683;0.804502546787;0.06850414723159999;0;True;20;2;179.8401617407868
8;8;1449488087;2.13841843605;0.8045155406000001;0.06861224770549999;0;True;20;2;179.8401617407868
9;9;1449488087;2.13849401474;0.80450463295;0.0684785693884;0;True;20;2;179.8401617407868
10;10;1449488087;2.1385068893400003;0.8045544624330001;0.0684649795294;0;True;20;2;179.8401617407868
11;11;1449488087;2.1385550499;0.804698884487;0.0684642568231;0;True;20;2;179.8401617407868
12;12;1449488087;2.13854837418;0.8047000765800001;0.0685265660286;0;True;20;2;179.8401617407868
13;13;1449488087;2.13839626312;0.80437284708;0.0686989277601;0;True;20;2;179.8401617407868
14;14;1449488087;2.13840723038;0.804666936398;0.0686574801803;0;True;20;2;179.8401617407868
15;15;1449488087;2.1385076046;0.804748117924;0.06850320845840001;0;True;20;2;179.8401617407868
16;16;1449488087;2.1384394168900003;0.80459022522;0.0686442553997;0;True;20;2;179.8401617407868
17;17;1449488087;2.1384768486000003;0.804556190968;0.06865807622669999;0;True;20;2;179.8401617407868
18;18;1449488087;2.13847184181;0.804609954357;0.0686314329505;0;True;20;2;179.8401617407868
19;19;1449488087;2.13849306107;0.8046089410780001;0.0684743821621;0;True;20;2;179.8401617407868
20;20;1449488087;2.13848590851;0.804626464844;0.0686029344797;0;True;20;2;179.8401617407868
21;21;1449488087;2.13847398758;0.804514706135;0.0684808790684;0;True;20;2;179.8401617407868
22;22;1449488087;2.13838124275;0.804370582104;0.0685782134533;0;True;20;2;179.8401617407868
23;23;1449488087;2.13847899437;0.804593741894;0.0686204060912;0;True;20;2;179.8401617407868
24;24;1449488087;2.13854217529;0.8046645522120001;0.068495862186;0;True;20;2;179.8401617407868
25;25;1449488087;2.13836550713;0.80447435379;0.06865904480219999;0;True;20;2;179.8401617407868
26;26;1449488087;2.1384196281400003;0.804536700249;0.0685603320599;0;True;20;2;179.8401617407868
27;27;1449488087;2.13851094246;0.8045960664749999;0.0684696137905;0;True;20;2;179.8401617407868
28;28;1449488087;2.1384410858200003;0.8045464754100001;0.0685818865895;0;True;20;2;179.8401617407868
29;29;1449488087;2.13839459419;0.8045150637630001;0.06859233975409999;0;True;20;2;179.8401617407868
30;30;1449488087;2.1385114193;0.804602563381;0.0684259012341;0;True;20;2;179.8401617407868
31;31;1449488087;2.1383826732599998;0.8044768571850001;0.06867335736750001;0;True;20;2;179.8401617407868
32;32;1449488087;2.13845419884;0.8048219084739999;0.0686509683728;0;True;20;2;179.8401617407868
33;33;1449488087;2.1385469436599998;0.804711818695;0.0685169845819;0;True;20;2;179.8401617407868
34;34;1449488087;2.13835072517;0.804411411285;0.0685963854194;0;True;20;2;179.8401617407868
35;35;1449488087;2.1383497715;0.8045043349269999;0.0686184987426;0;True;20;2;179.8401617407868
36;36;1449488087;2.13853240013;0.8047409653659999;0.0684818550944;0;True;20;2;179.8401617407868
37;37;1449488087;2.1385114193;0.804596722126;0.06848889589309999;0;True;20;2;179.8401617407868
38;38;1449488087;2.13837122917;0.8045253157619999;0.0686801820993;0;True;20;2;179.8401617407868
39;39;1449488087;2.13854503632;0.8047027587890001;0.0684383735061;0;True;20;2;179.8401617407868
40;40;1449488087;2.13849925995;0.804496943951;0.0684642568231;0;True;20;2;179.8401617407868
41;41;1449488087;2.13851451874;0.8045734763150001;0.06864395737649999;0;True;20;2;179.8401617407868
42;42;1449488087;2.1383996009799997;0.804509222507;0.0685925930738;0;True;20;2;179.8401617407868
43;43;1449488087;2.13825488091;0.804294884205;0.0686966255307;0;True;20;2;179.8401617407868
44;44;1449488087;2.13836765289;0.8045013546940001;0.0686536952853;0;True;20;2;179.8401617407868
45;45;1449488087;2.1383154392200003;0.8045218586920001;0.0686754286289;0;True;20;2;179.8401617407868
46;46;1449488087;2.13841176033;0.8044961094859999;0.06866665184500001;0;True;20;2;179.8401617407868
47;47;1449488087;2.13851118088;0.804665863514;0.0684857293963;0;True;20;2;179.8401617407868
48;48;1449488087;2.13841056824;0.804575264454;0.0687311887741;0;True;20;2;179.8401617407868
49;49;1449488087;2.1385390758500002;0.804686427116;0.0685120150447;0;True;20;2;179.8401617407868
50;50;1449488087;2.13849973679;0.804736018181;0.068594776094;0;True;20;2;179.8401617407868
51;51;1449488087;2.13843131065;0.804520905018;0.0685775950551;0;True;20;2;179.8401617407868
52;52;1449488087;2.13853979111;0.804728507996;0.0685200095177;0;True;20;2;179.8401617407868
53;53;1449488087;2.13852119446;0.804611206055;0.068455286324;0;True;20;2;179.8401617407868
54;54;1449488087;2.1385033130599997;0.804637074471;0.0684901177883;0;True;20;2;179.8401617407868
55;55;1449488087;2.1383957862900003;0.8044871687890001;0.0686659067869;0;True;20;2;179.8401617407868
56;56;1449488087;2.13835048676;0.804253697395;0.068682782352;0;True;20;2;179.8401617407868
57;57;1449488087;2.13838410378;0.804543614388;0.0686859637499;0;True;20;2;179.8401617407868
58;58;1449488087;2.13839554787;0.8045578598980001;0.06864695250990001;0;True;20;2;179.8401617407868
59;59;1449488087;2.1384212970700003;0.8045037388799999;0.06861279159780001;0;True;20;2;179.8401617407868
60;60;1449488087;2.13847017288;0.80460780859;0.0686653628945;0;True;20;2;179.8401617407868
61;61;1449488087;2.1384837627400004;0.804587841034;0.0686546638608;0;True;20;2;179.8401617407868
62;62;1449488087;2.1384203434;0.804611206055;0.0686075761914;0;True;20;2;179.8401617407868
63;63;1449488087;2.13850593567;0.804588913918;0.0684691220522;0;True;20;2;179.8401617407868
64;64;1449488087;2.13839435577;0.804539322853;0.0686820596457;0;True;20;2;179.8401617407868
65;65;1449488087;2.13840913773;0.8045395612720001;0.068607725203;0;True;20;2;179.8401617407868
66;66;1449488087;2.13838744164;0.804570317268;0.0686710551381;0;True;20;2;179.8401617407868
67;67;1449488087;2.13848781586;0.804509520531;0.06849214434619999;0;True;20;2;179.8401617407868
68;68;1449488087;2.13825106621;0.8043287396430001;0.0687172040343;0;True;20;2;179.8401617407868
69;69;1449488087;2.1384921073900003;0.8045920729639999;0.0686427503824;0;True;20;2;179.8401617407868
70;70;1449488087;2.1384658813499997;0.804566502571;0.06865389645100001;0;True;20;2;179.8401617407868
71;71;1449488087;2.1383500099200003;0.8045302629469999;0.0686675608158;0;True;20;2;179.8401617407868
72;72;1449488087;2.1384818553900002;0.804531037807;0.0685053020716;0;True;20;2;179.8401617407868
73;73;1449488087;2.1384139061000003;0.804506540298;0.06870020926;0;True;20;2;179.8401617407868
74;74;1449488087;2.1384809017200004;0.804604530334;0.0685414671898;0;True;20;2;179.8401617407868
75;75;1449488087;2.13840007782;0.804670989513;0.0686786100268;0;True;20;2;179.8401617407868
76;76;1449488087;2.13851356506;0.8046055436130001;0.0684875100851;0;True;20;2;179.8401617407868
77;77;1449488087;2.13851118088;0.804788172245;0.0685315951705;0;True;20;2;179.8401617407868
78;78;1449488087;2.13838434219;0.8045442700390001;0.06869273632759999;0;True;20;2;179.8401617407868
79;79;1449488087;2.13854622841;0.8047120571140001;0.0685364603996;0;True;20;2;179.8401617407868
80;80;1449488087;2.13840723038;0.804683864117;0.0686749964952;0;True;20;2;179.8401617407868
81;81;1449488087;2.13853526115;0.8046857714650001;0.0685129910707;0;True;20;2;179.8401617407868
82;82;1449488087;2.13835120201;0.8043455481530001;0.0686234533787;0;True;20;2;179.8401617407868
83;83;1449488087;2.1385076046;0.804636538029;0.0686541944742;0;True;20;2;179.8401617407868
84;84;1449488087;2.13845872879;0.804665625095;0.0686281248927;0;True;20;2;179.8401617407868
85;85;1449488087;2.13841032982;0.804569363594;0.06866581738;0;True;20;2;179.8401617407868
86;86;1449488087;2.1383628845200002;0.804596424103;0.0686808675528;0;True;20;2;179.8401617407868
87;87;1449488087;2.1384100914;0.804497778416;0.0686493441463;0;True;20;2;179.8401617407868
88;88;1449488087;2.1384022235900004;0.804416060448;0.0686058402061;0;True;20;2;179.8401617407868
89;89;1449488087;2.1384983062700003;0.804662227631;0.06861462444069999;0;True;20;2;179.8401617407868
90;90;1449488087;2.13851213455;0.804610967636;0.0684999600053;0;True;20;2;179.8401617407868
91;91;1449488087;2.1384294033099995;0.8045266866680001;0.068607032299;0;True;20;2;179.8401617407868
92;92;1449488087;2.13845705986;0.804604947567;0.0686692744493;0;True;20;2;179.8401617407868
93;93;1449488087;2.13834428787;0.8044449687;0.0686963647604;0;True;20;2;179.8401617407868
94;94;1449488087;2.1384580135299998;0.804775476456;0.0685798078775;0;True;20;2;179.8401617407868
95;95;1449488087;2.13846063614;0.804620623589;0.0686633810401;0;True;20;2;179.8401617407868
96;96;1449488087;2.13847565651;0.804716527462;0.06858354806900001;0;True;20;2;179.8401617407868
97;97;1449488087;2.13855457306;0.804786741734;0.068515047431;0;True;20;2;179.8401617407868
98;98;1449488087;2.13839435577;0.804471194744;0.0687179341912;0;True;20;2;179.8401617407868
99;99;1449488087;2.13851928711;0.8046336174009999;0.0685193538666;0;True;20;2;179.8401617407868
100;100;1449488087;2.1383690834;0.804550528526;0.0686871409416;0;True;20;2;179.8401617407868
101;101;1449488087;2.13848352432;0.804665625095;0.068603143096;0;True;20;2;179.8401617407868
102;102;1449488087;2.1385595798500003;0.8048463463779999;0.0685286968946;0;True;20;2;179.8401617407868
103;103;1449488087;2.13851165771;0.8046136498450001;0.0686767846346;0;True;20;2;179.8401617407868
104;104;1449488087;2.1385383606;0.804655492306;0.06850784271959999;0;True;20;2;179.8401617407868
105;105;1449488087;2.1385416984599996;0.804688155651;0.0685629174113;0;True;20;2;179.8401617407868
106;106;1449488087;2.1385474205;0.804627716541;0.0684865787625;0;True;20;2;179.8401617407868
107;107;1449488087;2.13843131065;0.80456918478;0.0686898827553;0;True;20;2;179.8401617407868
108;108;1449488087;2.13846278191;0.804649174213;0.0686160102487;0;True;20;2;179.8401617407868
109;109;1449488087;2.1384446620900004;0.8046689629549999;0.06871869415040001;0;True;20;2;179.8401617407868
110;110;1449488087;2.13848638535;0.8046259284020001;0.0686644017696;0;True;20;2;179.8401617407868
111;111;1449488087;2.13855552673;0.8047388195990001;0.06859823316340001;0;True;20;2;179.8401617407868
112;112;1449488087;2.13838076591;0.804409444332;0.0686269178987;0;True;20;2;179.8401617407868
113;113;1449488087;2.1383664608;0.804445147514;0.0686390176415;0;True;20;2;179.8401617407868
114;114;1449488087;2.13845872879;0.8045360445980001;0.0687238350511;0;True;20;2;179.8401617407868
115;115;1449488087;2.1385087966900005;0.804544150829;0.068480104208;0;True;20;2;179.8401617407868
116;116;1449488087;2.1385695934299997;0.804717540741;0.0685368999839;0;True;20;2;179.8401617407868
117;117;1449488087;2.1384298801400003;0.8045014739040001;0.068625882268;0;True;20;2;179.8401617407868
118;118;1449488087;2.13851094246;0.804610788822;0.0684995576739;0;True;20;2;179.8401617407868
119;119;1449488087;2.13848257065;0.8046977519990001;0.06854548305269999;0;True;20;2;179.8401617407868
120;120;1449488087;2.13844060898;0.804598689079;0.06869005411859999;0;True;20;2;179.8401617407868
121;121;1449488087;2.13846635818;0.804632663727;0.068614050746;0;True;20;2;179.8401617407868
122;122;1449488087;2.13836479187;0.8045410513879999;0.06866307556630001;0;True;20;2;179.8401617407868
123;123;1449488087;2.13841128349;0.8045018315320001;0.0686946436763;0;True;20;2;179.8401617407868
124;124;1449488087;2.1385178566;0.804646074772;0.0684934183955;0;True;20;2;179.8401617407868
125;125;1449488087;2.1384882926900004;0.8045159578319999;0.068486340344;0;True;20;2;179.8401617407868
126;126;1449488087;2.13852286339;0.804618477821;0.0684863477945;0;True;20;2;179.8401617407868
127;127;1449488087;2.1384851932499997;0.8045132160189999;0.06848382949830001;0;True;20;2;179.8401617407868
128;128;1449488087;2.1384301185599996;0.8046613931659999;0.0686991065741;0;True;20;2;179.8401617407868
129;129;1449488087;2.1384971141799998;0.804568648338;0.06868258118630001;0;True;20;2;179.8401617407868
130;130;1449488087;2.13841700554;0.804621934891;0.068661570549;0;True;20;2;179.8401617407868
131;131;1449488087;2.1384069919599997;0.804582774639;0.0687452107668;0;True;20;2;179.8401617407868
132;132;1449488087;2.13841867447;0.804544627666;0.0686948597431;0;True;20;2;179.8401617407868
133;133;1449488087;2.1385431289700003;0.804693579674;0.0685204267502;0;True;20;2;179.8401617407868
134;134;1449488087;2.13841772079;0.804494798183;0.068680152297;0;True;20;2;179.8401617407868
135;135;1449488087;2.13853502274;0.804753124714;0.0685965791345;0;True;20;2;179.8401617407868
136;136;1449488087;2.1384563446000002;0.8047102093699999;0.0686170309782;0;True;20;2;179.8401617407868
137;137;1449488087;2.13842463493;0.8046442866329999;0.0686825141311;0;True;20;2;179.8401617407868
138;138;1449488087;2.13851881027;0.804687678814;0.0686315521598;0;True;20;2;179.8401617407868
139;139;1449488087;2.1384510994;0.804667115211;0.0686653852463;0;True;20;2;179.8401617407868
140;140;1449488087;2.13830685616;0.8045796155930001;0.0687045753002;0;True;20;2;179.8401617407868
141;141;1449488087;2.13847136497;0.804631829262;0.068672850728;0;True;20;2;179.8401617407868
142;142;1449488087;2.13853311539;0.804682195187;0.06864608079199999;0;True;20;2;179.8401617407868
143;143;1449488087;2.13858985901;0.804709136486;0.0684691146016;0;True;20;2;179.8401617407868
144;144;1449488087;2.1384143829299997;0.8045727014540001;0.0687442496419;0;True;20;2;179.8401617407868
145;145;1449488087;2.13828396797;0.8043227195739999;0.0687113553286;0;True;20;2;179.8401617407868
146;146;1449488087;2.13827228546;0.80430406332;0.0687150731683;0;True;20;2;179.8401617407868
147;147;1449488087;2.1383078098299997;0.8046381473540001;0.0686162412167;0;True;20;2;179.8401617407868
148;148;1449488087;2.13849973679;0.80463039875;0.0686551183462;0;True;20;2;179.8401617407868
149;149;1449488087;2.1384935379;0.804600059986;0.06867269426580001;0;True;20;2;179.8401617407868
150;150;1449488087;2.13841319084;0.8045689463619999;0.06874077022080001;0;True;20;2;179.8401617407868
151;151;1449488087;2.1383759975400003;0.80439221859;0.0686444491148;0;True;20;2;179.8401617407868
152;152;1449488087;2.13852310181;0.804608464241;0.06862536072730001;0;True;20;2;179.8401617407868
153;153;1449488087;2.13851952553;0.804580807686;0.0684739053249;0;True;20;2;179.8401617407868
154;154;1449488087;2.1385748386400003;0.804669380188;0.068479783833;0;True;20;2;179.8401617407868
155;155;1449488087;2.1385178566;0.8045363426209999;0.06847555935380001;0;True;20;2;179.8401617407868
156;156;1449488087;2.13841056824;0.804534316063;0.0686245784163;0;True;20;2;179.8401617407868
157;157;1449488087;2.1384954452500002;0.8045656681059999;0.0686728432775;0;True;20;2;179.8401617407868
158;158;1449488087;2.13836622238;0.804461836815;0.0686315149069;0;True;20;2;179.8401617407868
159;159;1449488087;2.13856887817;0.8046483993529999;0.0684923306108;0;True;20;2;179.8401617407868
160;160;1449488087;2.1384260654400005;0.804549336433;0.0686283931136;0;True;20;2;179.8401617407868
161;161;1449488087;2.13838887215;0.8043577671050001;0.0685289204121;0;True;20;2;179.8401617407868
162;162;1449488087;2.1382858753200003;0.804348826408;0.0687174499035;0;True;20;2;179.8401617407868
163;163;1449488087;2.1385173797599997;0.804639279842;0.0685932934284;0;True;20;2;179.8401617407868
164;164;1449488087;2.13852357864;0.804690063;0.0685116946697;0;True;20;2;179.8401617407868
165;165;1449488087;2.1385636329700004;0.804628252983;0.0684946775436;0;True;20;2;179.8401617407868
166;166;1449488087;2.13856315613;0.8047911524770001;0.06851380318400001;0;True;20;2;179.8401617407868
167;167;1449488087;2.13840389252;0.8045373559000001;0.06868699193;0;True;20;2;179.8401617407868
168;168;1449488087;2.1385159492500003;0.8045510649680001;0.0684622526169;0;True;20;2;179.8401617407868
169;169;1449488087;2.13852310181;0.8046225309370001;0.0684853047132;0;True;20;2;179.8401617407868
170;170;1449488087;2.1384115219099997;0.80452722311;0.0686423629522;0;True;20;2;179.8401617407868
171;171;1449488087;2.13831567764;0.804265141487;0.0686088874936;0;True;20;2;179.8401617407868
172;172;1449488087;2.1385164260900003;0.804568350315;0.0684566497803;0;True;20;2;179.8401617407868
173;173;1449488087;2.1382904052700002;0.8045763373370001;0.0687014609575;0;True;20;2;179.8401617407868
174;174;1449488087;2.1385216713;0.8046551346780001;0.0685051903129;0;True;20;2;179.8401617407868
175;175;1449488087;2.1384215354900005;0.8045899868009999;0.0687405392528;0;True;20;2;179.8401617407868
176;176;1449488087;2.1383771896400003;0.804528295994;0.068618580699;0;True;20;2;179.8401617407868
177;177;1449488087;2.1384062767;0.804493010044;0.06859767436980001;0;True;20;2;179.8401617407868
178;178;1449488087;2.13841509819;0.804531931877;0.068740695715;0;True;20;2;179.8401617407868
179;179;1449488087;2.13841199875;0.804511964321;0.068679407239;0;True;20;2;179.8401617407868
180;180;1449488088;2.13844943047;0.804972231388;0.06865920126439999;1;True;20;2;179.8401617407868
181;181;1449488088;2.13846969604;0.8045804500579999;0.06867235898969999;1;True;20;2;179.8401617407868
182;182;1449488088;2.13846254349;0.8046286702159999;0.06861250847580001;1;True;20;2;179.8401617407868
183;183;1449488088;2.13850045204;0.804580569267;0.0686227232218;1;True;20;2;179.8401617407868
184;184;1449488088;2.13852524757;0.8045727014540001;0.0688707381487;1;True;20;2;179.8401617407868
185;185;1449488088;2.1385416984599996;0.8046089410780001;0.0684721767902;1;True;20;2;179.8401617407868
186;186;1449488088;2.1383690834;0.804525852203;0.0686864182353;1;True;20;2;179.8401617407868
187;187;1449488088;2.13855695724;0.804608047009;0.0684966519475;1;True;20;2;179.8401617407868
188;188;1449488088;2.13854527473;0.804717898369;0.0684911236167;1;True;20;2;179.8401617407868
189;189;1449488088;2.13853621483;0.804581403732;0.0684933960438;1;True;20;2;179.8401617407868
190;190;1449488088;2.1384484767900003;0.804529070854;0.0686234608293;1;True;20;2;179.8401617407868
191;191;1449488088;2.13858175278;0.804618775845;0.06849250197409999;1;True;20;2;179.8401617407868
192;192;1449488088;2.13856077194;0.8046417236329999;0.06849811226130001;1;True;20;2;179.8401617407868
193;193;1449488088;2.1384632587400003;0.8045570850370001;0.0686859637499;1;True;20;2;179.8401617407868
194;194;1449488088;2.1385118961300003;0.80475962162;0.0686431229115;1;True;20;2;179.8401617407868
195;195;1449488088;2.13847112656;0.804706811905;0.0686118602753;1;True;20;2;179.8401617407868
196;196;1449488088;2.13856673241;0.804716229439;0.0686834603548;1;True;20;2;179.8401617407868
197;197;1449488088;2.1385281086;0.804600954056;0.068533077836;1;True;20;2;179.8401617407868
198;198;1449488088;2.13837146759;0.804530203342;0.0687019526958;1;True;20;2;179.8401617407868
199;199;1449488088;2.1385717391999997;0.80468082428;0.068486340344;1;True;20;2;179.8401617407868
200;200;1449488088;2.13837838173;0.8043438196179999;0.0686522647738;1;True;20;2;179.8401617407868
201;201;1449488088;2.1385474205;0.80477052927;0.0685461685061;1;True;20;2;179.8401617407868
202;202;1449488088;2.13855075836;0.804758727551;0.0685543045402;1;True;20;2;179.8401617407868
203;203;1449488088;2.13850975037;0.804825782776;0.0687112957239;1;True;20;2;179.8401617407868
204;204;1449488088;2.13850355148;0.804607987404;0.06857769936319999;1;True;20;2;179.8401617407868
205;205;1449488088;2.13827085495;0.804329931736;0.06877540797000001;1;True;20;2;179.8401617407868
206;206;1449488088;2.13858437538;0.8047198653219999;0.0684878975153;1;True;20;2;179.8401617407868
207;207;1449488088;2.13851380348;0.804630339146;0.0686801150441;1;True;20;2;179.8401617407868
208;208;1449488088;2.13851976395;0.804623603821;0.06849791854619999;1;True;20;2;179.8401617407868
209;209;1449488088;2.13830065727;0.804358780384;0.0687093287706;1;True;20;2;179.8401617407868
210;210;1449488088;2.13854122162;0.804775476456;0.0685322955251;1;True;20;2;179.8401617407868
211;211;1449488088;2.13848114014;0.804578363895;0.06854612380269999;1;True;20;2;179.8401617407868
212;212;1449488088;2.13849616051;0.8045619726180001;0.068697988987;1;True;20;2;179.8401617407868
213;213;1449488088;2.1384382247900002;0.8044744133949999;0.06886855512860002;1;True;20;2;179.8401617407868
214;214;1449488088;2.1384344101;0.804611742496;0.068682000041;1;True;20;2;179.8401617407868
215;215;1449488088;2.1385266780900003;0.804801762104;0.0685905963182;1;True;20;2;179.8401617407868
216;216;1449488088;2.1384851932499997;0.8046293258670001;0.0686544775963;1;True;20;2;179.8401617407868
217;217;1449488088;2.13856887817;0.804694592953;0.0685246810317;1;True;20;2;179.8401617407868
218;218;1449488088;2.13847064972;0.804586231709;0.0686279311776;1;True;20;2;179.8401617407868
219;219;1449488088;2.1384782791099997;0.804623544216;0.0686558932066;1;True;20;2;179.8401617407868
220;220;1449488088;2.138463974;0.804650902748;0.0686270669103;1;True;20;2;179.8401617407868
221;221;1449488088;2.1385271549200002;0.8047170639040001;0.0684901550412;1;True;20;2;179.8401617407868
222;222;1449488088;2.1384255886099997;0.804839909077;0.0686406120658;1;True;20;2;179.8401617407868
223;223;1449488088;2.1385219097099997;0.8046143054960001;0.0684527605772;1;True;20;2;179.8401617407868
224;224;1449488088;2.13852214813;0.8046423196789999;0.0684834122658;1;True;20;2;179.8401617407868
225;225;1449488088;2.13846611977;0.804531633854;0.0685341730714;1;True;20;2;179.8401617407868
226;226;1449488088;2.13846731186;0.804709136486;0.0685912370682;1;True;20;2;179.8401617407868
227;227;1449488088;2.13851952553;0.8045410513879999;0.068470440805;1;True;20;2;179.8401617407868
228;228;1449488088;2.13850021362;0.804609894753;0.0684902742505;1;True;20;2;179.8401617407868
229;229;1449488088;2.13840913773;0.804574489594;0.06871300935750001;1;True;20;2;179.8401617407868
230;230;1449488088;2.13853502274;0.8046872019769999;0.06852292269469999;1;True;20;2;179.8401617407868
231;231;1449488088;2.13847255707;0.80458176136;0.0686310902238;1;True;20;2;179.8401617407868
232;232;1449488088;2.13851547241;0.804531931877;0.0684705376625;1;True;20;2;179.8401617407868
233;233;1449488088;2.13852858543;0.804815769196;0.0686586722732;1;True;20;2;179.8401617407868
234;234;1449488088;2.13860058784;0.804780125618;0.06853792816399999;1;True;20;2;179.8401617407868
235;235;1449488088;2.13853001595;0.804651498795;0.0684681162238;1;True;20;2;179.8401617407868
236;236;1449488088;2.13851881027;0.804751932621;0.0685968250036;1;True;20;2;179.8401617407868
237;237;1449488088;2.13835692406;0.804329812527;0.0687041208148;1;True;20;2;179.8401617407868
238;238;1449488088;2.13847970963;0.804584980011;0.0686144754291;1;True;20;2;179.8401617407868
239;239;1449488088;2.1384472847;0.80454480648;0.068635456264;1;True;20;2;179.8401617407868
240;240;1449488088;2.1384704113;0.804629683495;0.0686373487115;1;True;20;2;179.8401617407868
241;241;1449488088;2.1385288238499998;0.804614424706;0.0684982389212;1;True;20;2;179.8401617407868
242;242;1449488088;2.13848805428;0.804519593716;0.0684927776456;1;True;20;2;179.8401617407868
243;243;1449488088;2.13854670525;0.804674685001;0.06861279159780001;1;True;20;2;179.8401617407868
244;244;1449488088;2.1384100914;0.804504692554;0.0686936974525;1;True;20;2;179.8401617407868
245;245;1449488088;2.1384897232099997;0.8046422004699999;0.0686184391379;1;True;20;2;179.8401617407868
246;246;1449488088;2.1384882926900004;0.804624736309;0.0686032474041;1;True;20;2;179.8401617407868
247;247;1449488088;2.13827824593;0.804349958897;0.0687080547214;1;True;20;2;179.8401617407868
248;248;1449488088;2.13843917847;0.804443836212;0.0685247778893;1;True;20;2;179.8401617407868
249;249;1449488088;2.13853645325;0.804623663425;0.0684601888061;1;True;20;2;179.8401617407868
250;250;1449488088;2.1385226249700002;0.804572761059;0.068462818861;1;True;20;2;179.8401617407868
251;251;1449488088;2.13853096962;0.804620027542;0.0684616193175;1;True;20;2;179.8401617407868
252;252;1449488088;2.13853812218;0.8045967817309999;0.0684975013137;1;True;20;2;179.8401617407868
253;253;1449488088;2.1384387016299997;0.8049563169480001;0.0686584040523;1;True;20;2;179.8401617407868
254;254;1449488088;2.1384983062700003;0.8045852780339999;0.0685080587864;1;True;20;2;179.8401617407868
255;255;1449488088;2.13842248917;0.804501593113;0.0686897709966;1;True;20;2;179.8401617407868
256;256;1449488088;2.13851499557;0.804608762264;0.0685969367623;1;True;20;2;179.8401617407868
257;257;1449488088;2.13848638535;0.804638922215;0.06853856146340001;1;True;20;2;179.8401617407868
258;258;1449488088;2.13841772079;0.804582118988;0.06872791051860001;1;True;20;2;179.8401617407868
259;259;1449488088;2.13843917847;0.8044254779819999;0.068507514894;1;True;20;2;179.8401617407868
260;260;1449488088;2.1385602951;0.8048211932179999;0.068445853889;1;True;20;2;179.8401617407868
261;261;1449488088;2.13847851753;0.804484307766;0.06848740577700001;1;True;20;2;179.8401617407868
262;262;1449488088;2.1385424137099998;0.804809391499;0.0685412064195;1;True;20;2;179.8401617407868
263;263;1449488088;2.13842773438;0.804712831974;0.068654499948;1;True;20;2;179.8401617407868
264;264;1449488088;2.13825035095;0.804303884506;0.0686823055148;1;True;20;2;179.8401617407868
265;265;1449488088;2.13839554787;0.804494857788;0.0686239302158;1;True;20;2;179.8401617407868
266;266;1449488088;2.13846111298;0.804643929005;0.0687724128366;1;True;20;2;179.8401617407868
267;267;1449488088;2.13837218285;0.804532468319;0.06867359578610001;1;True;20;2;179.8401617407868
268;268;1449488088;2.13831043243;0.804546415806;0.0686557143927;1;True;20;2;179.8401617407868
269;269;1449488088;2.13849496841;0.8046795725820001;0.06864775717260001;1;True;20;2;179.8401617407868
270;270;1449488088;2.1385126113900004;0.804535984993;0.06844218075280001;1;True;20;2;179.8401617407868
271;271;1449488088;2.13839173317;0.8045152425769999;0.0686004459858;1;True;20;2;179.8401617407868
272;272;1449488088;2.1384048461900003;0.8044959306720001;0.0686903893948;1;True;20;2;179.8401617407868
273;273;1449488088;2.13853263855;0.8047994971279999;0.06845971196890001;1;True;20;2;179.8401617407868
274;274;1449488088;2.1384782791099997;0.8044919967649999;0.0684521943331;1;True;20;2;179.8401617407868
275;275;1449488088;2.1384096145599996;0.8046323060989999;0.0686129629612;1;True;20;2;179.8401617407868
276;276;1449488088;2.13855552673;0.804796814919;0.0684582144022;1;True;20;2;179.8401617407868
277;277;1449488088;2.1385266780900003;0.8046934604639999;0.0684830099344;1;True;20;2;179.8401617407868
278;278;1449488088;2.1382427215599997;0.8043088316920001;0.0687110498548;1;True;20;2;179.8401617407868
279;279;1449488088;2.13841557503;0.804267823696;0.0687152296305;1;True;20;2;179.8401617407868
280;280;1449488088;2.13837385178;0.804540932178;0.0687150508165;1;True;20;2;179.8401617407868
281;281;1449488088;2.13826036453;0.8043359518050001;0.0687039792538;1;True;20;2;179.8401617407868
282;282;1449488088;2.1385204792;0.804620921612;0.0684840977192;1;True;20;2;179.8401617407868
283;283;1449488088;2.13853669167;0.804701685905;0.0684920847416;1;True;20;2;179.8401617407868
284;284;1449488088;2.1383368969;0.804444015026;0.0687477365136;1;True;20;2;179.8401617407868
285;285;1449488088;2.13846206665;0.804644048214;0.0686098635197;1;True;20;2;179.8401617407868
286;286;1449488088;2.13845086098;0.804616808891;0.0686551854014;1;True;20;2;179.8401617407868
287;287;1449488088;2.13846111298;0.804479300976;0.0686325356364;1;True;20;2;179.8401617407868
288;288;1449488088;2.13841938972;0.8046470880509999;0.0685533359647;1;True;20;2;179.8401617407868
289;289;1449488088;2.13847208023;0.8046433329580001;0.06858776509759999;1;True;20;2;179.8401617407868
290;290;1449488088;2.1383895874000003;0.804526925087;0.0687216371298;1;True;20;2;179.8401617407868
291;291;1449488088;2.1385517120400004;0.8047613501549999;0.0685047358274;1;True;20;2;179.8401617407868
292;292;1449488088;2.13845562935;0.804508805275;0.068606890738;1;True;20;2;179.8401617407868
293;293;1449488088;2.13853645325;0.804629981518;0.0686488673091;1;True;20;2;179.8401617407868
294;294;1449488088;2.13848018646;0.80468672514;0.0686337649822;1;True;20;2;179.8401617407868
295;295;1449488088;2.13848543167;0.804430663586;0.0684855729342;1;True;20;2;179.8401617407868
296;296;1449488088;2.13837957382;0.804897129536;0.0687244683504;1;True;20;2;179.8401617407868
297;297;1449488088;2.13861250877;0.8047897219660001;0.068461984396;1;True;20;2;179.8401617407868
298;298;1449488088;2.13853025436;0.804600477219;0.0684594139457;1;True;20;2;179.8401617407868
299;299;1449488088;2.1385769844099998;0.804684102535;0.0684608072042;1;True;20;2;179.8401617407868
300;300;1449488088;2.1384532451599996;0.804588317871;0.0686318874359;1;True;20;2;179.8401617407868
301;301;1449488088;2.13843512535;0.804670989513;0.0685994029045;1;True;20;2;179.8401617407868
302;302;1449488088;2.13844513893;0.8043594360349999;0.06865902990100001;1;True;20;2;179.8401617407868
303;303;1449488088;2.13852357864;0.804598391056;0.06847500801090001;1;True;20;2;179.8401617407868
304;304;1449488088;2.13854432106;0.8047422766689999;0.0684990137815;1;True;20;2;179.8401617407868
305;305;1449488088;2.13851904869;0.804592013359;0.0684793144464;1;True;20;2;179.8401617407868
306;306;1449488088;2.1385645866400003;0.804696977139;0.0686335265636;1;True;20;2;179.8401617407868
307;307;1449488088;2.13857007027;0.804696202278;0.06845972687009999;1;True;20;2;179.8401617407868
308;308;1449488088;2.13851928711;0.8046697378159999;0.0686259940267;1;True;20;2;179.8401617407868
309;309;1449488088;2.13854527473;0.804633021355;0.06849350780249999;1;True;20;2;179.8401617407868
310;310;1449488088;2.13851213455;0.8045979142190001;0.0684765800834;1;True;20;2;179.8401617407868
311;311;1449488088;2.13843917847;0.804518699646;0.0686262100935;1;True;20;2;179.8401617407868
312;312;1449488088;2.1384999752000002;0.804627478123;0.068641372025;1;True;20;2;179.8401617407868
313;313;1449488088;2.13829684258;0.804214000702;0.0687159001827;1;True;20;2;179.8401617407868
314;314;1449488088;2.13842391968;0.8045271635060001;0.0686700418591;1;True;20;2;179.8401617407868
315;315;1449488088;2.1384122371700003;0.8045380711560001;0.068669565022;1;True;20;2;179.8401617407868
316;316;1449488088;2.13849449158;0.8046479225159999;0.068631246686;1;True;20;2;179.8401617407868
317;317;1449488088;2.1385040283200003;0.804614841938;0.0686212480068;1;True;20;2;179.8401617407868
318;318;1449488088;2.13846349716;0.8045169711110001;0.0685183107853;1;True;20;2;179.8401617407868
319;319;1449488088;2.13839626312;0.804470181465;0.0686613097787;1;True;20;2;179.8401617407868
320;320;1449488088;2.13838124275;0.8044772148129999;0.0686379149556;1;True;20;2;179.8401617407868
321;321;1449488088;2.1384837627400004;0.804566502571;0.0685908421874;1;True;20;2;179.8401617407868
322;322;1449488088;2.13856315613;0.804584562778;0.0684650838375;1;True;20;2;179.8401617407868
323;323;1449488088;2.13852238655;0.804656207561;0.0685344338417;1;True;20;2;179.8401617407868
324;324;1449488088;2.13852953911;0.8045946359630001;0.0684732720256;1;True;20;2;179.8401617407868
325;325;1449488088;2.13851428032;0.804594933987;0.0684780627489;1;True;20;2;179.8401617407868
326;326;1449488088;2.13841795921;0.804437637329;0.06850755214689999;1;True;20;2;179.8401617407868
327;327;1449488088;2.13848638535;0.804634332657;0.0686171874404;1;True;20;2;179.8401617407868
328;328;1449488088;2.13851118088;0.804540514946;0.0686161145568;1;True;20;2;179.8401617407868
329;329;1449488088;2.13857340813;0.8046422004699999;0.0684474930167;1;True;20;2;179.8401617407868
330;330;1449488088;2.13862037659;0.804679274559;0.0684772655368;1;True;20;2;179.8401617407868
331;331;1449488088;2.13831043243;0.8043191432950001;0.0686977952719;1;True;20;2;179.8401617407868
332;332;1449488088;2.13850712776;0.804662227631;0.06862370669840001;1;True;20;2;179.8401617407868
333;333;1449488088;2.13828396797;0.804299235344;0.0687085911632;1;True;20;2;179.8401617407868
334;334;1449488088;2.13844251633;0.8044640421870001;0.06858081370590001;1;True;20;2;179.8401617407868
335;335;1449488088;2.13845205307;0.8045777678489999;0.06865301728249999;1;True;20;2;179.8401617407868
336;336;1449488088;2.1384484767900003;0.8044962883;0.0686087831855;1;True;20;2;179.8401617407868
337;337;1449488088;2.13854289055;0.804707169533;0.0685656741261;1;True;20;2;179.8401617407868
338;338;1449488088;2.13843750954;0.804470479488;0.0686902627349;1;True;20;2;179.8401617407868
339;339;1449488088;2.13845872879;0.8045178651809999;0.06861524283890001;1;True;20;2;179.8401617407868
340;340;1449488088;2.1385979652400002;0.8046770095829999;0.0685245841742;1;True;20;2;179.8401617407868
341;341;1449488088;2.1384446620900004;0.80453568697;0.06867852807040001;1;True;20;2;179.8401617407868
342;342;1449488088;2.1384987831099997;0.8046013116840001;0.0686440691352;1;True;20;2;179.8401617407868
343;343;1449488088;2.13845252991;0.8045053482060001;0.0686007738113;1;True;20;2;179.8401617407868
344;344;1449488088;2.13854432106;0.804689109325;0.06859117746349999;1;True;20;2;179.8401617407868
345;345;1449488088;2.1386013031;0.804671525955;0.0685337856412;1;True;20;2;179.8401617407868
346;346;1449488088;2.1385641098;0.804635763168;0.0685056447983;1;True;20;2;179.8401617407868
347;347;1449488088;2.1383221149400002;0.804351627827;0.0687156096101;1;True;20;2;179.8401617407868
348;348;1449488088;2.1385896205900004;0.8046444058419999;0.0685339719057;1;True;20;2;179.8401617407868
349;349;1449488088;2.1382989883400003;0.804322481155;0.0687167197466;1;True;20;2;179.8401617407868
350;350;1449488088;2.13840007782;0.804517567158;0.06866984069349999;1;True;20;2;179.8401617407868
351;351;1449488088;2.13831663132;0.804340779781;0.0687064900994;1;True;20;2;179.8401617407868
352;352;1449488088;2.13857626915;0.8046832084659999;0.0685026869178;1;True;20;2;179.8401617407868
353;353;1449488088;2.13843035698;0.8043738603589999;0.0686557665467;1;True;20;2;179.8401617407868
354;354;1449488088;2.13845658302;0.8046824336049999;0.0686544030905;1;True;20;2;179.8401617407868
355;355;1449488088;2.13850927353;0.804630756378;0.068631067872;1;True;20;2;179.8401617407868
356;356;1449488088;2.13847208023;0.804396748543;0.0685323998332;1;True;20;2;179.8401617407868
357;357;1449488088;2.1385087966900005;0.8046689033509999;0.068774305284;1;True;20;2;179.8401617407868
358;358;1449488088;2.1385312080400003;0.8046324253079999;0.0686365589499;1;True;20;2;179.8401617407868
359;359;1449488088;2.1385447979;0.804615736008;0.0684660226107;1;True;20;2;179.8401617407868
360;360;1449488088;2.13857769966;0.804748415947;0.068500623107;1;True;20;2;179.8401617407868
361;361;1449488088;2.13835120201;0.804515719414;0.06867524236440001;1;True;20;2;179.8401617407868
362;362;1449488088;2.138412714;0.8045377731319999;0.068688519299;1;True;20;2;179.8401617407868
363;363;1449488088;2.1384832859;0.8047212362289999;0.0685951784253;1;True;20;2;179.8401617407868
364;364;1449488088;2.13837742805;0.804520308971;0.0686650276184;1;True;20;2;179.8401617407868
365;365;1449488088;2.13845920563;0.804505765438;0.06868246942760001;1;True;20;2;179.8401617407868
366;366;1449488088;2.13851165771;0.804579555988;0.0686087757349;1;True;20;2;179.8401617407868
367;367;1449488088;2.1386029720299997;0.8048711419110001;0.06854037940499999;1;True;20;2;179.8401617407868
368;368;1449488088;2.13856720924;0.804661631584;0.06848250329490001;1;True;20;2;179.8401617407868
369;369;1449488088;2.1383869648;0.804437756538;0.06866926699880001;1;True;20;2;179.8401617407868
370;370;1449488088;2.13847446442;0.8046938776970001;0.0686718150973;1;True;20;2;179.8401617407868
371;371;1449488088;2.1385941505400003;0.804618179798;0.0684868171811;1;True;20;2;179.8401617407868
372;372;1449488088;2.13854265213;0.804606676102;0.0686445310712;1;True;20;2;179.8401617407868
373;373;1449488088;2.13844347;0.804509162903;0.0686092972755;1;True;20;2;179.8401617407868
374;374;1449488088;2.1384370327;0.804552435875;0.068672336638;1;True;20;2;179.8401617407868
375;375;1449488088;2.13832473755;0.804349422455;0.06864185631280001;1;True;20;2;179.8401617407868
376;376;1449488088;2.13854289055;0.804610013962;0.0684858337045;1;True;20;2;179.8401617407868
377;377;1449488088;2.1384122371700003;0.8045271635060001;0.0686888769269;1;True;20;2;179.8401617407868
378;378;1449488088;2.13841986656;0.804532706738;0.0686932355165;1;True;20;2;179.8401617407868
379;379;1449488088;2.13837742805;0.804369151592;0.0686207711697;1;True;20;2;179.8401617407868
380;380;1449488088;2.13854408264;0.804626166821;0.0685840845108;1;True;20;2;179.8401617407868
381;381;1449488088;2.13853311539;0.8045979142190001;0.0686366856098;1;True;20;2;179.8401617407868
382;382;1449488088;2.13856267929;0.804797887802;0.06869845092299999;1;True;20;2;179.8401617407868
383;383;1449488088;2.1385538578;0.8046828508380001;0.0685568973422;1;True;20;2;179.8401617407868
384;384;1449488088;2.13858246803;0.804686248302;0.0685088708997;1;True;20;2;179.8401617407868
385;385;1449488088;2.13854646683;0.804748535156;0.06858291476959999;1;True;20;2;179.8401617407868
386;386;1449488088;2.1385085582700003;0.804587244987;0.0685985386372;1;True;20;2;179.8401617407868
387;387;1449488088;2.13855099678;0.8045264482500001;0.0684376806021;1;True;20;2;179.8401617407868
388;388;1449488088;2.1382932663;0.804455697536;0.0687368959188;1;True;20;2;179.8401617407868
389;389;1449488088;2.13850522041;0.80463385582;0.0685943067074;1;True;20;2;179.8401617407868
390;390;1449488088;2.1384704113;0.804573595524;0.0686336457729;1;True;20;2;179.8401617407868
391;391;1449488088;2.13856434822;0.8046103119850001;0.06846671551469999;1;True;20;2;179.8401617407868
392;392;1449488088;2.1385288238499998;0.8045625686650001;0.068667396903;1;True;20;2;179.8401617407868
393;393;1449488088;2.13858127594;0.8047320842739999;0.06846881657840001;1;True;20;2;179.8401617407868
394;394;1449488088;2.13855004311;0.8045516610150001;0.0684538409114;1;True;20;2;179.8401617407868
395;395;1449488088;2.13851046562;0.8048363327979999;0.0686305388808;1;True;20;2;179.8401617407868
396;396;1449488088;2.13845920563;0.804635047913;0.0686276182532;1;True;20;2;179.8401617407868
397;397;1449488088;2.13858580589;0.8046701550480001;0.0684369876981;1;True;20;2;179.8401617407868
398;398;1449488088;2.13843774796;0.804537117481;0.0687367767096;1;True;20;2;179.8401617407868
399;399;1449488088;2.13853478432;0.804477334023;0.0684508010745;1;True;20;2;179.8401617407868
400;400;1449488088;2.13851308823;0.804667294025;0.068634018302;1;True;20;2;179.8401617407868
401;401;1449488088;2.13853621483;0.804634451866;0.0686149150133;1;True;20;2;179.8401617407868
402;402;1449488088;2.1383266449000002;0.8043446540829999;0.0686772093177;1;True;20;2;179.8401617407868
403;403;1449488088;2.13852787018;0.804522871971;0.06844145804639999;1;True;20;2;179.8401617407868
404;404;1449488088;2.13853240013;0.804632365704;0.0686272606254;1;True;20;2;179.8401617407868
405;405;1449488088;2.1384692192099997;0.804692327976;0.0685653015971;1;True;20;2;179.8401617407868
406;406;1449488088;2.1384048461900003;0.804357528687;0.0685989931226;1;True;20;2;179.8401617407868
407;407;1449488088;2.1384518146500002;0.804527640343;0.06862664967780001;1;True;20;2;179.8401617407868
408;408;1449488088;2.13841319084;0.8044095039370001;0.068621776998;1;True;20;2;179.8401617407868
409;409;1449488088;2.13835024834;0.804886102676;0.06870718300340001;1;True;20;2;179.8401617407868
410;410;1449488088;2.13848638535;0.804455578327;0.06844498962159999;1;True;20;2;179.8401617407868
411;411;1449488088;2.13837957382;0.804392635822;0.0686192512512;1;True;20;2;179.8401617407868
412;412;1449488088;2.13849759102;0.804510772228;0.0684477835894;1;True;20;2;179.8401617407868
413;413;1449488088;2.13850045204;0.8045687675480001;0.0684912055731;1;True;20;2;179.8401617407868
414;414;1449488088;2.13861107826;0.8047351837160001;0.0684435218573;1;True;20;2;179.8401617407868
415;415;1449488088;2.13839387894;0.804510712624;0.0686719343066;1;True;20;2;179.8401617407868
416;416;1449488088;2.1385650634799998;0.804671823978;0.0685444101691;1;True;20;2;179.8401617407868
417;417;1449488088;2.13852334023;0.804590642452;0.0684673637152;1;True;20;2;179.8401617407868
418;418;1449488088;2.13849568367;0.804563522339;0.0684978738427;1;True;20;2;179.8401617407868
419;419;1449488089;2.1384122371700003;0.804517626762;0.0686613768339;2;True;20;2;179.8401617407868
420;420;1449488089;2.1382672786700003;0.8043027520180001;0.0686975419521;2;True;20;2;179.8401617407868
421;421;1449488089;2.1384935379;0.804560244083;0.0685888901353;2;True;20;2;179.8401617407868
422;422;1449488089;2.13857889175;0.804779648781;0.0684427917004;2;True;20;2;179.8401617407868
423;423;1449488089;2.1384370327;0.804523587227;0.0686016231775;2;True;20;2;179.8401617407868
424;424;1449488089;2.138484478;0.804944336414;0.0686239749193;2;True;20;2;179.8401617407868
425;425;1449488089;2.13842749596;0.804511487484;0.0685950219631;2;True;20;2;179.8401617407868
426;426;1449488089;2.13850903511;0.8046347498890001;0.06859852373599999;2;True;20;2;179.8401617407868
427;427;1449488089;2.1385114193;0.804628133774;0.068597689271;2;True;20;2;179.8401617407868
428;428;1449488089;2.1383824348400005;0.8045489788060001;0.06865027546880001;2;True;20;2;179.8401617407868
429;429;1449488089;2.13840818405;0.804275870323;0.0686868280172;2;True;20;2;179.8401617407868
430;430;1449488089;2.13859510422;0.804760754108;0.0685561671853;2;True;20;2;179.8401617407868
431;431;1449488089;2.13828969002;0.804329037666;0.0687190145254;2;True;20;2;179.8401617407868
432;432;1449488089;2.1385655403099997;0.804769933224;0.0685013458133;2;True;20;2;179.8401617407868
433;433;1449488089;2.13854837418;0.804604589939;0.0686351656914;2;True;20;2;179.8401617407868
434;434;1449488089;2.1384069919599997;0.804504513741;0.06866545975209999;2;True;20;2;179.8401617407868
435;435;1449488089;2.13856601715;0.8046468496320001;0.068504832685;2;True;20;2;179.8401617407868
436;436;1449488089;2.1383094787599997;0.804324328899;0.06872195750469999;2;True;20;2;179.8401617407868
437;437;1449488089;2.13859009743;0.804835021496;0.0685444921255;2;True;20;2;179.8401617407868
438;438;1449488089;2.1384260654400005;0.8044657111169999;0.0686903446913;2;True;20;2;179.8401617407868
439;439;1449488089;2.13846802711;0.804532706738;0.0686820149422;2;True;20;2;179.8401617407868
440;440;1449488089;2.13842201233;0.804492235184;0.0686993896961;2;True;20;2;179.8401617407868
441;441;1449488089;2.13848614693;0.8046103119850001;0.0686697587371;2;True;20;2;179.8401617407868
442;442;1449488089;2.13837742805;0.8045093417170001;0.0686707049608;2;True;20;2;179.8401617407868
443;443;1449488089;2.1385405063599996;0.8046181201929999;0.06849937886;2;True;20;2;179.8401617407868
444;444;1449488089;2.1384506225599997;0.804575264454;0.0687360465527;2;True;20;2;179.8401617407868
445;445;1449488089;2.13859224319;0.8047484755519999;0.0685373917222;2;True;20;2;179.8401617407868
446;446;1449488089;2.13855671883;0.804690778255;0.0686283782125;2;True;20;2;179.8401617407868
447;447;1449488089;2.13833165169;0.804376602173;0.06869921088219999;2;True;20;2;179.8401617407868
448;448;1449488089;2.13841056824;0.804405927658;0.0686199739575;2;True;20;2;179.8401617407868
449;449;1449488089;2.1384971141799998;0.804531931877;0.0686749368906;2;True;20;2;179.8401617407868
450;450;1449488089;2.13853955269;0.8047925829889999;0.068605683744;2;True;20;2;179.8401617407868
451;451;1449488089;2.13847017288;0.804637074471;0.0687222853303;2;True;20;2;179.8401617407868
452;452;1449488089;2.13849329948;0.8045839071269999;0.0686270967126;2;True;20;2;179.8401617407868
453;453;1449488089;2.13846874237;0.804389715195;0.0685224384069;2;True;20;2;179.8401617407868
454;454;1449488089;2.1384658813499997;0.8046228289599999;0.0686796754599;2;True;20;2;179.8401617407868
455;455;1449488089;2.13842201233;0.804468095303;0.068593762815;2;True;20;2;179.8401617407868
456;456;1449488089;2.13848948479;0.804593861103;0.0687791034579;2;True;20;2;179.8401617407868
457;457;1449488089;2.13838911057;0.804432451725;0.06863327324389999;2;True;20;2;179.8401617407868
458;458;1449488089;2.13844752312;0.8044912815090001;0.0686824247241;2;True;20;2;179.8401617407868
459;459;1449488089;2.13841056824;0.8045695424079999;0.0686687603593;2;True;20;2;179.8401617407868
460;460;1449488089;2.13856220245;0.804758071899;0.0685184821486;2;True;20;2;179.8401617407868
461;461;1449488089;2.1383759975400003;0.804520726204;0.06866926699880001;2;True;20;2;179.8401617407868
462;462;1449488089;2.13843536377;0.804568529129;0.06873366981739999;2;True;20;2;179.8401617407868
463;463;1449488089;2.13849973679;0.804535984993;0.0686821639538;2;True;20;2;179.8401617407868
464;464;1449488089;2.13842964172;0.804692387581;0.0686142742634;2;True;20;2;179.8401617407868
465;465;1449488089;2.13851332664;0.804615676403;0.068864390254;2;True;20;2;179.8401617407868
466;466;1449488089;2.13845920563;0.8046137094499999;0.0686786398292;2;True;20;2;179.8401617407868
467;467;1449488089;2.13850307465;0.8048243522640001;0.0686890184879;2;True;20;2;179.8401617407868
468;468;1449488089;2.13846135139;0.804640114307;0.0686099082232;2;True;20;2;179.8401617407868
469;469;1449488089;2.13854575157;0.804670572281;0.0686276853085;2;True;20;2;179.8401617407868
470;470;1449488089;2.13851165771;0.8045620322229999;0.0686609745026;2;True;20;2;179.8401617407868
471;471;1449488089;2.13829064369;0.8043471574779999;0.0686974003911;2;True;20;2;179.8401617407868
472;472;1449488089;2.13849925995;0.804425835609;0.0684751495719;2;True;20;2;179.8401617407868
473;473;1449488089;2.13850617409;0.8045763969419999;0.06860188394780001;2;True;20;2;179.8401617407868
474;474;1449488089;2.13835525513;0.8042690753939999;0.0685984864831;2;True;20;2;179.8401617407868
475;475;1449488089;2.13853693008;0.804485082626;0.0684652626514;2;True;20;2;179.8401617407868
476;476;1449488089;2.1384768486000003;0.8044914007189999;0.0686799883842;2;True;20;2;179.8401617407868
477;477;1449488089;2.1383974552200002;0.804567635059;0.0686355605721;2;True;20;2;179.8401617407868
478;478;1449488089;2.13850903511;0.804574489594;0.0685911998153;2;True;20;2;179.8401617407868
479;479;1449488089;2.13849186897;0.804740309715;0.0685356929898;2;True;20;2;179.8401617407868
480;480;1449488089;2.1383521556900003;0.8041281104090001;0.0686861798167;2;True;20;2;179.8401617407868
481;481;1449488089;2.1385076046;0.8047287464139999;0.06868047267199999;2;True;20;2;179.8401617407868
482;482;1449488089;2.1385655403099997;0.804650902748;0.0684960484505;2;True;20;2;179.8401617407868
483;483;1449488089;2.13849782944;0.8044825196269999;0.0687916427851;2;True;20;2;179.8401617407868
484;484;1449488089;2.13815236092;0.8045286536220001;0.06860774755480001;2;True;20;2;179.8401617407868
485;485;1449488089;2.1384704113;0.804506599903;0.0686735808849;2;True;20;2;179.8401617407868
486;486;1449488089;2.13854527473;0.804598271847;0.068437024951;2;True;20;2;179.8401617407868
487;487;1449488089;2.1385769844099998;0.8048093318940001;0.0684728249907;2;True;20;2;179.8401617407868
488;488;1449488089;2.13831567764;0.80430918932;0.0686730965972;2;True;20;2;179.8401617407868
489;489;1449488089;2.13843226433;0.804508805275;0.0685896426439;2;True;20;2;179.8401617407868
490;490;1449488089;2.13842654228;0.8045165538789999;0.0686659663916;2;True;20;2;179.8401617407868
491;491;1449488089;2.1384062767;0.80451208353;0.06864298880099999;2;True;20;2;179.8401617407868
492;492;1449488089;2.13848781586;0.8045581579209999;0.0685783326626;2;True;20;2;179.8401617407868
493;493;1449488089;2.1384143829299997;0.8044552803039999;0.06866363435980001;2;True;20;2;179.8401617407868
494;494;1449488089;2.13846230507;0.804522693157;0.0685858875513;2;True;20;2;179.8401617407868
495;495;1449488089;2.13847064972;0.8045613765719999;0.0686568021774;2;True;20;2;179.8401617407868
496;496;1449488089;2.13853359222;0.8047504425049999;0.0685696899891;2;True;20;2;179.8401617407868
497;497;1449488089;2.13849520683;0.804566502571;0.0685932636261;2;True;20;2;179.8401617407868
498;498;1449488089;2.13855981827;0.8045943975450001;0.06847375631330001;2;True;20;2;179.8401617407868
499;499;1449488089;2.13845157623;0.8045131564139999;0.0685769990087;2;True;20;2;179.8401617407868
500;500;1449488089;2.13850283623;0.804647684097;0.0686041563749;2;True;20;2;179.8401617407868
501;501;1449488089;2.13842391968;0.8045559525489999;0.068669334054;2;True;20;2;179.8401617407868
502;502;1449488089;2.1382958888999997;0.8042795062070001;0.068679638207;2;True;20;2;179.8401617407868
503;503;1449488089;2.13835787773;0.8044207692149999;0.06865401566030001;2;True;20;2;179.8401617407868
504;504;1449488089;2.13837122917;0.8044437170029999;0.06886824965480001;2;True;20;2;179.8401617407868
505;505;1449488089;2.13840866089;0.8045023083689999;0.0687005072832;2;True;20;2;179.8401617407868
506;506;1449488089;2.13851046562;0.8045531511310001;0.06856364756819999;2;True;20;2;179.8401617407868
507;507;1449488089;2.13840675354;0.804507672787;0.068653434515;2;True;20;2;179.8401617407868
508;508;1449488089;2.13842368126;0.804510891438;0.0685800090432;2;True;20;2;179.8401617407868
509;509;1449488089;2.13856744766;0.8046160936360001;0.0684710070491;2;True;20;2;179.8401617407868
510;510;1449488089;2.13846063614;0.804532289505;0.0685865134001;2;True;20;2;179.8401617407868
511;511;1449488089;2.1384074688;0.8045071363449999;0.0686422437429;2;True;20;2;179.8401617407868
512;512;1449488089;2.13838887215;0.804421186447;0.0686508789659;2;True;20;2;179.8401617407868
513;513;1449488089;2.13846874237;0.8043918013570001;0.06849378347400001;2;True;20;2;179.8401617407868
514;514;1449488089;2.1384387016299997;0.8045214414599999;0.06861949712040001;2;True;20;2;179.8401617407868
515;515;1449488089;2.13842582703;0.804625093937;0.0686451196671;2;True;20;2;179.8401617407868
516;516;1449488089;2.13849925995;0.804526269436;0.06866825371980001;2;True;20;2;179.8401617407868
517;517;1449488089;2.1385166645099996;0.804614961147;0.0686336383224;2;True;20;2;179.8401617407868
518;518;1449488089;2.13846349716;0.804493188858;0.06866909563540001;2;True;20;2;179.8401617407868
519;519;1449488089;2.13858890533;0.804676651955;0.0684459730983;2;True;20;2;179.8401617407868
520;520;1449488089;2.1382689476;0.804286777973;0.0687191709876;2;True;20;2;179.8401617407868
521;521;1449488089;2.13850474358;0.804556429386;0.06850913167;2;True;20;2;179.8401617407868
522;522;1449488089;2.1385068893400003;0.804575204849;0.0686629861593;2;True;20;2;179.8401617407868
523;523;1449488089;2.13845133781;0.804495215416;0.06860490143299999;2;True;20;2;179.8401617407868
524;524;1449488089;2.13850212097;0.804608762264;0.0686268433928;2;True;20;2;179.8401617407868
525;525;1449488089;2.13855481148;0.8045992851260001;0.0684737712145;2;True;20;2;179.8401617407868
526;526;1449488089;2.13846969604;0.804662287235;0.06866392493250001;2;True;20;2;179.8401617407868
527;527;1449488089;2.13860321045;0.804682016373;0.0684586018324;2;True;20;2;179.8401617407868
528;528;1449488089;2.1385781765000003;0.8047802448270001;0.0685647428036;2;True;20;2;179.8401617407868
529;529;1449488089;2.13854265213;0.804562211037;0.0684681758285;2;True;20;2;179.8401617407868
530;530;1449488089;2.13830971718;0.804327785969;0.0687231346965;2;True;20;2;179.8401617407868
531;531;1449488089;2.13853549957;0.804796159267;0.0686291456223;2;True;20;2;179.8401617407868
532;532;1449488089;2.13845682144;0.8044715523720001;0.0686914920807;2;True;20;2;179.8401617407868
533;533;1449488089;2.1385638713799997;0.80467748642;0.06861949712040001;2;True;20;2;179.8401617407868
534;534;1449488089;2.1385312080400003;0.80452299118;0.06847757846119999;2;True;20;2;179.8401617407868
535;535;1449488089;2.13839197159;0.8044463992120001;0.0687002912164;2;True;20;2;179.8401617407868
536;536;1449488089;2.1384871006;0.804447352886;0.06851746886969999;2;True;20;2;179.8401617407868
537;537;1449488089;2.13855338097;0.8046044111249999;0.0684656277299;2;True;20;2;179.8401617407868
538;538;1449488089;2.13849759102;0.804725825787;0.0686813667417;2;True;20;2;179.8401617407868
539;539;1449488089;2.1385011673;0.804432272911;0.0685066133738;2;True;20;2;179.8401617407868
540;540;1449488089;2.13847017288;0.804636478424;0.0686248391867;2;True;20;2;179.8401617407868
541;541;1449488089;2.1385474205;0.8045982122419999;0.06851545721289999;2;True;20;2;179.8401617407868
542;542;1449488089;2.138453722;0.804637670517;0.0686112865806;2;True;20;2;179.8401617407868
543;543;1449488089;2.13841915131;0.804530739784;0.0686968490481;2;True;20;2;179.8401617407868
544;544;1449488089;2.13843536377;0.804583072662;0.068734548986;2;True;20;2;179.8401617407868
545;545;1449488089;2.13842248917;0.804625868797;0.0686511918902;2;True;20;2;179.8401617407868
546;546;1449488089;2.1384122371700003;0.80454903841;0.068741813302;2;True;20;2;179.8401617407868
547;547;1449488089;2.1385016441299998;0.8045898079870001;0.0686177238822;2;True;20;2;179.8401617407868
548;548;1449488089;2.13856244087;0.8048721551899999;0.0685385689139;2;True;20;2;179.8401617407868
549;549;1449488089;2.13854646683;0.8048746585850001;0.0686830282211;2;True;20;2;179.8401617407868
550;550;1449488089;2.13848423958;0.8044450283050001;0.06848359107969999;2;True;20;2;179.8401617407868
551;551;1449488089;2.1385519504499997;0.8046451210979999;0.0684926956892;2;True;20;2;179.8401617407868
552;552;1449488089;2.13852643967;0.8046713471410001;0.068532332778;2;True;20;2;179.8401617407868
553;553;1449488089;2.1384212970700003;0.8045715689659999;0.0686672702432;2;True;20;2;179.8401617407868
554;554;1449488089;2.13852977753;0.8046506047249999;0.06849727779630001;2;True;20;2;179.8401617407868
555;555;1449488089;2.13841748238;0.8045254349709999;0.06861075013880001;2;True;20;2;179.8401617407868
556;556;1449488089;2.1385040283200003;0.804628193378;0.0686319991946;2;True;20;2;179.8401617407868
557;557;1449488089;2.13856816292;0.8046964406970001;0.068532384932;2;True;20;2;179.8401617407868
558;558;1449488089;2.13843774796;0.804614663124;0.06865573674440001;2;True;20;2;179.8401617407868
559;559;1449488089;2.13854432106;0.8047621846199999;0.0685767829418;2;True;20;2;179.8401617407868
560;560;1449488089;2.1384558677700003;0.804742336273;0.0688049271703;2;True;20;2;179.8401617407868
561;561;1449488089;2.13835287094;0.8043540716169999;0.0686052069068;2;True;20;2;179.8401617407868
562;562;1449488089;2.138453722;0.804564416409;0.0685996636748;2;True;20;2;179.8401617407868
563;563;1449488089;2.13838934898;0.8044369220730001;0.06856164336199999;2;True;20;2;179.8401617407868
564;564;1449488089;2.1384255886099997;0.804501116276;0.0685974806547;2;True;20;2;179.8401617407868
565;565;1449488089;2.13855934143;0.8047735095020001;0.0684583187103;2;True;20;2;179.8401617407868
566;566;1449488089;2.1385271549200002;0.80471944809;0.0684512257576;2;True;20;2;179.8401617407868
567;567;1449488089;2.13848400116;0.8046271204950001;0.0686306133866;2;True;20;2;179.8401617407868
568;568;1449488089;2.1385118961300003;0.8045973181720001;0.0686248540878;2;True;20;2;179.8401617407868
569;569;1449488089;2.13851094246;0.804560542107;0.068666882813;2;True;20;2;179.8401617407868
570;570;1449488089;2.13840174675;0.804473280907;0.06867882609369999;2;True;20;2;179.8401617407868
571;571;1449488089;2.13847994804;0.8046988248829999;0.0685549676418;2;True;20;2;179.8401617407868
572;572;1449488089;2.1384022235900004;0.804610669613;0.0686756819487;2;True;20;2;179.8401617407868
573;573;1449488089;2.1385242938999998;0.8046061992649999;0.0684587955475;2;True;20;2;179.8401617407868
574;574;1449488089;2.13854384422;0.804621756077;0.06847628951069999;2;True;20;2;179.8401617407868
575;575;1449488089;2.1384885311099997;0.804797589779;0.0685587376356;2;True;20;2;179.8401617407868
576;576;1449488089;2.1385755538900004;0.804703950882;0.0685155019164;2;True;20;2;179.8401617407868
577;577;1449488089;2.13853883743;0.8046150207520001;0.0684886500239;2;True;20;2;179.8401617407868
578;578;1449488089;2.13847970963;0.8045791983600001;0.0685966610909;2;True;20;2;179.8401617407868
579;579;1449488089;2.13843274117;0.8045327663420001;0.0686024799943;2;True;20;2;179.8401617407868
580;580;1449488089;2.13850831985;0.804604887962;0.0686460584402;2;True;20;2;179.8401617407868
581;581;1449488089;2.13845777512;0.804703950882;0.0687688663602;2;True;20;2;179.8401617407868
582;582;1449488089;2.1385128498099997;0.804727733135;0.0685727521777;2;True;20;2;179.8401617407868
583;583;1449488089;2.13849282265;0.804450750351;0.0688321366906;2;True;20;2;179.8401617407868
584;584;1449488089;2.13852238655;0.804529309273;0.06845453381540001;2;True;20;2;179.8401617407868
585;585;1449488089;2.13849925995;0.804511904716;0.0684854909778;2;True;20;2;179.8401617407868
586;586;1449488089;2.1385498046900002;0.804759085178;0.0685086026788;2;True;20;2;179.8401617407868
587;587;1449488089;2.13842391968;0.8045506477359999;0.06865454465149999;2;True;20;2;179.8401617407868
588;588;1449488089;2.1385910511;0.8046580553049999;0.0684749186039;2;True;20;2;179.8401617407868
589;589;1449488089;2.1383571624799997;0.804583191872;0.0686623379588;2;True;20;2;179.8401617407868
590;590;1449488089;2.13849115372;0.804636001587;0.0686506181955;2;True;20;2;179.8401617407868
591;591;1449488089;2.1382758617400004;0.804324865341;0.0686968564987;2;True;20;2;179.8401617407868
592;592;1449488089;2.13826346397;0.8043255209919999;0.0687294229865;2;True;20;2;179.8401617407868
593;593;1449488089;2.1383974552200002;0.804522514343;0.0686460062861;2;True;20;2;179.8401617407868
594;594;1449488089;2.1385617256200002;0.804771125317;0.068561412394;2;True;20;2;179.8401617407868
595;595;1449488089;2.13842010498;0.804584026337;0.0686714798212;2;True;20;2;179.8401617407868
596;596;1449488089;2.1384999752000002;0.804626882076;0.068638138473;2;True;20;2;179.8401617407868
597;597;1449488089;2.13839697838;0.8044803738590001;0.0686709359288;2;True;20;2;179.8401617407868
598;598;1449488089;2.1384415626499997;0.8046055436130001;0.0686405152082;2;True;20;2;179.8401617407868
599;599;1449488089;2.13851976395;0.804539382458;0.06844830513;2;True;20;2;179.8401617407868
600;600;1449488089;2.1385316848800002;0.8047311902050001;0.0684904530644;2;True;20;2;179.8401617407868
601;601;1449488089;2.1385269165;0.8047755956649999;0.0685177072883;2;True;20;2;179.8401617407868
602;602;1449488089;2.1384387016299997;0.804460287094;0.06847580522300001;2;True;20;2;179.8401617407868
603;603;1449488089;2.13849616051;0.804590880871;0.06863532215359999;2;True;20;2;179.8401617407868
604;604;1449488089;2.1383855342900002;0.8043778538699999;0.06859531253580001;2;True;20;2;179.8401617407868
605;605;1449488089;2.13842201233;0.8045137524600001;0.0685958564281;2;True;20;2;179.8401617407868
606;606;1449488089;2.1385383606;0.804610729218;0.068441465497;2;True;20;2;179.8401617407868
607;607;1449488089;2.1384778022799997;0.804711699486;0.0685613751411;2;True;20;2;179.8401617407868
608;608;1449488089;2.1384768486000003;0.804631650448;0.0686321780086;2;True;20;2;179.8401617407868
609;609;1449488089;2.13852119446;0.804633677006;0.0684685707092;2;True;20;2;179.8401617407868
610;610;1449488089;2.1383974552200002;0.8045747876170001;0.0686786472797;2;True;20;2;179.8401617407868
