;Unnamed: 0;header_stamp_secs;pose_position_x;pose_position_y;pose_position_z;seconds;drop_values;flight_number;label;dtw
0;0;1449488696;2.13588500023;0.8141269087790001;0.0681980773807;0;True;23;2;192.484400153146
1;1;1449488696;2.13567590714;0.814226686954;0.0683271214366;0;True;23;2;192.484400153146
2;2;1449488696;2.13554477692;0.814314424992;0.0680520236492;0;True;23;2;192.484400153146
3;3;1449488696;2.13589572906;0.8141939044;0.06825904548169999;0;True;23;2;192.484400153146
4;4;1449488696;2.1357443332700004;0.814049422741;0.0682167634368;0;True;23;2;192.484400153146
5;5;1449488696;2.1359140872999998;0.814049124718;0.06837387382980001;0;True;23;2;192.484400153146
6;6;1449488696;2.13600873947;0.814209640026;0.06825550645589999;0;True;23;2;192.484400153146
7;7;1449488696;2.1360907554599997;0.81433826685;0.06826525181530001;0;True;23;2;192.484400153146
8;8;1449488696;2.13597154617;0.814035117626;0.068367600441;0;True;23;2;192.484400153146
9;9;1449488696;2.13607692719;0.8140766620640001;0.0682398304343;0;True;23;2;192.484400153146
10;10;1449488696;2.1357412338299997;0.8138229250910001;0.0684032440186;0;True;23;2;192.484400153146
11;11;1449488696;2.13580465317;0.814156472683;0.0682608783245;0;True;23;2;192.484400153146
12;12;1449488696;2.1359848976099998;0.8140965700149999;0.0683375597;0;True;23;2;192.484400153146
13;13;1449488696;2.1352250576;0.814533889294;0.06809720397;0;True;23;2;192.484400153146
14;14;1449488696;2.13589572906;0.814262151718;0.0681227520108;0;True;23;2;192.484400153146
15;15;1449488696;2.1359796524;0.814137756824;0.0684094578028;0;True;23;2;192.484400153146
16;16;1449488696;2.1359684467299997;0.813872456551;0.0683524608612;0;True;23;2;192.484400153146
17;17;1449488696;2.13593292236;0.8141050934790001;0.0683838799596;0;True;23;2;192.484400153146
18;18;1449488696;2.13596749306;0.814234256744;0.0682549253106;0;True;23;2;192.484400153146
19;19;1449488696;2.1358590126;0.814119815826;0.0682638660073;0;True;23;2;192.484400153146
20;20;1449488696;2.13569498062;0.81457144022;0.0679127722979;0;True;23;2;192.484400153146
21;21;1449488696;2.13609266281;0.814230501652;0.06826284527780001;0;True;23;2;192.484400153146
22;22;1449488696;2.13605451584;0.814357340336;0.0683301761746;0;True;23;2;192.484400153146
23;23;1449488696;2.13571810722;0.814013123512;0.0683016255498;0;True;23;2;192.484400153146
24;24;1449488696;2.13567471504;0.81406879425;0.06834036111830001;0;True;23;2;192.484400153146
25;25;1449488696;2.13611340523;0.814266860485;0.0683075040579;0;True;23;2;192.484400153146
26;26;1449488696;2.13578176498;0.8139218688009999;0.06845755875109999;0;True;23;2;192.484400153146
27;27;1449488696;2.1360118389099996;0.8140626549719999;0.06835518032309999;0;True;23;2;192.484400153146
28;28;1449488696;2.1357095241499997;0.8139787912369999;0.0684497505426;0;True;23;2;192.484400153146
29;29;1449488696;2.13572645187;0.814058303833;0.0682993456721;0;True;23;2;192.484400153146
30;30;1449488696;2.13601469994;0.814279317856;0.0678652822971;0;True;23;2;192.484400153146
31;31;1449488696;2.1358320713;0.814225435257;0.0682817175984;0;True;23;2;192.484400153146
32;32;1449488696;2.1361978053999997;0.8142062425609999;0.0680842474103;0;True;23;2;192.484400153146
33;33;1449488696;2.13577008247;0.814456582069;0.0684469789267;0;True;23;2;192.484400153146
34;34;1449488696;2.13607358932;0.8142389655110001;0.06836762279269999;0;True;23;2;192.484400153146
35;35;1449488696;2.1358079910299996;0.8141489028929999;0.0682793185115;0;True;23;2;192.484400153146
36;36;1449488696;2.13558554649;0.813766956329;0.0684062168002;0;True;23;2;192.484400153146
37;37;1449488696;2.13609838486;0.8142338395119999;0.068398617208;0;True;23;2;192.484400153146
38;38;1449488696;2.1362247467;0.814271330833;0.06831932067869999;0;True;23;2;192.484400153146
39;39;1449488696;2.13588786125;0.814066827297;0.0684692263603;0;True;23;2;192.484400153146
40;40;1449488696;2.13588094711;0.8141332864759999;0.0683373063803;0;True;23;2;192.484400153146
41;41;1449488696;2.1361677646599997;0.814013779163;0.068359926343;0;True;23;2;192.484400153146
42;42;1449488696;2.13600349426;0.8143064975740001;0.0683607235551;0;True;23;2;192.484400153146
43;43;1449488697;2.1355991363499998;0.8141031861310001;0.06830317527060001;1;True;23;2;192.484400153146
44;44;1449488697;2.13618993759;0.81421905756;0.0684123635292;1;True;23;2;192.484400153146
45;45;1449488697;2.1357836723299997;0.8140666484829999;0.0684134960175;1;True;23;2;192.484400153146
46;46;1449488697;2.13582468033;0.81397908926;0.0683291107416;1;True;23;2;192.484400153146
47;47;1449488697;2.1360070705400003;0.813976943493;0.0686248987913;1;True;23;2;192.484400153146
48;48;1449488697;2.13590240479;0.8137249946590001;0.0686162486672;1;True;23;2;192.484400153146
49;49;1449488697;2.13615059853;0.8142338395119999;0.0687439218163;1;True;23;2;192.484400153146
50;50;1449488697;2.13576865196;0.814461886883;0.0679261013865;1;True;23;2;192.484400153146
51;51;1449488697;2.13572978973;0.814074993134;0.0680510029197;1;True;23;2;192.484400153146
52;52;1449488697;2.13605618477;0.813637554646;0.0685902312398;1;True;23;2;192.484400153146
53;53;1449488697;2.13630962372;0.8145549297329999;0.0682936906815;1;True;23;2;192.484400153146
54;54;1449488697;2.13598513603;0.814198672771;0.0682640746236;1;True;23;2;192.484400153146
55;55;1449488697;2.13587641716;0.814262211323;0.06833587586880001;1;True;23;2;192.484400153146
56;56;1449488697;2.13565945625;0.8138741254809999;0.06836562603709999;1;True;23;2;192.484400153146
57;57;1449488697;2.13557219505;0.814125835896;0.0682911574841;1;True;23;2;192.484400153146
58;58;1449488697;2.1358435154;0.814135015011;0.06835249066349999;1;True;23;2;192.484400153146
59;59;1449488697;2.13596510887;0.814217984676;0.0684561207891;1;True;23;2;192.484400153146
60;60;1449488697;2.13591885567;0.8141970634460001;0.06839636713269999;1;True;23;2;192.484400153146
61;61;1449488697;2.1361379623400003;0.814209580421;0.0684351325035;1;True;23;2;192.484400153146
62;62;1449488697;2.13604974747;0.814158856869;0.0683559253812;1;True;23;2;192.484400153146
63;63;1449488697;2.1362206935900003;0.814366161823;0.0683471336961;1;True;23;2;192.484400153146
64;64;1449488697;2.1355149745900004;0.813854694366;0.0684838071465;1;True;23;2;192.484400153146
65;65;1449488697;2.13580441475;0.8139863014219999;0.06835892796519999;1;True;23;2;192.484400153146
66;66;1449488697;2.1356263160699998;0.8143228292470001;0.0682504624128;1;True;23;2;192.484400153146
67;67;1449488697;2.13581204414;0.814182400703;0.06832412630319999;1;True;23;2;192.484400153146
68;68;1449488697;2.13579249382;0.814147531986;0.0684329196811;1;True;23;2;192.484400153146
69;69;1449488697;2.1361877918200003;0.814584612846;0.0682977437973;1;True;23;2;192.484400153146
70;70;1449488697;2.13609719276;0.8142062425609999;0.0683924630284;1;True;23;2;192.484400153146
71;71;1449488697;2.13532710075;0.8143526911740001;0.0678889900446;1;True;23;2;192.484400153146
72;72;1449488697;2.13599395752;0.81420058012;0.06835658103230001;1;True;23;2;192.484400153146
73;73;1449488697;2.13587665558;0.814161539078;0.068556189537;1;True;23;2;192.484400153146
74;74;1449488697;2.13570761681;0.814085423946;0.0682090446353;1;True;23;2;192.484400153146
75;75;1449488697;2.1361379623400003;0.814274311066;0.068366587162;1;True;23;2;192.484400153146
76;76;1449488697;2.13597416878;0.814209103584;0.0684375688434;1;True;23;2;192.484400153146
77;77;1449488697;2.13611602783;0.814285814762;0.06829787790780001;1;True;23;2;192.484400153146
78;78;1449488697;2.1360104084000002;0.8139826059340001;0.06838800758119999;1;True;23;2;192.484400153146
79;79;1449488697;2.13605451584;0.814147949219;0.0682822689414;1;True;23;2;192.484400153146
80;80;1449488697;2.13596701622;0.814092695713;0.0683492943645;1;True;23;2;192.484400153146
81;81;1449488697;2.1358058452599997;0.813915133476;0.0684659332037;1;True;23;2;192.484400153146
82;82;1449488697;2.13596391678;0.814340114594;0.0678604096174;1;True;23;2;192.484400153146
83;83;1449488697;2.13544559479;0.813805758953;0.0681765973568;1;True;23;2;192.484400153146
84;84;1449488697;2.1359910965;0.814209163189;0.0684146210551;1;True;23;2;192.484400153146
85;85;1449488697;2.13609242439;0.814231455326;0.0683480799198;1;True;23;2;192.484400153146
86;86;1449488697;2.13618326187;0.814574062824;0.06823388487099999;1;True;23;2;192.484400153146
87;87;1449488697;2.13598918915;0.813968479633;0.0685340613127;1;True;23;2;192.484400153146
88;88;1449488697;2.13598251343;0.8143143057819999;0.0682944357395;1;True;23;2;192.484400153146
89;89;1449488697;2.13535857201;0.814143359661;0.0680491924286;1;True;23;2;192.484400153146
90;90;1449488697;2.13609719276;0.814246356487;0.0682748779655;1;True;23;2;192.484400153146
91;91;1449488697;2.1361656189;0.814185738564;0.0684768855572;1;True;23;2;192.484400153146
92;92;1449488697;2.13582921028;0.814379572868;0.0683712661266;1;True;23;2;192.484400153146
93;93;1449488697;2.1357240676900004;0.8138835430149999;0.0682488530874;1;True;23;2;192.484400153146
94;94;1449488697;2.13579177856;0.8142836689949999;0.0682792440057;1;True;23;2;192.484400153146
95;95;1449488697;2.13580679893;0.814247488976;0.06816899776459999;1;True;23;2;192.484400153146
96;96;1449488697;2.13592624664;0.814450323582;0.0685408115387;1;True;23;2;192.484400153146
97;97;1449488697;2.13555526733;0.8139239549639999;0.06845273822549999;1;True;23;2;192.484400153146
98;98;1449488697;2.135866642;0.814123213291;0.0682681128383;1;True;23;2;192.484400153146
99;99;1449488697;2.1356770992299996;0.814109802246;0.0682117119431;1;True;23;2;192.484400153146
100;100;1449488697;2.1358382701900003;0.8140978813169999;0.0684778764844;1;True;23;2;192.484400153146
101;101;1449488697;2.1359679698900003;0.8140663504600001;0.0683949515224;1;True;23;2;192.484400153146
102;102;1449488697;2.1359100341799997;0.813860595226;0.0684372186661;1;True;23;2;192.484400153146
103;103;1449488697;2.13623189926;0.8139942288400001;0.0682662501931;1;True;23;2;192.484400153146
104;104;1449488697;2.13564801216;0.8140113353730001;0.0682512670755;1;True;23;2;192.484400153146
105;105;1449488697;2.13586497307;0.814255237579;0.06827218085530001;1;True;23;2;192.484400153146
106;106;1449488697;2.13572740555;0.814060509205;0.068233974278;1;True;23;2;192.484400153146
107;107;1449488697;2.1356496810900003;0.8137429356579999;0.0685466602445;1;True;23;2;192.484400153146
108;108;1449488697;2.1361527442900003;0.8143162727359999;0.0683437138796;1;True;23;2;192.484400153146
109;109;1449488697;2.1360275745400004;0.8140843510629999;0.0682716444135;1;True;23;2;192.484400153146
110;110;1449488697;2.1357185840599997;0.814031362534;0.06822353601459999;1;True;23;2;192.484400153146
111;111;1449488697;2.1356341838799997;0.813924670219;0.0682893916965;1;True;23;2;192.484400153146
112;112;1449488697;2.13602948189;0.8142753839489999;0.0682798177004;1;True;23;2;192.484400153146
113;113;1449488697;2.1359474659;0.8139868974690001;0.0682521611452;1;True;23;2;192.484400153146
114;114;1449488697;2.13570475578;0.814004957676;0.0683537125587;1;True;23;2;192.484400153146
115;115;1449488697;2.13582634926;0.814236938953;0.0682762637734;1;True;23;2;192.484400153146
116;116;1449488697;2.13602232933;0.8139994144439999;0.0685337260365;1;True;23;2;192.484400153146
117;117;1449488697;2.13584828377;0.814224123955;0.0681507587433;1;True;23;2;192.484400153146
118;118;1449488697;2.1357729435;0.813943862915;0.0683563649654;1;True;23;2;192.484400153146
119;119;1449488697;2.13611078262;0.814176738262;0.0683570504189;1;True;23;2;192.484400153146
120;120;1449488697;2.13601279259;0.814218103886;0.068401299417;1;True;23;2;192.484400153146
121;121;1449488697;2.13596606255;0.8141440749169999;0.06828995049;1;True;23;2;192.484400153146
122;122;1449488697;2.13606357574;0.8143095970149999;0.0682974159718;1;True;23;2;192.484400153146
123;123;1449488697;2.1360886097;0.814174890518;0.0683722570539;1;True;23;2;192.484400153146
124;124;1449488697;2.13600873947;0.814394056797;0.06827283650640001;1;True;23;2;192.484400153146
125;125;1449488697;2.1359996795700003;0.814242124557;0.0684088468552;1;True;23;2;192.484400153146
126;126;1449488697;2.13585948944;0.8143473267560001;0.0683766975999;1;True;23;2;192.484400153146
127;127;1449488697;2.13577437401;0.8141965270039999;0.0682581439614;1;True;23;2;192.484400153146
128;128;1449488697;2.13609814644;0.814200222492;0.06862131506199999;1;True;23;2;192.484400153146
129;129;1449488697;2.1358680725099997;0.814066827297;0.06837115436789999;1;True;23;2;192.484400153146
130;130;1449488697;2.13591790199;0.8143808245659999;0.0682241767645;1;True;23;2;192.484400153146
131;131;1449488697;2.13558030128;0.814159154892;0.0683880597353;1;True;23;2;192.484400153146
132;132;1449488697;2.13599824905;0.814278721809;0.06829783320430001;1;True;23;2;192.484400153146
133;133;1449488697;2.1362118721;0.814026892185;0.0685553699732;1;True;23;2;192.484400153146
134;134;1449488697;2.1358580589300002;0.814213871956;0.06825365126130001;1;True;23;2;192.484400153146
135;135;1449488697;2.1360616684;0.8143310546879999;0.0683426558971;1;True;23;2;192.484400153146
136;136;1449488697;2.13578343391;0.8139672875399999;0.06834229826930001;1;True;23;2;192.484400153146
137;137;1449488697;2.13560295105;0.814000964165;0.0683578029275;1;True;23;2;192.484400153146
138;138;1449488697;2.13611841202;0.8141984343529999;0.068318746984;1;True;23;2;192.484400153146
139;139;1449488697;2.13604211807;0.814113736153;0.0683989301324;1;True;23;2;192.484400153146
140;140;1449488697;2.1356394290900003;0.8139950037;0.0682676434517;1;True;23;2;192.484400153146
141;141;1449488697;2.13626337051;0.814148128033;0.0687728747725;1;True;23;2;192.484400153146
142;142;1449488697;2.1357090473199998;0.81403619051;0.06834679096940001;1;True;23;2;192.484400153146
143;143;1449488697;2.1361293792700002;0.814103484154;0.0684753134847;1;True;23;2;192.484400153146
144;144;1449488697;2.13593149185;0.813841700554;0.06886734068389999;1;True;23;2;192.484400153146
145;145;1449488697;2.1356692314099996;0.814188361168;0.068209938705;1;True;23;2;192.484400153146
146;146;1449488697;2.1358671188400002;0.814155638218;0.0683247670531;1;True;23;2;192.484400153146
147;147;1449488697;2.13600754738;0.8142697811130001;0.068358361721;1;True;23;2;192.484400153146
148;148;1449488697;2.13607978821;0.8140985369679999;0.06837640702719999;1;True;23;2;192.484400153146
149;149;1449488697;2.1357715129900003;0.813946723938;0.06838575750590001;1;True;23;2;192.484400153146
150;150;1449488697;2.1362090110799996;0.8143562078479999;0.0683438628912;1;True;23;2;192.484400153146
151;151;1449488697;2.13592863083;0.814190745354;0.0683724954724;1;True;23;2;192.484400153146
152;152;1449488697;2.13602542877;0.814078330994;0.068364277482;1;True;23;2;192.484400153146
153;153;1449488697;2.13576889038;0.814220964909;0.0683960542083;1;True;23;2;192.484400153146
154;154;1449488697;2.13608646393;0.814159333706;0.06833327561619999;1;True;23;2;192.484400153146
155;155;1449488697;2.13605237007;0.8143296837809999;0.068150550127;1;True;23;2;192.484400153146
156;156;1449488697;2.13603425026;0.814357161522;0.0683273226023;1;True;23;2;192.484400153146
157;157;1449488697;2.1360218524900003;0.814230501652;0.0684403255582;1;True;23;2;192.484400153146
158;158;1449488697;2.13614749908;0.814284741879;0.06833034008740001;1;True;23;2;192.484400153146
159;159;1449488697;2.13611984253;0.8142181634899999;0.0684021487832;1;True;23;2;192.484400153146
160;160;1449488697;2.13599467278;0.8142876029009999;0.0682537481189;1;True;23;2;192.484400153146
161;161;1449488697;2.135876894;0.814260601997;0.06833820044990001;1;True;23;2;192.484400153146
162;162;1449488697;2.13597917557;0.814095973969;0.0684124976397;1;True;23;2;192.484400153146
163;163;1449488697;2.1359927654299997;0.814248502254;0.0683628767729;1;True;23;2;192.484400153146
164;164;1449488697;2.13535428047;0.813915848732;0.0683909654617;1;True;23;2;192.484400153146
165;165;1449488697;2.1361646652200004;0.814042627811;0.0685402899981;1;True;23;2;192.484400153146
166;166;1449488697;2.1357185840599997;0.8140610456470001;0.0682604461908;1;True;23;2;192.484400153146
167;167;1449488697;2.1359701156599997;0.814077079296;0.0685324221849;1;True;23;2;192.484400153146
168;168;1449488697;2.1361553669;0.814114034176;0.0688272640109;1;True;23;2;192.484400153146
169;169;1449488697;2.13600850105;0.814451336861;0.0683450102806;1;True;23;2;192.484400153146
170;170;1449488697;2.13588500023;0.814503848553;0.0681319758296;1;True;23;2;192.484400153146
171;171;1449488697;2.13604640961;0.814185500145;0.06864538043740001;1;True;23;2;192.484400153146
172;172;1449488697;2.1360907554599997;0.814287245274;0.0683625638485;1;True;23;2;192.484400153146
173;173;1449488697;2.1354963779400005;0.8139169216159999;0.06841962784530001;1;True;23;2;192.484400153146
174;174;1449488697;2.13605594635;0.8142992854119999;0.0683081895113;1;True;23;2;192.484400153146
175;175;1449488697;2.1356770992299996;0.8141686916349999;0.06834085285659999;1;True;23;2;192.484400153146
176;176;1449488697;2.1360943317400003;0.8141618967059999;0.0682001262903;1;True;23;2;192.484400153146
177;177;1449488697;2.1360368728599997;0.814270734787;0.0683717876673;1;True;23;2;192.484400153146
178;178;1449488697;2.13573670387;0.814241230488;0.0682972222567;1;True;23;2;192.484400153146
179;179;1449488697;2.13613462448;0.8140072226520001;0.068584613502;1;True;23;2;192.484400153146
180;180;1449488697;2.13597512245;0.814318060875;0.0679152011871;1;True;23;2;192.484400153146
181;181;1449488697;2.13582611084;0.8139726519580001;0.0685896724463;1;True;23;2;192.484400153146
182;182;1449488697;2.1361713409400003;0.8145391941069999;0.0682280957699;1;True;23;2;192.484400153146
183;183;1449488697;2.13584065437;0.8141170740129999;0.0682513937354;1;True;23;2;192.484400153146
184;184;1449488697;2.13620567322;0.8142799735070001;0.0683178156614;1;True;23;2;192.484400153146
185;185;1449488697;2.13597106934;0.8139981031419999;0.068369038403;1;True;23;2;192.484400153146
186;186;1449488697;2.13626098633;0.81432133913;0.0683030337095;1;True;23;2;192.484400153146
187;187;1449488697;2.13549757004;0.814294159412;0.06789686530830001;1;True;23;2;192.484400153146
188;188;1449488697;2.13594436646;0.8142305612559999;0.0684635266662;1;True;23;2;192.484400153146
189;189;1449488697;2.13598632812;0.814310729504;0.06831979006529999;1;True;23;2;192.484400153146
190;190;1449488697;2.1357400417299996;0.814057350159;0.0681967735291;1;True;23;2;192.484400153146
191;191;1449488697;2.13583111763;0.814198672771;0.0682695508003;1;True;23;2;192.484400153146
192;192;1449488697;2.13594770432;0.814151644707;0.06830658763650001;1;True;23;2;192.484400153146
193;193;1449488697;2.13591146469;0.814160466194;0.06836008280519999;1;True;23;2;192.484400153146
194;194;1449488697;2.1357386112200003;0.8139727115629999;0.068282134831;1;True;23;2;192.484400153146
195;195;1449488697;2.13576316833;0.8144060373309999;0.0682353451848;1;True;23;2;192.484400153146
196;196;1449488697;2.1358284950299997;0.8140848279;0.0683471783996;1;True;23;2;192.484400153146
197;197;1449488697;2.1355783939400004;0.8142078518870001;0.0681977272034;1;True;23;2;192.484400153146
198;198;1449488697;2.13588356972;0.8141875863079999;0.0681224986911;1;True;23;2;192.484400153146
199;199;1449488697;2.13566327095;0.813983201981;0.068411976099;1;True;23;2;192.484400153146
200;200;1449488697;2.13545942307;0.81376928091;0.06809373945000001;1;True;23;2;192.484400153146
201;201;1449488697;2.1357421875;0.814175069332;0.0682212039828;1;True;23;2;192.484400153146
202;202;1449488697;2.1360077858;0.814218521118;0.0683378949761;1;True;23;2;192.484400153146
203;203;1449488697;2.13524866104;0.814025461674;0.06814038008449999;1;True;23;2;192.484400153146
204;204;1449488697;2.13549375534;0.8141555190090001;0.0681172907352;1;True;23;2;192.484400153146
205;205;1449488697;2.13600158691;0.814096331596;0.0684395357966;1;True;23;2;192.484400153146
206;206;1449488697;2.13561892509;0.8139883875849999;0.0682958140969;1;True;23;2;192.484400153146
207;207;1449488697;2.1356263160699998;0.8135409355159999;0.068581327796;1;True;23;2;192.484400153146
208;208;1449488697;2.1359441280400002;0.814247071743;0.0683171078563;1;True;23;2;192.484400153146
209;209;1449488697;2.13531160355;0.814450562;0.0681078955531;1;True;23;2;192.484400153146
210;210;1449488697;2.1355884075200002;0.814304828644;0.0682365745306;1;True;23;2;192.484400153146
211;211;1449488697;2.13564491272;0.814156651497;0.06828487664459999;1;True;23;2;192.484400153146
212;212;1449488697;2.13607954979;0.8142330646510001;0.068278811872;1;True;23;2;192.484400153146
213;213;1449488697;2.13584256172;0.814107596874;0.0682989358902;1;True;23;2;192.484400153146
214;214;1449488697;2.13575267792;0.814155757427;0.0682608187199;1;True;23;2;192.484400153146
215;215;1449488697;2.1359808444999997;0.814255595207;0.0682972818613;1;True;23;2;192.484400153146
216;216;1449488697;2.1360557079299998;0.814261078835;0.06829731166360001;1;True;23;2;192.484400153146
217;217;1449488697;2.13597798347;0.81425511837;0.0682717934251;1;True;23;2;192.484400153146
218;218;1449488697;2.1360554695099996;0.813954114914;0.06858994066719999;1;True;23;2;192.484400153146
219;219;1449488697;2.1358191967;0.813838422298;0.068542778492;1;True;23;2;192.484400153146
220;220;1449488697;2.1360039711;0.814042627811;0.0683131963015;1;True;23;2;192.484400153146
221;221;1449488697;2.13596701622;0.813828825951;0.06854610890150001;1;True;23;2;192.484400153146
222;222;1449488697;2.1356523037;0.8140937685969999;0.06830382347109999;1;True;23;2;192.484400153146
223;223;1449488697;2.13548159599;0.8141700029369999;0.06836472451690001;1;True;23;2;192.484400153146
224;224;1449488697;2.1358392238599997;0.814180135727;0.0682869032025;1;True;23;2;192.484400153146
225;225;1449488697;2.1355137825;0.8144930005069999;0.068488150835;1;True;23;2;192.484400153146
226;226;1449488697;2.1355247497599996;0.814113199711;0.0682973265648;1;True;23;2;192.484400153146
227;227;1449488697;2.13601875305;0.81425756216;0.0683003664017;1;True;23;2;192.484400153146
228;228;1449488697;2.1358101368;0.814226210117;0.0682681873441;1;True;23;2;192.484400153146
229;229;1449488697;2.1358115673099998;0.814302027225;0.0681940540671;1;True;23;2;192.484400153146
230;230;1449488697;2.13583755493;0.8141509890559999;0.0683026239276;1;True;23;2;192.484400153146
231;231;1449488697;2.1358795165999998;0.814206600189;0.0682980939746;1;True;23;2;192.484400153146
232;232;1449488697;2.13595557213;0.814181089401;0.0682865306735;1;True;23;2;192.484400153146
233;233;1449488697;2.1353366375;0.813982844353;0.06809098273519999;1;True;23;2;192.484400153146
234;234;1449488697;2.13608312607;0.8141977190970001;0.0682948306203;1;True;23;2;192.484400153146
235;235;1449488697;2.13612532616;0.814201414585;0.0683923512697;1;True;23;2;192.484400153146
236;236;1449488697;2.13587141037;0.814018249512;0.06848344206809999;1;True;23;2;192.484400153146
237;237;1449488697;2.13598442078;0.814153254032;0.0683492720127;1;True;23;2;192.484400153146
238;238;1449488697;2.1359968185400002;0.814202487469;0.0683942064643;1;True;23;2;192.484400153146
239;239;1449488697;2.13588142395;0.814242899418;0.068199492991;1;True;23;2;192.484400153146
240;240;1449488697;2.13608026505;0.814232230186;0.0683740973473;1;True;23;2;192.484400153146
241;241;1449488697;2.13552951813;0.814001083374;0.0683528035879;1;True;23;2;192.484400153146
242;242;1449488697;2.13567829132;0.814061105251;0.0682030841708;1;True;23;2;192.484400153146
243;243;1449488697;2.13583064079;0.814149677753;0.0683026760817;1;True;23;2;192.484400153146
244;244;1449488697;2.1361355781599998;0.813973248005;0.0688822343946;1;True;23;2;192.484400153146
245;245;1449488697;2.1357135772699998;0.8143976926800001;0.0679219812155;1;True;23;2;192.484400153146
246;246;1449488697;2.13611340523;0.814305305481;0.068354472518;1;True;23;2;192.484400153146
247;247;1449488697;2.1356379985799996;0.813976347446;0.0683686807752;1;True;23;2;192.484400153146
248;248;1449488697;2.13610196114;0.813699066639;0.06854433566330001;1;True;23;2;192.484400153146
249;249;1449488697;2.1361539363900004;0.814154028893;0.0680920407176;1;True;23;2;192.484400153146
250;250;1449488697;2.13567066193;0.8147454261779999;0.0679923966527;1;True;23;2;192.484400153146
251;251;1449488697;2.13590240479;0.814039826393;0.068368293345;1;True;23;2;192.484400153146
252;252;1449488697;2.13599896431;0.8142498731610001;0.0683426707983;1;True;23;2;192.484400153146
253;253;1449488697;2.13611841202;0.814124405384;0.0683953613043;1;True;23;2;192.484400153146
254;254;1449488697;2.13574957848;0.814058542252;0.0684057623148;1;True;23;2;192.484400153146
255;255;1449488697;2.13565659523;0.8147145509720001;0.0684456527233;1;True;23;2;192.484400153146
256;256;1449488697;2.13599944115;0.814148247242;0.06839305162430001;1;True;23;2;192.484400153146
257;257;1449488697;2.13606762886;0.8142221570010001;0.0682904943824;1;True;23;2;192.484400153146
258;258;1449488697;2.13579487801;0.8141638040539999;0.0681967809796;1;True;23;2;192.484400153146
259;259;1449488697;2.13524270058;0.8142510652539999;0.0677441433072;1;True;23;2;192.484400153146
260;260;1449488697;2.1357049941999997;0.8140726685519999;0.0682937577367;1;True;23;2;192.484400153146
261;261;1449488697;2.1357753276800002;0.814251244068;0.0683839172125;1;True;23;2;192.484400153146
262;262;1449488697;2.13578820229;0.8140271306039999;0.0684053823352;1;True;23;2;192.484400153146
263;263;1449488697;2.1358976364099997;0.813625633717;0.06842471659180001;1;True;23;2;192.484400153146
264;264;1449488697;2.1359770298;0.814416408539;0.0681691095233;1;True;23;2;192.484400153146
265;265;1449488697;2.13575720787;0.814346373081;0.0680379793048;1;True;23;2;192.484400153146
266;266;1449488697;2.1357717513999996;0.8141583800319999;0.0680510178208;1;True;23;2;192.484400153146
267;267;1449488697;2.13591337204;0.814258515835;0.0683093965054;1;True;23;2;192.484400153146
268;268;1449488697;2.13610959053;0.8142217397689999;0.068313665688;1;True;23;2;192.484400153146
269;269;1449488697;2.1355073452;0.814375698566;0.0683348253369;1;True;23;2;192.484400153146
270;270;1449488697;2.13571834564;0.8139297962190001;0.0684447437525;1;True;23;2;192.484400153146
271;271;1449488697;2.1360578537;0.8142284154889999;0.0682809129357;1;True;23;2;192.484400153146
272;272;1449488697;2.13513159752;0.81486171484;0.0674672573805;1;True;23;2;192.484400153146
273;273;1449488697;2.13581228256;0.8141936063770001;0.0683054849505;1;True;23;2;192.484400153146
274;274;1449488697;2.13592815399;0.814192175865;0.0683396011591;1;True;23;2;192.484400153146
275;275;1449488697;2.13609266281;0.814091622829;0.0683137848973;1;True;23;2;192.484400153146
276;276;1449488697;2.13611626625;0.814089536667;0.0682296529412;1;True;23;2;192.484400153146
277;277;1449488697;2.1358244419099996;0.814216077328;0.0684117376804;1;True;23;2;192.484400153146
278;278;1449488697;2.1359887123099996;0.814211308956;0.068387106061;1;True;23;2;192.484400153146
279;279;1449488697;2.13609576225;0.8142513632770001;0.06836506724359999;1;True;23;2;192.484400153146
280;280;1449488697;2.13597273827;0.814245402813;0.06832408159969999;1;True;23;2;192.484400153146
281;281;1449488698;2.1361083984400002;0.8143786191940001;0.0682842433453;2;True;23;2;192.484400153146
282;282;1449488698;2.1362171173099997;0.8143262267110001;0.0683309584856;2;True;23;2;192.484400153146
283;283;1449488698;2.1360411644;0.814249932766;0.0683230087161;2;True;23;2;192.484400153146
284;284;1449488698;2.13553166389;0.814360618591;0.0685316324234;2;True;23;2;192.484400153146
285;285;1449488698;2.13619303703;0.813834607601;0.068692073226;2;True;23;2;192.484400153146
286;286;1449488698;2.13595867157;0.813987731934;0.0684875175357;2;True;23;2;192.484400153146
287;287;1449488698;2.1359937191;0.814296126366;0.0683346912265;2;True;23;2;192.484400153146
288;288;1449488698;2.13544678688;0.813970029354;0.068399399519;2;True;23;2;192.484400153146
289;289;1449488698;2.13546442986;0.8139739036560001;0.0682000368834;2;True;23;2;192.484400153146
290;290;1449488698;2.1359767913799996;0.813832998276;0.0682005956769;2;True;23;2;192.484400153146
291;291;1449488698;2.135876894;0.814430832863;0.06814093887810001;2;True;23;2;192.484400153146
292;292;1449488698;2.1358370780900002;0.814231514931;0.0682985857129;2;True;23;2;192.484400153146
293;293;1449488698;2.1359808444999997;0.81394380331;0.06858433038;2;True;23;2;192.484400153146
294;294;1449488698;2.13579654694;0.814574897289;0.068209387362;2;True;23;2;192.484400153146
295;295;1449488698;2.1358139514900003;0.814353644848;0.067818582058;2;True;23;2;192.484400153146
296;296;1449488698;2.13579177856;0.8142139315610001;0.0682259574533;2;True;23;2;192.484400153146
297;297;1449488698;2.1358191967;0.814159274101;0.06864686310290001;2;True;23;2;192.484400153146
298;298;1449488698;2.1357831955;0.8144236803049999;0.0679074600339;2;True;23;2;192.484400153146
299;299;1449488698;2.13597488403;0.8142389655110001;0.0682993084192;2;True;23;2;192.484400153146
300;300;1449488698;2.13587069511;0.814241111279;0.0682910233736;2;True;23;2;192.484400153146
301;301;1449488698;2.13587999344;0.813966631889;0.0684890598059;2;True;23;2;192.484400153146
302;302;1449488698;2.13599824905;0.8142275214200001;0.0683071985841;2;True;23;2;192.484400153146
303;303;1449488698;2.1354527473400005;0.8140183091159999;0.0683546215296;2;True;23;2;192.484400153146
304;304;1449488698;2.13563704491;0.8141050934790001;0.068221911788;2;True;23;2;192.484400153146
305;305;1449488698;2.1359014511099996;0.814145565033;0.0683039575815;2;True;23;2;192.484400153146
306;306;1449488698;2.13595795631;0.814238786697;0.06836160272359999;2;True;23;2;192.484400153146
307;307;1449488698;2.1361784935;0.814309000969;0.0683291256428;2;True;23;2;192.484400153146
308;308;1449488698;2.13596487045;0.814024686813;0.0685246512294;2;True;23;2;192.484400153146
309;309;1449488698;2.13573050499;0.813746392727;0.0684156417847;2;True;23;2;192.484400153146
310;310;1449488698;2.13601016998;0.814276993275;0.068395934999;2;True;23;2;192.484400153146
311;311;1449488698;2.1355392932900004;0.814210295677;0.06799823045730001;2;True;23;2;192.484400153146
312;312;1449488698;2.13629746437;0.8138006925579999;0.0685223266482;2;True;23;2;192.484400153146
313;313;1449488698;2.1360785961200004;0.813959479332;0.0688381418586;2;True;23;2;192.484400153146
314;314;1449488698;2.13587975502;0.813935160637;0.0686688870192;2;True;23;2;192.484400153146
315;315;1449488698;2.13624334335;0.81370306015;0.06896983832119999;2;True;23;2;192.484400153146
316;316;1449488698;2.13616704941;0.8141937851909999;0.0683702901006;2;True;23;2;192.484400153146
317;317;1449488698;2.1355254650099997;0.814682483673;0.0679180696607;2;True;23;2;192.484400153146
318;318;1449488698;2.13574790955;0.814138054848;0.0682960227132;2;True;23;2;192.484400153146
319;319;1449488698;2.1357953548400004;0.814136624336;0.068421497941;2;True;23;2;192.484400153146
320;320;1449488698;2.13580513;0.814721465111;0.0681014284492;2;True;23;2;192.484400153146
321;321;1449488698;2.1359021663699997;0.8146242499349999;0.0678539574146;2;True;23;2;192.484400153146
322;322;1449488698;2.13552856445;0.8143543004989999;0.06815739721059999;2;True;23;2;192.484400153146
323;323;1449488698;2.13585495949;0.814145803452;0.06854088604450001;2;True;23;2;192.484400153146
324;324;1449488698;2.1358821392099996;0.814078748226;0.0683719664812;2;True;23;2;192.484400153146
325;325;1449488698;2.13592839241;0.8146975040440001;0.0681071728468;2;True;23;2;192.484400153146
326;326;1449488698;2.1359014511099996;0.8136363029479999;0.0679593011737;2;True;23;2;192.484400153146
327;327;1449488698;2.13609743118;0.814102292061;0.0685051977634;2;True;23;2;192.484400153146
328;328;1449488698;2.13543391228;0.813786566257;0.0683903992176;2;True;23;2;192.484400153146
329;329;1449488698;2.13586163521;0.8141571879389999;0.0684598758817;2;True;23;2;192.484400153146
330;330;1449488698;2.13613247871;0.8137357831;0.0686926841736;2;True;23;2;192.484400153146
331;331;1449488698;2.1356742382;0.814075350761;0.0682873502374;2;True;23;2;192.484400153146
332;332;1449488698;2.1361303329499997;0.814035356045;0.0685130730271;2;True;23;2;192.484400153146
333;333;1449488698;2.13591384888;0.8139712214470001;0.0686041042209;2;True;23;2;192.484400153146
334;334;1449488698;2.13612723351;0.814214289188;0.06834034621719999;2;True;23;2;192.484400153146
335;335;1449488698;2.1358857154799997;0.8141997456550001;0.06840351223949999;2;True;23;2;192.484400153146
336;336;1449488698;2.13613915443;0.814274728298;0.0683807954192;2;True;23;2;192.484400153146
337;337;1449488698;2.13579773903;0.8142367601389999;0.0682701393962;2;True;23;2;192.484400153146
338;338;1449488698;2.13555240631;0.81415861845;0.06821890175340001;2;True;23;2;192.484400153146
339;339;1449488698;2.1361498832700003;0.814023911953;0.0683674886823;2;True;23;2;192.484400153146
340;340;1449488698;2.1361021995500002;0.814188063145;0.0683897584677;2;True;23;2;192.484400153146
341;341;1449488698;2.13550591469;0.814111828804;0.06821012496949999;2;True;23;2;192.484400153146
342;342;1449488698;2.13580036163;0.814248800278;0.0682788491249;2;True;23;2;192.484400153146
343;343;1449488698;2.13622665405;0.814265429974;0.0680639967322;2;True;23;2;192.484400153146
344;344;1449488698;2.13569116592;0.814088225365;0.0683611109853;2;True;23;2;192.484400153146
345;345;1449488698;2.13639307022;0.814387917519;0.0683560818434;2;True;23;2;192.484400153146
346;346;1449488698;2.13567066193;0.8143399953839999;0.0680434778333;2;True;23;2;192.484400153146
347;347;1449488698;2.1358735561400004;0.8141289949420001;0.0684697404504;2;True;23;2;192.484400153146
348;348;1449488698;2.1359012126900003;0.814233601093;0.0682616382837;2;True;23;2;192.484400153146
349;349;1449488698;2.13608717918;0.814187765121;0.06838691234590001;2;True;23;2;192.484400153146
350;350;1449488698;2.13590812683;0.8142257332800001;0.06832551956180001;2;True;23;2;192.484400153146
351;351;1449488698;2.13597917557;0.814223885536;0.0683867409825;2;True;23;2;192.484400153146
352;352;1449488698;2.13590812683;0.8140653371809999;0.0682893097401;2;True;23;2;192.484400153146
353;353;1449488698;2.13583540916;0.814220786095;0.06826802343129999;2;True;23;2;192.484400153146
354;354;1449488698;2.13596320152;0.8140057325360001;0.0683311671019;2;True;23;2;192.484400153146
355;355;1449488698;2.13610124588;0.814246892929;0.0683460086584;2;True;23;2;192.484400153146
356;356;1449488698;2.1360144615200003;0.8141120672229999;0.06842147558930001;2;True;23;2;192.484400153146
357;357;1449488698;2.1358127594;0.814155161381;0.0683031976223;2;True;23;2;192.484400153146
358;358;1449488698;2.13557291031;0.814446508884;0.0680722147226;2;True;23;2;192.484400153146
359;359;1449488698;2.13593888283;0.814096689224;0.0683569982648;2;True;23;2;192.484400153146
360;360;1449488698;2.13568544388;0.814595401287;0.0683508738875;2;True;23;2;192.484400153146
361;361;1449488698;2.1361348629;0.814269125462;0.06837236136199999;2;True;23;2;192.484400153146
362;362;1449488698;2.1357643604299996;0.814029157162;0.0682939961553;2;True;23;2;192.484400153146
363;363;1449488698;2.1361246109;0.814075052738;0.0682691261172;2;True;23;2;192.484400153146
364;364;1449488698;2.1355962753299997;0.814302384853;0.0683606043458;2;True;23;2;192.484400153146
365;365;1449488698;2.13574814796;0.814015805721;0.0683703869581;2;True;23;2;192.484400153146
366;366;1449488698;2.1360898017900003;0.814381539822;0.0682883486152;2;True;23;2;192.484400153146
367;367;1449488698;2.1360380649599997;0.814130544662;0.0683196410537;2;True;23;2;192.484400153146
368;368;1449488698;2.1361241340599997;0.8141877055169999;0.06829277426;2;True;23;2;192.484400153146
369;369;1449488698;2.13602733612;0.8142445683480001;0.06828105449680001;2;True;23;2;192.484400153146
370;370;1449488698;2.13604211807;0.81408983469;0.06858624517919999;2;True;23;2;192.484400153146
371;371;1449488698;2.1356844902;0.8139252662659999;0.0683081969619;2;True;23;2;192.484400153146
372;372;1449488698;2.13623380661;0.813978970051;0.0686460062861;2;True;23;2;192.484400153146
373;373;1449488698;2.13581037521;0.814224004745;0.0682665035129;2;True;23;2;192.484400153146
374;374;1449488698;2.1360578537;0.8141781091689999;0.0684356689453;2;True;23;2;192.484400153146
375;375;1449488698;2.1356835365299998;0.814093351364;0.0683490335941;2;True;23;2;192.484400153146
376;376;1449488698;2.13567399979;0.814023196697;0.0685522258282;2;True;23;2;192.484400153146
377;377;1449488698;2.13548350334;0.8139522671699999;0.0684828981757;2;True;23;2;192.484400153146
378;378;1449488698;2.13592791557;0.8139096498489999;0.0683405175805;2;True;23;2;192.484400153146
379;379;1449488698;2.13608884811;0.8142662644390001;0.0682829841971;2;True;23;2;192.484400153146
380;380;1449488698;2.13564777374;0.814015686512;0.06832429021599999;2;True;23;2;192.484400153146
381;381;1449488698;2.13617825508;0.8142359256739999;0.0682889670134;2;True;23;2;192.484400153146
382;382;1449488698;2.13587284088;0.814184963703;0.06835738569500001;2;True;23;2;192.484400153146
383;383;1449488698;2.13585543633;0.814168035984;0.0683298185468;2;True;23;2;192.484400153146
384;384;1449488698;2.13605904579;0.8142290711399999;0.0683741942048;2;True;23;2;192.484400153146
385;385;1449488698;2.13604187965;0.814444541931;0.0683299303055;2;True;23;2;192.484400153146
386;386;1449488698;2.13611578941;0.814275503159;0.0684069693089;2;True;23;2;192.484400153146
387;387;1449488698;2.13586783409;0.8137754201890001;0.0690236389637;2;True;23;2;192.484400153146
388;388;1449488698;2.13613963127;0.814244389534;0.06832307577130001;2;True;23;2;192.484400153146
389;389;1449488698;2.13589310646;0.8142352104189999;0.0682889074087;2;True;23;2;192.484400153146
390;390;1449488698;2.13581037521;0.81418722868;0.0684663653374;2;True;23;2;192.484400153146
391;391;1449488698;2.13575935364;0.8140796422959999;0.0684285610914;2;True;23;2;192.484400153146
392;392;1449488698;2.1360886097;0.81426692009;0.068295493722;2;True;23;2;192.484400153146
393;393;1449488698;2.1359975338;0.8141863942149999;0.0683754011989;2;True;23;2;192.484400153146
394;394;1449488698;2.13607573509;0.8142121434209999;0.0682617127895;2;True;23;2;192.484400153146
395;395;1449488698;2.13622641563;0.813728392124;0.0686848312616;2;True;23;2;192.484400153146
396;396;1449488698;2.13558030128;0.813789844513;0.0680539831519;2;True;23;2;192.484400153146
397;397;1449488698;2.13566613197;0.8139767050740001;0.0683239027858;2;True;23;2;192.484400153146
398;398;1449488698;2.13602089882;0.814257919788;0.068301782012;2;True;23;2;192.484400153146
399;399;1449488698;2.13544297218;0.814539849758;0.0679378882051;2;True;23;2;192.484400153146
400;400;1449488698;2.13567733765;0.814345002174;0.0681096538901;2;True;23;2;192.484400153146
401;401;1449488698;2.13561177254;0.814165472984;0.0683133155107;2;True;23;2;192.484400153146
402;402;1449488698;2.1356785297400003;0.8141626119609999;0.0683039575815;2;True;23;2;192.484400153146
403;403;1449488698;2.13580608368;0.8141255974770001;0.068281210959;2;True;23;2;192.484400153146
404;404;1449488698;2.13560461998;0.8138182163240001;0.06836457550530001;2;True;23;2;192.484400153146
405;405;1449488698;2.13576102257;0.814113974571;0.0682621002197;2;True;23;2;192.484400153146
406;406;1449488698;2.13595509529;0.814228355885;0.0682963430882;2;True;23;2;192.484400153146
407;407;1449488698;2.13609290123;0.814268290997;0.0683185383677;2;True;23;2;192.484400153146
408;408;1449488698;2.13565802574;0.814349293709;0.0683835148811;2;True;23;2;192.484400153146
409;409;1449488698;2.1359958648700004;0.814123153687;0.0683743134141;2;True;23;2;192.484400153146
410;410;1449488698;2.13582706451;0.8139943480490001;0.0683789104223;2;True;23;2;192.484400153146
411;411;1449488698;2.13572025299;0.814155817032;0.0683362036943;2;True;23;2;192.484400153146
412;412;1449488698;2.1356461048099997;0.813978135586;0.06843744963409999;2;True;23;2;192.484400153146
413;413;1449488698;2.1361401081099998;0.814421355724;0.0683480873704;2;True;23;2;192.484400153146
414;414;1449488698;2.13560962677;0.814138233662;0.0684546902776;2;True;23;2;192.484400153146
415;415;1449488698;2.13603401184;0.814196169376;0.068299561739;2;True;23;2;192.484400153146
416;416;1449488698;2.13578510284;0.814148068428;0.06830032914880001;2;True;23;2;192.484400153146
417;417;1449488698;2.1357164382900002;0.814082443714;0.0683072209358;2;True;23;2;192.484400153146
418;418;1449488698;2.13587665558;0.813825666904;0.0681658312678;2;True;23;2;192.484400153146
419;419;1449488698;2.1358501911200003;0.8141085505490001;0.0683157294989;2;True;23;2;192.484400153146
420;420;1449488698;2.13565826416;0.813910424709;0.0680261924863;2;True;23;2;192.484400153146
421;421;1449488698;2.13545823097;0.814198374748;0.0685250684619;2;True;23;2;192.484400153146
422;422;1449488698;2.13555574417;0.814172446728;0.0681640729308;2;True;23;2;192.484400153146
423;423;1449488698;2.13588547707;0.814297258854;0.0685528740287;2;True;23;2;192.484400153146
424;424;1449488698;2.13585567474;0.813989758492;0.0680659487844;2;True;23;2;192.484400153146
425;425;1449488698;2.13625788689;0.814333498478;0.0683255493641;2;True;23;2;192.484400153146
426;426;1449488698;2.13602662086;0.8142675757410001;0.0683267861605;2;True;23;2;192.484400153146
427;427;1449488698;2.135876894;0.8142659664149999;0.0683121532202;2;True;23;2;192.484400153146
428;428;1449488698;2.1357386112200003;0.8142099380490001;0.0682897269726;2;True;23;2;192.484400153146
429;429;1449488698;2.13592100143;0.8140365481380001;0.0684831291437;2;True;23;2;192.484400153146
430;430;1449488698;2.13584208488;0.814223945141;0.0682768374681;2;True;23;2;192.484400153146
431;431;1449488698;2.13617873192;0.814339578152;0.0683252364397;2;True;23;2;192.484400153146
432;432;1449488698;2.1356399059299997;0.814428925514;0.0681989192963;2;True;23;2;192.484400153146
433;433;1449488698;2.1359603405;0.814211666584;0.0683081522584;2;True;23;2;192.484400153146
434;434;1449488698;2.13611555099;0.814229369164;0.0683948993683;2;True;23;2;192.484400153146
435;435;1449488698;2.13551974297;0.8138653039929999;0.06832203268999999;2;True;23;2;192.484400153146
436;436;1449488698;2.13596320152;0.8142131567;0.0681389942765;2;True;23;2;192.484400153146
437;437;1449488698;2.1358489990200002;0.81379622221;0.0682262778282;2;True;23;2;192.484400153146
438;438;1449488698;2.1358587741900004;0.8142204284669999;0.0682688429952;2;True;23;2;192.484400153146
439;439;1449488698;2.13579678535;0.814215898514;0.0682786181569;2;True;23;2;192.484400153146
440;440;1449488698;2.13563776016;0.814129531384;0.06828507781030001;2;True;23;2;192.484400153146
441;441;1449488698;2.13590693474;0.813993155956;0.0684552788734;2;True;23;2;192.484400153146
442;442;1449488698;2.13596153259;0.814236700535;0.06805577874180001;2;True;23;2;192.484400153146
443;443;1449488698;2.13579487801;0.8140590190889999;0.0683661028743;2;True;23;2;192.484400153146
444;444;1449488698;2.1356356144;0.8141173720360001;0.0681843087077;2;True;23;2;192.484400153146
445;445;1449488698;2.13597130775;0.8142309784890001;0.0682651251554;2;True;23;2;192.484400153146
446;446;1449488698;2.13598918915;0.814028024673;0.0685060918331;2;True;23;2;192.484400153146
447;447;1449488698;2.1360619068099997;0.814303219318;0.0682744905353;2;True;23;2;192.484400153146
448;448;1449488698;2.1358428001400003;0.8142363429070001;0.0682588964701;2;True;23;2;192.484400153146
449;449;1449488698;2.13610339165;0.8143256902689999;0.0682824105024;2;True;23;2;192.484400153146
450;450;1449488698;2.13564300537;0.813966035843;0.0682089626789;2;True;23;2;192.484400153146
451;451;1449488698;2.13578057289;0.814072191715;0.0682796984911;2;True;23;2;192.484400153146
452;452;1449488698;2.13566708565;0.8142955899240001;0.0681467801332;2;True;23;2;192.484400153146
453;453;1449488698;2.1354811191599996;0.8142862915989999;0.06854751706119999;2;True;23;2;192.484400153146
454;454;1449488698;2.1360354423500003;0.81422740221;0.06826542317869999;2;True;23;2;192.484400153146
455;455;1449488698;2.13544130325;0.814634144306;0.0679363384843;2;True;23;2;192.484400153146
456;456;1449488698;2.13603830338;0.8143072724339999;0.0682970583439;2;True;23;2;192.484400153146
457;457;1449488698;2.13583302498;0.8141543865199999;0.06825141608719999;2;True;23;2;192.484400153146
458;458;1449488698;2.13565921783;0.814378142357;0.0680859833956;2;True;23;2;192.484400153146
459;459;1449488698;2.13614249229;0.814494729042;0.06827102601530001;2;True;23;2;192.484400153146
460;460;1449488698;2.13557767868;0.8138381242749999;0.0684625580907;2;True;23;2;192.484400153146
461;461;1449488698;2.1360042095200003;0.8141037821770001;0.0683377385139;2;True;23;2;192.484400153146
462;462;1449488698;2.1358227729799997;0.814160764217;0.0682586580515;2;True;23;2;192.484400153146
463;463;1449488698;2.13624811172;0.81436920166;0.0682830512524;2;True;23;2;192.484400153146
464;464;1449488698;2.1354713439900004;0.814057171345;0.0682868212461;2;True;23;2;192.484400153146
465;465;1449488698;2.13638162613;0.813946723938;0.0689091905951;2;True;23;2;192.484400153146
466;466;1449488698;2.1356959343;0.8144060373309999;0.0678401514888;2;True;23;2;192.484400153146
467;467;1449488698;2.13583946228;0.814192891121;0.068322815001;2;True;23;2;192.484400153146
468;468;1449488698;2.13591647148;0.81425100565;0.0682676285505;2;True;23;2;192.484400153146
469;469;1449488698;2.1359884738900003;0.813499808311;0.0685980468988;2;True;23;2;192.484400153146
470;470;1449488698;2.1356544494599996;0.813901543617;0.06845431029799999;2;True;23;2;192.484400153146
471;471;1449488698;2.13607788086;0.8140907883640001;0.0684129148722;2;True;23;2;192.484400153146
472;472;1449488698;2.13588380814;0.814340472221;0.0680200085044;2;True;23;2;192.484400153146
473;473;1449488698;2.1354248523700003;0.814303517342;0.06801405549049999;2;True;23;2;192.484400153146
474;474;1449488698;2.1359608173400004;0.8137235641480001;0.06851530075069999;2;True;23;2;192.484400153146
475;475;1449488698;2.13592076302;0.814133048058;0.068281956017;2;True;23;2;192.484400153146
476;476;1449488698;2.13581418991;0.8142446875570001;0.0682586729527;2;True;23;2;192.484400153146
477;477;1449488698;2.13581633568;0.81415694952;0.0682796686888;2;True;23;2;192.484400153146
478;478;1449488698;2.13593530655;0.814231395721;0.0682767853141;2;True;23;2;192.484400153146
479;479;1449488698;2.13607788086;0.8142087459559999;0.0682848393917;2;True;23;2;192.484400153146
480;480;1449488698;2.1357443332700004;0.814196765423;0.0682683214545;2;True;23;2;192.484400153146
481;481;1449488698;2.13586306572;0.813865244389;0.0683757588267;2;True;23;2;192.484400153146
482;482;1449488698;2.13600850105;0.814225435257;0.068386182189;2;True;23;2;192.484400153146
483;483;1449488698;2.1358206272099998;0.8142410516740001;0.06828302145;2;True;23;2;192.484400153146
484;484;1449488698;2.13553905487;0.813930869102;0.068335339427;2;True;23;2;192.484400153146
485;485;1449488698;2.1360812187200002;0.8141856193539999;0.0683888345957;2;True;23;2;192.484400153146
486;486;1449488698;2.13584923744;0.81408059597;0.0683603659272;2;True;23;2;192.484400153146
487;487;1449488698;2.1356818676;0.814239561558;0.0681574717164;2;True;23;2;192.484400153146
488;488;1449488698;2.13580226898;0.814241826534;0.0682759508491;2;True;23;2;192.484400153146
489;489;1449488698;2.13612794876;0.814258635044;0.0683625862002;2;True;23;2;192.484400153146
490;490;1449488698;2.13600277901;0.8143686056139999;0.0682529881597;2;True;23;2;192.484400153146
491;491;1449488698;2.1359322071099998;0.8140228390690001;0.0684240236878;2;True;23;2;192.484400153146
492;492;1449488698;2.13577508926;0.8142157197;0.0682801306248;2;True;23;2;192.484400153146
493;493;1449488698;2.1361904144299997;0.814661860466;0.0683842599392;2;True;23;2;192.484400153146
494;494;1449488698;2.13568115234;0.8140592575069999;0.0683136209846;2;True;23;2;192.484400153146
495;495;1449488698;2.13586306572;0.81407392025;0.06831420958039999;2;True;23;2;192.484400153146
496;496;1449488698;2.13556432724;0.813935935497;0.06842934340239999;2;True;23;2;192.484400153146
497;497;1449488698;2.1359980106400003;0.813812673092;0.0683518350124;2;True;23;2;192.484400153146
498;498;1449488698;2.1356801986700003;0.8141167759899999;0.0683530345559;2;True;23;2;192.484400153146
499;499;1449488698;2.13565468788;0.8139814138410001;0.0685611441731;2;True;23;2;192.484400153146
500;500;1449488698;2.1359944343599997;0.814274251461;0.0683115720749;2;True;23;2;192.484400153146
501;501;1449488698;2.13599658012;0.814129829407;0.06831777840850001;2;True;23;2;192.484400153146
502;502;1449488698;2.13547372818;0.8146551847460001;0.0677064210176;2;True;23;2;192.484400153146
503;503;1449488698;2.13604927063;0.81425011158;0.0683414265513;2;True;23;2;192.484400153146
504;504;1449488698;2.1360585689500002;0.814568698406;0.0683493837714;2;True;23;2;192.484400153146
505;505;1449488698;2.13599920273;0.814220368862;0.0682862475514;2;True;23;2;192.484400153146
506;506;1449488698;2.13584017754;0.814035356045;0.0684251338243;2;True;23;2;192.484400153146
507;507;1449488698;2.1360316276599995;0.814050376415;0.0685408040881;2;True;23;2;192.484400153146
508;508;1449488698;2.13591361046;0.8141903281209999;0.0683487653732;2;True;23;2;192.484400153146
509;509;1449488698;2.13598442078;0.813935995102;0.0686125308275;2;True;23;2;192.484400153146
510;510;1449488698;2.1363546848299997;0.814379870892;0.06836159527300001;2;True;23;2;192.484400153146
511;511;1449488698;2.13655138016;0.8137665987010001;0.0687818676233;2;True;23;2;192.484400153146
512;512;1449488698;2.1355483532;0.813995480537;0.0683217272162;2;True;23;2;192.484400153146
513;513;1449488698;2.13578009605;0.814180970192;0.06829077005390001;2;True;23;2;192.484400153146
514;514;1449488698;2.13594341278;0.8139543533329999;0.0683588907123;2;True;23;2;192.484400153146
515;515;1449488698;2.13628435135;0.8138646483419999;0.0682709887624;2;True;23;2;192.484400153146
516;516;1449488698;2.13591122627;0.814131379128;0.0684122368693;2;True;23;2;192.484400153146
517;517;1449488698;2.13576197624;0.814357101917;0.0681214556098;2;True;23;2;192.484400153146
518;518;1449488698;2.13599705696;0.814040243626;0.0685702040792;2;True;23;2;192.484400153146
519;519;1449488698;2.1359667778;0.814819991589;0.0681689679623;2;True;23;2;192.484400153146
520;520;1449488699;2.13599085808;0.814323961735;0.0679534971714;3;True;23;2;192.484400153146
521;521;1449488699;2.13619112968;0.8142995834350001;0.06843319535260001;3;True;23;2;192.484400153146
522;522;1449488699;2.13618731499;0.814346194267;0.06834863126280001;3;True;23;2;192.484400153146
523;523;1449488699;2.1359596252400004;0.814142167568;0.0683287084103;3;True;23;2;192.484400153146
524;524;1449488699;2.13592004776;0.814036786556;0.0682649090886;3;True;23;2;192.484400153146
525;525;1449488699;2.13615083694;0.81429374218;0.06833218038080001;3;True;23;2;192.484400153146
526;526;1449488699;2.13585495949;0.814166665077;0.068454362452;3;True;23;2;192.484400153146
527;527;1449488699;2.13578987122;0.814214587212;0.0682308450341;3;True;23;2;192.484400153146
528;528;1449488699;2.1359367370599998;0.814274847507;0.0682989507914;3;True;23;2;192.484400153146
529;529;1449488699;2.13612294197;0.813671708107;0.0686920434237;3;True;23;2;192.484400153146
530;530;1449488699;2.1356921196000003;0.813836872578;0.0685003399849;3;True;23;2;192.484400153146
531;531;1449488699;2.1361284256;0.814460158348;0.0683194100857;3;True;23;2;192.484400153146
532;532;1449488699;2.13569045067;0.814032316208;0.0683241933584;3;True;23;2;192.484400153146
533;533;1449488699;2.13584518433;0.814057350159;0.0686348453164;3;True;23;2;192.484400153146
534;534;1449488699;2.1359205246;0.814142525196;0.068266697228;3;True;23;2;192.484400153146
535;535;1449488699;2.13623118401;0.814158678055;0.06846937537190001;3;True;23;2;192.484400153146
536;536;1449488699;2.13571763039;0.814285695553;0.0685402080417;3;True;23;2;192.484400153146
537;537;1449488699;2.13598275185;0.814166724682;0.0684628039598;3;True;23;2;192.484400153146
538;538;1449488699;2.1358749866499998;0.814136266708;0.0682870522141;3;True;23;2;192.484400153146
539;539;1449488699;2.13593912125;0.8142889738079999;0.0683192014694;3;True;23;2;192.484400153146
540;540;1449488699;2.1359729766799997;0.814024627209;0.0683533251286;3;True;23;2;192.484400153146
541;541;1449488699;2.13600277901;0.814186811447;0.0682862848043;3;True;23;2;192.484400153146
542;542;1449488699;2.13614916801;0.8142969012260001;0.0682897120714;3;True;23;2;192.484400153146
543;543;1449488699;2.13632488251;0.813920795918;0.0686972886324;3;True;23;2;192.484400153146
544;544;1449488699;2.1359932422599996;0.814048588276;0.0685285404325;3;True;23;2;192.484400153146
545;545;1449488699;2.1354725360900004;0.814523339272;0.0679942294955;3;True;23;2;192.484400153146
546;546;1449488699;2.13612699509;0.814309537411;0.0682864114642;3;True;23;2;192.484400153146
547;547;1449488699;2.1357023716;0.8141108751299999;0.0682678818703;3;True;23;2;192.484400153146
548;548;1449488699;2.13553571701;0.8141694068909999;0.0680932849646;3;True;23;2;192.484400153146
549;549;1449488699;2.13607215881;0.8140072226520001;0.0685431435704;3;True;23;2;192.484400153146
550;550;1449488699;2.13553190231;0.814299106598;0.0679745450616;3;True;23;2;192.484400153146
551;551;1449488699;2.13603615761;0.8140209317209999;0.0683990642428;3;True;23;2;192.484400153146
552;552;1449488699;2.1356778144799997;0.81405299902;0.0682581663132;3;True;23;2;192.484400153146
553;553;1449488699;2.13603329659;0.814120411873;0.06841079890730001;3;True;23;2;192.484400153146
554;554;1449488699;2.1357192993200003;0.8138758540150001;0.0683034807444;3;True;23;2;192.484400153146
555;555;1449488699;2.13550257683;0.814070761204;0.0682074427605;3;True;23;2;192.484400153146
556;556;1449488699;2.1361002922099996;0.8142970204350001;0.06825271248819999;3;True;23;2;192.484400153146
557;557;1449488699;2.1358437538099997;0.8140685558319999;0.0683055967093;3;True;23;2;192.484400153146
558;558;1449488699;2.1360042095200003;0.814118027687;0.0683186426759;3;True;23;2;192.484400153146
559;559;1449488699;2.13571810722;0.8142202496529999;0.0682411417365;3;True;23;2;192.484400153146
560;560;1449488699;2.13580775261;0.8139424920080001;0.0684320479631;3;True;23;2;192.484400153146
561;561;1449488699;2.13592910767;0.814257979393;0.0681787654757;3;True;23;2;192.484400153146
562;562;1449488699;2.13589692116;0.81400591135;0.0686084479094;3;True;23;2;192.484400153146
563;563;1449488699;2.13623571396;0.814333081245;0.0682655200362;3;True;23;2;192.484400153146
564;564;1449488699;2.13613176346;0.8141624331470001;0.0682721063495;3;True;23;2;192.484400153146
565;565;1449488699;2.1360828876499998;0.8140659332279999;0.0681281238794;3;True;23;2;192.484400153146
566;566;1449488699;2.13615226746;0.814261376858;0.0683502405882;3;True;23;2;192.484400153146
567;567;1449488699;2.13596916199;0.813920915127;0.0684692114592;3;True;23;2;192.484400153146
568;568;1449488699;2.13584017754;0.814098834991;0.0683309063315;3;True;23;2;192.484400153146
569;569;1449488699;2.13606882095;0.814232110977;0.0682814866304;3;True;23;2;192.484400153146
570;570;1449488699;2.13530993462;0.8140481710430001;0.0681048631668;3;True;23;2;192.484400153146
571;571;1449488699;2.13541030884;0.813871562481;0.0683484598994;3;True;23;2;192.484400153146
572;572;1449488699;2.13571429253;0.813981115818;0.0684617012739;3;True;23;2;192.484400153146
573;573;1449488699;2.1359596252400004;0.8142874836920001;0.06824326515200001;3;True;23;2;192.484400153146
574;574;1449488699;2.1359217166900004;0.8140651583670001;0.0682664364576;3;True;23;2;192.484400153146
575;575;1449488699;2.13580393791;0.8140482306479999;0.0682827979326;3;True;23;2;192.484400153146
576;576;1449488699;2.13543438911;0.8144719600679999;0.0678167417645;3;True;23;2;192.484400153146
577;577;1449488699;2.1361236572299998;0.814087212086;0.06823986023659999;3;True;23;2;192.484400153146
578;578;1449488699;2.1359577178999998;0.81388938427;0.06886339932680001;3;True;23;2;192.484400153146
579;579;1449488699;2.13571238518;0.814267516136;0.0683757811785;3;True;23;2;192.484400153146
580;580;1449488699;2.1361150741599997;0.814292013645;0.0683598071337;3;True;23;2;192.484400153146
581;581;1449488699;2.13605356216;0.814174830914;0.06827057898040001;3;True;23;2;192.484400153146
582;582;1449488699;2.13588786125;0.814022600651;0.06827390939;3;True;23;2;192.484400153146
583;583;1449488699;2.13554382324;0.813790142536;0.06827933341260001;3;True;23;2;192.484400153146
584;584;1449488699;2.13602471352;0.8142766952509999;0.0683024227619;3;True;23;2;192.484400153146
585;585;1449488699;2.13580393791;0.814133942127;0.0682920962572;3;True;23;2;192.484400153146
586;586;1449488699;2.13610935211;0.8142351508140001;0.0682873874903;3;True;23;2;192.484400153146
587;587;1449488699;2.1361656189;0.814303338528;0.0682675614953;3;True;23;2;192.484400153146
588;588;1449488699;2.13602828979;0.81435239315;0.06860578060150001;3;True;23;2;192.484400153146
589;589;1449488699;2.1361231803900003;0.8143140077590001;0.0686430260539;3;True;23;2;192.484400153146
590;590;1449488699;2.13578701019;0.814115941525;0.0684396699071;3;True;23;2;192.484400153146
591;591;1449488699;2.13618659973;0.814270615578;0.0683821961284;3;True;23;2;192.484400153146
592;592;1449488699;2.13564038277;0.814261078835;0.0681968405843;3;True;23;2;192.484400153146
593;593;1449488699;2.13611793518;0.814329743385;0.0683316364884;3;True;23;2;192.484400153146
594;594;1449488699;2.13625717163;0.81442117691;0.0684331282973;3;True;23;2;192.484400153146
595;595;1449488699;2.1362895965599997;0.814470946789;0.0683810114861;3;True;23;2;192.484400153146
596;596;1449488699;2.13621139526;0.814280569553;0.0683358684182;3;True;23;2;192.484400153146
597;597;1449488699;2.13607287407;0.8143079876899999;0.0683076903224;3;True;23;2;192.484400153146
598;598;1449488699;2.13536643982;0.8140295147900001;0.0683116093278;3;True;23;2;192.484400153146
599;599;1449488699;2.13566279411;0.8145191073420001;0.0681840851903;3;True;23;2;192.484400153146
600;600;1449488699;2.1356458663900004;0.8141087889669999;0.0682728216052;3;True;23;2;192.484400153146
601;601;1449488699;2.13600206375;0.813880741596;0.0687040686607;3;True;23;2;192.484400153146
602;602;1449488699;2.13616490364;0.8143036961560001;0.0683355778456;3;True;23;2;192.484400153146
603;603;1449488699;2.1356511116;0.813926339149;0.0683188661933;3;True;23;2;192.484400153146
604;604;1449488699;2.13620638847;0.8142367601389999;0.0684164166451;3;True;23;2;192.484400153146
605;605;1449488699;2.1357946395900003;0.814310014248;0.06833198666569999;3;True;23;2;192.484400153146
606;606;1449488699;2.13566422462;0.814095079899;0.0682588070631;3;True;23;2;192.484400153146
607;607;1449488699;2.13589859009;0.8142642974850001;0.06821554154159999;3;True;23;2;192.484400153146
608;608;1449488699;2.13622117043;0.814375698566;0.0683508366346;3;True;23;2;192.484400153146
609;609;1449488699;2.13530302048;0.814061641693;0.0683721378446;3;True;23;2;192.484400153146
610;610;1449488699;2.13559937477;0.8142216205600001;0.0683507695794;3;True;23;2;192.484400153146
611;611;1449488699;2.13573360443;0.8141800165180001;0.0683045089245;3;True;23;2;192.484400153146
612;612;1449488699;2.1361343860599997;0.813890814781;0.06891453266139999;3;True;23;2;192.484400153146
613;613;1449488699;2.13560843468;0.81429463625;0.0682494044304;3;True;23;2;192.484400153146
614;614;1449488699;2.1360673904400005;0.814242780209;0.068441644311;3;True;23;2;192.484400153146
615;615;1449488699;2.1361656189;0.814215660095;0.0684422701597;3;True;23;2;192.484400153146
616;616;1449488699;2.13582372665;0.814469099045;0.0682636648417;3;True;23;2;192.484400153146
617;617;1449488699;2.1363158226;0.814388990402;0.0683586969972;3;True;23;2;192.484400153146
