;Unnamed: 0;header_stamp_secs;pose_position_x;pose_position_y;pose_position_z;seconds;drop_values;flight_number;label;dtw
0;0;1449489464;2.14023423195;0.7973512411120001;0.0684425085783;0;True;25;2;155.04107880593617
1;1;1449489464;2.14006972313;0.7972894906999999;0.0685889497399;0;True;25;2;155.04107880593617
2;2;1449489464;2.1400792598700003;0.797251820564;0.06858003139499999;0;True;25;2;155.04107880593617
3;3;1449489464;2.14019203186;0.797297477722;0.06852887570859999;0;True;25;2;155.04107880593617
4;4;1449489464;2.1401550769799997;0.797328352928;0.068556599319;0;True;25;2;155.04107880593617
5;5;1449489464;2.1400201320599996;0.797011911869;0.06855919957159999;0;True;25;2;155.04107880593617
6;6;1449489464;2.1400878429400003;0.797216296196;0.0686417296529;0;True;25;2;155.04107880593617
7;7;1449489464;2.14006900787;0.7972937822339999;0.06864497810600001;0;True;25;2;155.04107880593617
8;8;1449489464;2.14006543159;0.7973446249959999;0.0685454681516;0;True;25;2;155.04107880593617
9;9;1449489464;2.1402130127000003;0.797270894051;0.06843899935480001;0;True;25;2;155.04107880593617
10;10;1449489464;2.1402521133400003;0.797270655632;0.0684289187193;0;True;25;2;155.04107880593617
11;11;1449489464;2.14013385773;0.7973138093950001;0.0686056688428;0;True;25;2;155.04107880593617
12;12;1449489464;2.14014983177;0.797279417515;0.06857967376709999;0;True;25;2;155.04107880593617
13;13;1449489464;2.1402640342700003;0.797360956669;0.0683981627226;0;True;25;2;155.04107880593617
14;14;1449489464;2.14022994041;0.797207474709;0.0683760717511;0;True;25;2;155.04107880593617
15;15;1449489464;2.14012145996;0.797318398952;0.0685987994075;0;True;25;2;155.04107880593617
16;16;1449489464;2.1402285099;0.797335982323;0.0684182196856;0;True;25;2;155.04107880593617
17;17;1449489464;2.14010238647;0.797245383263;0.0685455352068;0;True;25;2;155.04107880593617
18;18;1449489464;2.14009618759;0.797213017941;0.0686122402549;0;True;25;2;155.04107880593617
19;19;1449489464;2.14027500153;0.797419726849;0.0683421716094;0;True;25;2;155.04107880593617
20;20;1449489464;2.14028406143;0.7973960042;0.06836177408699999;0;True;25;2;155.04107880593617
21;21;1449489464;2.1402759552;0.797478854656;0.0683420449495;0;True;25;2;155.04107880593617
22;22;1449489464;2.14020085335;0.7973328232770001;0.06848558783530001;0;True;25;2;155.04107880593617
23;23;1449489464;2.14010095596;0.797287046909;0.068623714149;0;True;25;2;155.04107880593617
24;24;1449489464;2.14013433456;0.7973744869230001;0.0686407983303;0;True;25;2;155.04107880593617
25;25;1449489464;2.1402618885;0.7973953485490001;0.06839298456910001;0;True;25;2;155.04107880593617
26;26;1449489464;2.14009714127;0.797086298466;0.0685446113348;0;True;25;2;155.04107880593617
27;27;1449489464;2.14001369476;0.7973126769069999;0.0687463507056;0;True;25;2;155.04107880593617
28;28;1449489464;2.14007043839;0.797280550003;0.0685866549611;0;True;25;2;155.04107880593617
29;29;1449489464;2.14012503624;0.7970969080920001;0.0685064196587;0;True;25;2;155.04107880593617
30;30;1449489464;2.1402707099900002;0.797277390957;0.0683458968997;0;True;25;2;155.04107880593617
31;31;1449489464;2.14013242722;0.79711908102;0.06851323693990001;0;True;25;2;155.04107880593617
32;32;1449489464;2.14025402069;0.797336757183;0.0683867558837;0;True;25;2;155.04107880593617
33;33;1449489464;2.14013409615;0.7972827553749999;0.0685397684574;0;True;25;2;155.04107880593617
34;34;1449489464;2.14005231857;0.7973011136049999;0.0685889869928;0;True;25;2;155.04107880593617
35;35;1449489464;2.1400885582;0.797338068485;0.0685831308365;0;True;25;2;155.04107880593617
36;36;1449489464;2.14025473595;0.797302007675;0.0684262663126;0;True;25;2;155.04107880593617
37;37;1449489464;2.1400067806200003;0.797034800053;0.0685584396124;0;True;25;2;155.04107880593617
38;38;1449489465;2.14006662369;0.796976983547;0.0685296133161;1;True;25;2;155.04107880593617
39;39;1449489465;2.14025640488;0.7973228096960001;0.0683397501707;1;True;25;2;155.04107880593617
40;40;1449489465;2.1402027607;0.79728782177;0.0684353262186;1;True;25;2;155.04107880593617
41;41;1449489465;2.14009714127;0.797257423401;0.0685566067696;1;True;25;2;155.04107880593617
42;42;1449489465;2.1401228904700003;0.797254025936;0.0685616582632;1;True;25;2;155.04107880593617
43;43;1449489465;2.1400966644299997;0.7971097826960001;0.0685276836157;1;True;25;2;155.04107880593617
44;44;1449489465;2.14009785652;0.797172725201;0.0685665905476;1;True;25;2;155.04107880593617
45;45;1449489465;2.14004802704;0.797232210636;0.06869377940890001;1;True;25;2;155.04107880593617
46;46;1449489465;2.14019560814;0.797374904156;0.0684896036983;1;True;25;2;155.04107880593617
47;47;1449489465;2.14008116722;0.797300696373;0.06866295635700001;1;True;25;2;155.04107880593617
48;48;1449489465;2.1400797367099997;0.7972447276119999;0.0686033442616;1;True;25;2;155.04107880593617
49;49;1449489465;2.1402425766;0.7974084615710001;0.068441838026;1;True;25;2;155.04107880593617
50;50;1449489465;2.1401183605200003;0.7972949147220001;0.06859185546640001;1;True;25;2;155.04107880593617
51;51;1449489465;2.14020514488;0.7973365187639999;0.0684846937656;1;True;25;2;155.04107880593617
52;52;1449489465;2.1401131153099997;0.797177374363;0.0685795098543;1;True;25;2;155.04107880593617
53;53;1449489465;2.14004826546;0.797250330448;0.06863564997909999;1;True;25;2;155.04107880593617
54;54;1449489465;2.1400299072299998;0.797245562077;0.0687532871962;1;True;25;2;155.04107880593617
55;55;1449489465;2.14010310173;0.797284841537;0.06860550492999999;1;True;25;2;155.04107880593617
56;56;1449489465;2.1402337551099997;0.7972227334980001;0.0683755129576;1;True;25;2;155.04107880593617
57;57;1449489465;2.1400513649;0.7971960306170001;0.0687049180269;1;True;25;2;155.04107880593617
58;58;1449489465;2.1401562690700002;0.7973535060879999;0.06858917325740001;1;True;25;2;155.04107880593617
59;59;1449489465;2.14010453224;0.79727512598;0.0685600265861;1;True;25;2;155.04107880593617
60;60;1449489465;2.14026331902;0.797481656075;0.0683937594295;1;True;25;2;155.04107880593617
61;61;1449489465;2.14013004303;0.797284841537;0.0685565397143;1;True;25;2;155.04107880593617
62;62;1449489465;2.14009594917;0.797334253788;0.0685892254114;1;True;25;2;155.04107880593617
63;63;1449489465;2.1401026248900004;0.797200620174;0.068670026958;1;True;25;2;155.04107880593617
64;64;1449489465;2.14009284973;0.797232806683;0.0685626938939;1;True;25;2;155.04107880593617
65;65;1449489465;2.14007043839;0.7972723841670001;0.0686993822455;1;True;25;2;155.04107880593617
66;66;1449489465;2.140188694;0.7973895668979999;0.0685222521424;1;True;25;2;155.04107880593617
67;67;1449489465;2.14015436172;0.797303915024;0.068550594151;1;True;25;2;155.04107880593617
68;68;1449489465;2.14019560814;0.79735904932;0.0684878081083;1;True;25;2;155.04107880593617
69;69;1449489465;2.14017271996;0.7972185611720001;0.06848696619269999;1;True;25;2;155.04107880593617
70;70;1449489465;2.14005589485;0.797327041626;0.06863158941269999;1;True;25;2;155.04107880593617
71;71;1449489465;2.1401946544599997;0.797378778458;0.0685032531619;1;True;25;2;155.04107880593617
72;72;1449489465;2.1402378082299998;0.7972254753110001;0.0683887824416;1;True;25;2;155.04107880593617
73;73;1449489465;2.14015269279;0.797388732433;0.068625420332;1;True;25;2;155.04107880593617
74;74;1449489465;2.14012980461;0.797112941742;0.0685127824545;1;True;25;2;155.04107880593617
75;75;1449489465;2.14007639885;0.797294735909;0.0687141343951;1;True;25;2;155.04107880593617
76;76;1449489465;2.14022397995;0.7973011136049999;0.06846944242719999;1;True;25;2;155.04107880593617
77;77;1449489465;2.14017486572;0.79730463028;0.068532846868;1;True;25;2;155.04107880593617
78;78;1449489465;2.14019775391;0.7973363399510001;0.06847728788850001;1;True;25;2;155.04107880593617
79;79;1449489465;2.14020490646;0.797295749187;0.0684401243925;1;True;25;2;155.04107880593617
80;80;1449489465;2.14016771317;0.797323286533;0.0685948878527;1;True;25;2;155.04107880593617
81;81;1449489465;2.1401245594;0.797111868858;0.06852579861880001;1;True;25;2;155.04107880593617
82;82;1449489465;2.14019966125;0.79738843441;0.0685180574656;1;True;25;2;155.04107880593617
83;83;1449489465;2.1401937007900003;0.797386407852;0.0685191377997;1;True;25;2;155.04107880593617
84;84;1449489465;2.14016509056;0.797026991844;0.06851784884930001;1;True;25;2;155.04107880593617
85;85;1449489465;2.14013671875;0.7973225116730001;0.06862404942509999;1;True;25;2;155.04107880593617
86;86;1449489465;2.1401848793;0.7972380518909999;0.0684615150094;1;True;25;2;155.04107880593617
87;87;1449489465;2.14004230499;0.79711151123;0.0686100721359;1;True;25;2;155.04107880593617
88;88;1449489465;2.14019107819;0.7973126769069999;0.06848981976509999;1;True;25;2;155.04107880593617
89;89;1449489465;2.14019489288;0.7973333001139999;0.0684943273664;1;True;25;2;155.04107880593617
90;90;1449489465;2.1401171684299998;0.797214865685;0.0686315745115;1;True;25;2;155.04107880593617
91;91;1449489465;2.14014482498;0.797292768955;0.0685617625713;1;True;25;2;155.04107880593617
92;92;1449489465;2.14023399353;0.79752779007;0.06848400086159999;1;True;25;2;155.04107880593617
93;93;1449489465;2.1401622295400005;0.797400057316;0.06853525340559999;1;True;25;2;155.04107880593617
94;94;1449489465;2.1402797699000002;0.7975739240649999;0.0684330686927;1;True;25;2;155.04107880593617
95;95;1449489465;2.14011335373;0.797236919403;0.06862604618069999;1;True;25;2;155.04107880593617
96;96;1449489465;2.14025521278;0.79733479023;0.06836353987459999;1;True;25;2;155.04107880593617
97;97;1449489465;2.1401073932599997;0.7973181009289999;0.0686871856451;1;True;25;2;155.04107880593617
98;98;1449489465;2.14018034935;0.797338545322;0.0685474351048;1;True;25;2;155.04107880593617
99;99;1449489465;2.1402039527900003;0.797257602215;0.0684896782041;1;True;25;2;155.04107880593617
100;100;1449489465;2.1402766704599996;0.797493100166;0.0683459937572;1;True;25;2;155.04107880593617
101;101;1449489465;2.14016747475;0.7972242236139999;0.06848017871380001;1;True;25;2;155.04107880593617
102;102;1449489465;2.1400282383;0.7973588705060001;0.0686725378036;1;True;25;2;155.04107880593617
103;103;1449489465;2.14023208618;0.7973185181620001;0.0684191733599;1;True;25;2;155.04107880593617
104;104;1449489465;2.14013528824;0.797283947468;0.0686546266079;1;True;25;2;155.04107880593617
105;105;1449489465;2.14020490646;0.79730284214;0.0684761703014;1;True;25;2;155.04107880593617
106;106;1449489465;2.14019799232;0.797296404839;0.0684772357345;1;True;25;2;155.04107880593617
107;107;1449489465;2.1401159763299997;0.797263324261;0.0686259418726;1;True;25;2;155.04107880593617
108;108;1449489465;2.1401698589300002;0.7973092198370001;0.0685198158026;1;True;25;2;155.04107880593617
109;109;1449489465;2.14022111893;0.7972983717919999;0.068455696106;1;True;25;2;155.04107880593617
110;110;1449489465;2.14018845558;0.7972364425660001;0.06847728788850001;1;True;25;2;155.04107880593617
111;111;1449489465;2.14025115967;0.797368764877;0.0684223547578;1;True;25;2;155.04107880593617
112;112;1449489465;2.14010596275;0.797243833542;0.06864765286449999;1;True;25;2;155.04107880593617
113;113;1449489465;2.14006400108;0.7972875833509999;0.0685898587108;1;True;25;2;155.04107880593617
114;114;1449489465;2.1402440071099997;0.797352433205;0.0683998987079;1;True;25;2;155.04107880593617
115;115;1449489465;2.14010071754;0.7972343564030001;0.0686185136437;1;True;25;2;155.04107880593617
116;116;1449489465;2.14025449753;0.797408819199;0.0683819130063;1;True;25;2;155.04107880593617
117;117;1449489465;2.14013433456;0.7973133921619999;0.0686196014285;1;True;25;2;155.04107880593617
118;118;1449489465;2.14014840126;0.7972194552420001;0.0685221403837;1;True;25;2;155.04107880593617
119;119;1449489465;2.14009618759;0.797348797321;0.0685920119286;1;True;25;2;155.04107880593617
120;120;1449489465;2.14007639885;0.797180294991;0.06864509731530001;1;True;25;2;155.04107880593617
121;121;1449489465;2.1402449607799996;0.7973582148549999;0.0684129595757;1;True;25;2;155.04107880593617
122;122;1449489465;2.14008164406;0.797179996967;0.0686491727829;1;True;25;2;155.04107880593617
123;123;1449489465;2.14004349709;0.7969955205920001;0.0685255378485;1;True;25;2;155.04107880593617
124;124;1449489465;2.1401145458200004;0.797201454639;0.0685428902507;1;True;25;2;155.04107880593617
125;125;1449489465;2.1400952339200003;0.7972719669339999;0.0686273723841;1;True;25;2;155.04107880593617
126;126;1449489465;2.1401939392099996;0.7973514199259999;0.0684873461723;1;True;25;2;155.04107880593617
127;127;1449489465;2.1400966644299997;0.797080397606;0.0685357451439;1;True;25;2;155.04107880593617
128;128;1449489465;2.14022159576;0.797088623047;0.0683657154441;1;True;25;2;155.04107880593617
129;129;1449489465;2.1401867866499997;0.797345757484;0.06847215443850001;1;True;25;2;155.04107880593617
130;130;1449489465;2.14019107819;0.797335445881;0.0684611201286;1;True;25;2;155.04107880593617
131;131;1449489465;2.14025473595;0.797394633293;0.0683764219284;1;True;25;2;155.04107880593617
132;132;1449489465;2.1400980949400004;0.797232210636;0.0685921981931;1;True;25;2;155.04107880593617
133;133;1449489465;2.14009737968;0.797231078148;0.0685525462031;1;True;25;2;155.04107880593617
134;134;1449489465;2.1400835514099996;0.79721558094;0.0685969665647;1;True;25;2;155.04107880593617
135;135;1449489465;2.1399915218400003;0.7972596883769999;0.0687119811773;1;True;25;2;155.04107880593617
136;136;1449489465;2.14016056061;0.797246277332;0.0684982985258;1;True;25;2;155.04107880593617
137;137;1449489465;2.14008975029;0.7973372936249999;0.0686251968145;1;True;25;2;155.04107880593617
138;138;1449489465;2.14013361931;0.7972921133040001;0.0685384646058;1;True;25;2;155.04107880593617
139;139;1449489465;2.14018321037;0.797222435474;0.0684654265642;1;True;25;2;155.04107880593617
140;140;1449489465;2.1401348114;0.797357797623;0.0685952529311;1;True;25;2;155.04107880593617
141;141;1449489465;2.14016675949;0.7973661422730001;0.0684873014688;1;True;25;2;155.04107880593617
142;142;1449489465;2.1401553154;0.7972941994670001;0.0685145556927;1;True;25;2;155.04107880593617
143;143;1449489465;2.1400921344799997;0.7972644567489999;0.0686194226146;1;True;25;2;155.04107880593617
144;144;1449489465;2.1401860714;0.797229886055;0.06843926012519999;1;True;25;2;155.04107880593617
145;145;1449489465;2.14002346992;0.797319054604;0.068556882441;1;True;25;2;155.04107880593617
146;146;1449489465;2.1401064395900002;0.797227203846;0.0686346516013;1;True;25;2;155.04107880593617
147;147;1449489465;2.14002752304;0.797270774841;0.06871320307249999;1;True;25;2;155.04107880593617
148;148;1449489465;2.14021539688;0.7973064184190001;0.0684371441603;1;True;25;2;155.04107880593617
149;149;1449489465;2.14022374153;0.7971916198729999;0.0683739557862;1;True;25;2;155.04107880593617
150;150;1449489465;2.14015936852;0.7973017096520001;0.0685620307922;1;True;25;2;155.04107880593617
151;151;1449489465;2.1401035785699998;0.797269582748;0.0685828477144;1;True;25;2;155.04107880593617
152;152;1449489465;2.1402130127000003;0.797365248203;0.0684522688389;1;True;25;2;155.04107880593617
153;153;1449489465;2.14015173912;0.797280311584;0.0685527175665;1;True;25;2;155.04107880593617
154;154;1449489465;2.1402292251599997;0.7973855137829999;0.0683869868517;1;True;25;2;155.04107880593617
155;155;1449489465;2.1402220726;0.797397315502;0.068432494998;1;True;25;2;155.04107880593617
156;156;1449489465;2.14016342163;0.797215819359;0.0685196891427;1;True;25;2;155.04107880593617
157;157;1449489465;2.14021372795;0.797311663628;0.06843321770430001;1;True;25;2;155.04107880593617
158;158;1449489465;2.14006567001;0.7973710298540001;0.06862484663719999;1;True;25;2;155.04107880593617
159;159;1449489465;2.1402764320400003;0.797560036182;0.0683927461505;1;True;25;2;155.04107880593617
160;160;1449489465;2.1401228904700003;0.797138154507;0.0685646533966;1;True;25;2;155.04107880593617
161;161;1449489465;2.1403317451499997;0.7974853515620001;0.0683951228857;1;True;25;2;155.04107880593617
162;162;1449489465;2.14033746719;0.797493100166;0.068404302001;1;True;25;2;155.04107880593617
163;163;1449489465;2.14011955261;0.7972472906110001;0.06862176954749999;1;True;25;2;155.04107880593617
164;164;1449489465;2.14020442963;0.797264695168;0.0684948265553;1;True;25;2;155.04107880593617
165;165;1449489465;2.14018249512;0.797370731831;0.0685898512602;1;True;25;2;155.04107880593617
166;166;1449489465;2.14023542404;0.7972828745839999;0.0684440582991;1;True;25;2;155.04107880593617
167;167;1449489465;2.14026069641;0.79734903574;0.0683910027146;1;True;25;2;155.04107880593617
168;168;1449489465;2.1402220726;0.797366678715;0.068498454988;1;True;25;2;155.04107880593617
169;169;1449489465;2.14019680023;0.797247409821;0.0684843957424;1;True;25;2;155.04107880593617
170;170;1449489465;2.14017987251;0.7972098588940001;0.0685010552406;1;True;25;2;155.04107880593617
171;171;1449489465;2.14025950432;0.797346591949;0.06843303143980001;1;True;25;2;155.04107880593617
172;172;1449489465;2.14008927345;0.797236025333;0.0686877146363;1;True;25;2;155.04107880593617
173;173;1449489465;2.14001059532;0.7972794771189999;0.0687281489372;1;True;25;2;155.04107880593617
174;174;1449489465;2.1400094032299997;0.79726600647;0.0687185153365;1;True;25;2;155.04107880593617
175;175;1449489465;2.14010977745;0.7973173856739999;0.0686205625534;1;True;25;2;155.04107880593617
176;176;1449489465;2.14017415047;0.79740434885;0.0686453729868;1;True;25;2;155.04107880593617
177;177;1449489465;2.1402525901800002;0.7973832488060001;0.0684069022536;1;True;25;2;155.04107880593617
178;178;1449489465;2.14024376869;0.797405302525;0.0684035569429;1;True;25;2;155.04107880593617
179;179;1449489465;2.1401064395900002;0.797291517258;0.0686535909772;1;True;25;2;155.04107880593617
180;180;1449489465;2.14009642601;0.7971920371060001;0.068636007607;1;True;25;2;155.04107880593617
181;181;1449489465;2.1401402950299997;0.797160625458;0.0685207843781;1;True;25;2;155.04107880593617
182;182;1449489465;2.13998436928;0.797269642353;0.06878019124269999;1;True;25;2;155.04107880593617
183;183;1449489465;2.1401073932599997;0.7972190380099999;0.06867034733300001;1;True;25;2;155.04107880593617
184;184;1449489465;2.1400642395;0.797296762466;0.06860329210760001;1;True;25;2;155.04107880593617
185;185;1449489465;2.14011192322;0.797246992588;0.06859333068130001;1;True;25;2;155.04107880593617
186;186;1449489465;2.14027309418;0.797551512718;0.06839875876899999;1;True;25;2;155.04107880593617
187;187;1449489465;2.14012670517;0.7973397970199999;0.0686256065965;1;True;25;2;155.04107880593617
188;188;1449489465;2.14016795158;0.797319173813;0.0685929656029;1;True;25;2;155.04107880593617
189;189;1449489465;2.14025473595;0.797393858433;0.0683851242065;1;True;25;2;155.04107880593617
190;190;1449489465;2.14011907578;0.7972265481949999;0.0686225816607;1;True;25;2;155.04107880593617
191;191;1449489465;2.1401550769799997;0.797301828861;0.0685945153236;1;True;25;2;155.04107880593617
192;192;1449489465;2.1401648521400003;0.797301828861;0.0685350224376;1;True;25;2;155.04107880593617
193;193;1449489465;2.14016413689;0.797291815281;0.0685718506575;1;True;25;2;155.04107880593617
194;194;1449489465;2.14009737968;0.797199070454;0.0685974657536;1;True;25;2;155.04107880593617
195;195;1449489465;2.14011406898;0.797258615494;0.06860653311010001;1;True;25;2;155.04107880593617
196;196;1449489465;2.1401758194;0.7970787286759999;0.0684645846486;1;True;25;2;155.04107880593617
197;197;1449489465;2.14005255699;0.797299325466;0.06863713264469999;1;True;25;2;155.04107880593617
198;198;1449489465;2.14013075829;0.7972412109379999;0.0686481595039;1;True;25;2;155.04107880593617
199;199;1449489465;2.1401891708400003;0.797234773636;0.06846498698;1;True;25;2;155.04107880593617
200;200;1449489465;2.14016413689;0.797251224518;0.06849893182519999;1;True;25;2;155.04107880593617
201;201;1449489465;2.14005708694;0.7972568869589999;0.0685459151864;1;True;25;2;155.04107880593617
202;202;1449489465;2.14010071754;0.797260522842;0.068541996181;1;True;25;2;155.04107880593617
203;203;1449489465;2.14011335373;0.797212183475;0.0686365887523;1;True;25;2;155.04107880593617
204;204;1449489465;2.14009547234;0.797238409519;0.0685456395149;1;True;25;2;155.04107880593617
205;205;1449489465;2.14025092125;0.797356009483;0.0683942809701;1;True;25;2;155.04107880593617
206;206;1449489465;2.14015769958;0.797321379185;0.06858724355700001;1;True;25;2;155.04107880593617
207;207;1449489465;2.14012908936;0.7972638607029999;0.0686446800828;1;True;25;2;155.04107880593617
208;208;1449489465;2.1401813030200003;0.797180473804;0.06851148605349999;1;True;25;2;155.04107880593617
209;209;1449489465;2.14016675949;0.7973080873489999;0.0685377344489;1;True;25;2;155.04107880593617
210;210;1449489465;2.1401622295400005;0.797295033932;0.0685399919748;1;True;25;2;155.04107880593617
211;211;1449489465;2.14011788368;0.797292411327;0.068595841527;1;True;25;2;155.04107880593617
212;212;1449489465;2.14011478424;0.7972961068150001;0.0686348378658;1;True;25;2;155.04107880593617
213;213;1449489465;2.14011287689;0.797090530396;0.06853172928090001;1;True;25;2;155.04107880593617
214;214;1449489465;2.1401522159599997;0.797268807888;0.0685863345861;1;True;25;2;155.04107880593617
215;215;1449489465;2.14023804665;0.797273159027;0.06843182444569999;1;True;25;2;155.04107880593617
216;216;1449489465;2.14021253586;0.79730206728;0.0684613287449;1;True;25;2;155.04107880593617
217;217;1449489465;2.1401855945599997;0.797393858433;0.0685143247247;1;True;25;2;155.04107880593617
218;218;1449489465;2.1402616500900002;0.797393858433;0.06838383525609999;1;True;25;2;155.04107880593617
219;219;1449489465;2.140209198;0.7973867654800001;0.0684966892004;1;True;25;2;155.04107880593617
220;220;1449489465;2.1400680542;0.79726099968;0.0687106177211;1;True;25;2;155.04107880593617
221;221;1449489465;2.14014077187;0.7973104119300001;0.0685542672873;1;True;25;2;155.04107880593617
222;222;1449489465;2.14017343521;0.7973759174349999;0.068497389555;1;True;25;2;155.04107880593617
223;223;1449489465;2.1401808261900004;0.797319829464;0.0685240253806;1;True;25;2;155.04107880593617
224;224;1449489465;2.1401185989400004;0.797097206116;0.06851381808519999;1;True;25;2;155.04107880593617
225;225;1449489465;2.1400327682499998;0.7971485853200001;0.0686002671719;1;True;25;2;155.04107880593617
226;226;1449489465;2.14006209373;0.797229707241;0.0685893893242;1;True;25;2;155.04107880593617
227;227;1449489465;2.14028382301;0.797578513622;0.0683924481273;1;True;25;2;155.04107880593617
228;228;1449489465;2.1401619911200003;0.797309041023;0.068530343473;1;True;25;2;155.04107880593617
229;229;1449489465;2.14018940926;0.797366678715;0.0684916824102;1;True;25;2;155.04107880593617
230;230;1449489465;2.14010477066;0.7970744967460001;0.0685191303492;1;True;25;2;155.04107880593617
231;231;1449489465;2.1401567459099997;0.797303974628;0.06852922588589999;1;True;25;2;155.04107880593617
232;232;1449489465;2.14013195038;0.797285795212;0.0686186105013;1;True;25;2;155.04107880593617
233;233;1449489465;2.1400730609900003;0.797368168831;0.0686805024743;1;True;25;2;155.04107880593617
234;234;1449489465;2.14018321037;0.797229707241;0.0684858709574;1;True;25;2;155.04107880593617
235;235;1449489465;2.1400809288;0.7973431348800001;0.0686110630631;1;True;25;2;155.04107880593617
236;236;1449489465;2.14011263847;0.797120153904;0.0685214549303;1;True;25;2;155.04107880593617
237;237;1449489465;2.14009237289;0.797335863113;0.0686024725437;1;True;25;2;155.04107880593617
238;238;1449489465;2.14006519318;0.797485947609;0.0686439201236;1;True;25;2;155.04107880593617
239;239;1449489465;2.1401693821000003;0.797227203846;0.068466193974;1;True;25;2;155.04107880593617
240;240;1449489465;2.14011573792;0.797279596329;0.06859548389909999;1;True;25;2;155.04107880593617
241;241;1449489465;2.14020204544;0.797364652157;0.06849254667759999;1;True;25;2;155.04107880593617
242;242;1449489465;2.1400775909400003;0.7971886396410001;0.0685980096459;1;True;25;2;155.04107880593617
243;243;1449489465;2.14012074471;0.7971214056020001;0.068536490202;1;True;25;2;155.04107880593617
244;244;1449489465;2.14010620117;0.797225892544;0.0686230733991;1;True;25;2;155.04107880593617
245;245;1449489465;2.14008021355;0.797269225121;0.0685765892267;1;True;25;2;155.04107880593617
246;246;1449489465;2.14004135132;0.7973107099529999;0.0686250850558;1;True;25;2;155.04107880593617
247;247;1449489465;2.14016962051;0.797349154949;0.0685885176063;1;True;25;2;155.04107880593617
248;248;1449489465;2.14016675949;0.797299742699;0.0685384571552;1;True;25;2;155.04107880593617
249;249;1449489465;2.1401019096400002;0.7970656752590001;0.0685329288244;1;True;25;2;155.04107880593617
250;250;1449489465;2.14014577866;0.797314822674;0.068569406867;1;True;25;2;155.04107880593617
251;251;1449489465;2.14012813568;0.797297120094;0.068554982543;1;True;25;2;155.04107880593617
252;252;1449489465;2.14014720917;0.797244250774;0.06852384656669999;1;True;25;2;155.04107880593617
253;253;1449489465;2.14022803307;0.7974205613140001;0.0684297606349;1;True;25;2;155.04107880593617
254;254;1449489465;2.1401450634;0.7973086833949999;0.0685923472047;1;True;25;2;155.04107880593617
255;255;1449489465;2.14009165764;0.797103404999;0.0685401633382;1;True;25;2;155.04107880593617
256;256;1449489465;2.14017963409;0.79722994566;0.0684653446078;1;True;25;2;155.04107880593617
257;257;1449489465;2.14025235176;0.79726600647;0.06838912516830001;1;True;25;2;155.04107880593617
258;258;1449489465;2.14025306702;0.7973744273190001;0.0684086754918;1;True;25;2;155.04107880593617
259;259;1449489465;2.14021682739;0.7974914908409999;0.0685277059674;1;True;25;2;155.04107880593617
260;260;1449489465;2.14016962051;0.797195374966;0.0685390904546;1;True;25;2;155.04107880593617
261;261;1449489465;2.1401052475;0.797090291977;0.068545974791;1;True;25;2;155.04107880593617
262;262;1449489465;2.1401705741900003;0.797296822071;0.0685404241085;1;True;25;2;155.04107880593617
263;263;1449489465;2.14019799232;0.7973784804340001;0.0684892013669;1;True;25;2;155.04107880593617
264;264;1449489465;2.14002799988;0.7972253561020001;0.068710193038;1;True;25;2;155.04107880593617
265;265;1449489465;2.14021778107;0.797121465206;0.0683900862932;1;True;25;2;155.04107880593617
266;266;1449489465;2.14020991325;0.797370314598;0.0685050785542;1;True;25;2;155.04107880593617
267;267;1449489465;2.14006996155;0.797315001488;0.06858566403390001;1;True;25;2;155.04107880593617
268;268;1449489465;2.1402812004099996;0.7975376248360001;0.0683996230364;1;True;25;2;155.04107880593617
269;269;1449489465;2.14019680023;0.7973185181620001;0.0684689208865;1;True;25;2;155.04107880593617
270;270;1449489465;2.1402425766;0.797340989113;0.0683979019523;1;True;25;2;155.04107880593617
271;271;1449489465;2.1401937007900003;0.797218322754;0.0684724077582;1;True;25;2;155.04107880593617
272;272;1449489465;2.1401848793;0.797387480736;0.06850735098119999;1;True;25;2;155.04107880593617
273;273;1449489465;2.1401348114;0.7972776889800001;0.0685698539019;1;True;25;2;155.04107880593617
274;274;1449489465;2.14014148712;0.797283172607;0.0685919970274;1;True;25;2;155.04107880593617
275;275;1449489465;2.14012932777;0.797254025936;0.0685340315104;1;True;25;2;155.04107880593617
276;276;1449489465;2.14011478424;0.7974076867100001;0.0686094611883;1;True;25;2;155.04107880593617
277;277;1449489466;2.1402430534400003;0.797286689281;0.06835638731719999;2;True;25;2;155.04107880593617
278;278;1449489466;2.14017796516;0.797237455845;0.0684542730451;2;True;25;2;155.04107880593617
279;279;1449489466;2.14010429382;0.7973542213439999;0.0686000809073;2;True;25;2;155.04107880593617
280;280;1449489466;2.14026117325;0.7973459362980001;0.0683548748493;2;True;25;2;155.04107880593617
281;281;1449489466;2.14013743401;0.797117114067;0.0685005262494;2;True;25;2;155.04107880593617
282;282;1449489466;2.14012813568;0.7971404194830001;0.0685211122036;2;True;25;2;155.04107880593617
283;283;1449489466;2.14016389847;0.7970214486120001;0.0684501379728;2;True;25;2;155.04107880593617
284;284;1449489466;2.1402330398599996;0.797368049622;0.0684124976397;2;True;25;2;155.04107880593617
285;285;1449489466;2.14009022713;0.797175526619;0.0686277076602;2;True;25;2;155.04107880593617
286;286;1449489466;2.13999891281;0.7971915602680001;0.06868859380480001;2;True;25;2;155.04107880593617
287;287;1449489466;2.14009308815;0.7972548604009999;0.0685496404767;2;True;25;2;155.04107880593617
288;288;1449489466;2.14012002945;0.797351062298;0.0685953572392;2;True;25;2;155.04107880593617
289;289;1449489466;2.14012098312;0.797503054142;0.0685789212584;2;True;25;2;155.04107880593617
290;290;1449489466;2.1401669979099998;0.797249794006;0.06849680840969999;2;True;25;2;155.04107880593617
291;291;1449489466;2.14016151428;0.797280430794;0.0685348361731;2;True;25;2;155.04107880593617
292;292;1449489466;2.14018273354;0.797294557095;0.068496376276;2;True;25;2;155.04107880593617
293;293;1449489466;2.14002108574;0.797273635864;0.0686218217015;2;True;25;2;155.04107880593617
294;294;1449489466;2.14016389847;0.7973554134370001;0.0685277432203;2;True;25;2;155.04107880593617
295;295;1449489466;2.1401166915900003;0.7970963716509999;0.06851568073030001;2;True;25;2;155.04107880593617
296;296;1449489466;2.14018464088;0.7973831295970001;0.0685048177838;2;True;25;2;155.04107880593617
297;297;1449489466;2.1402814388299998;0.7975471615790001;0.0683889910579;2;True;25;2;155.04107880593617
298;298;1449489466;2.14020991325;0.797256827354;0.0684289038181;2;True;25;2;155.04107880593617
299;299;1449489466;2.14017868042;0.797274708748;0.0685430765152;2;True;25;2;155.04107880593617
300;300;1449489466;2.14008450508;0.7972444891930001;0.0686191543937;2;True;25;2;155.04107880593617
301;301;1449489466;2.14025306702;0.797382414341;0.06845293939109999;2;True;25;2;155.04107880593617
302;302;1449489466;2.14013004303;0.797255933285;0.0686061754823;2;True;25;2;155.04107880593617
303;303;1449489466;2.1401898860900004;0.797380685806;0.0685006380081;2;True;25;2;155.04107880593617
304;304;1449489466;2.14026331902;0.7974764704699999;0.0684134364128;2;True;25;2;155.04107880593617
305;305;1449489466;2.14025235176;0.797485649586;0.0684615075588;2;True;25;2;155.04107880593617
306;306;1449489466;2.14019179344;0.7973112463950001;0.0684725344181;2;True;25;2;155.04107880593617
307;307;1449489466;2.14014697075;0.797188580036;0.068490922451;2;True;25;2;155.04107880593617
308;308;1449489466;2.14020013809;0.797380268574;0.0684915184975;2;True;25;2;155.04107880593617
309;309;1449489466;2.1401891708400003;0.7973127961159999;0.0684978365898;2;True;25;2;155.04107880593617
310;310;1449489466;2.1402521133400003;0.7973712086679999;0.06839209795;2;True;25;2;155.04107880593617
311;311;1449489466;2.13999986649;0.797215998173;0.0687145739794;2;True;25;2;155.04107880593617
312;312;1449489466;2.1401345729799996;0.7971895337100001;0.0685210451484;2;True;25;2;155.04107880593617
313;313;1449489466;2.1401131153099997;0.797380983829;0.0686370357871;2;True;25;2;155.04107880593617
314;314;1449489466;2.14006400108;0.797292470932;0.0685902386904;2;True;25;2;155.04107880593617
315;315;1449489466;2.1401245594;0.7972597479819999;0.0685946345329;2;True;25;2;155.04107880593617
316;316;1449489466;2.1401462554900004;0.7970965504649999;0.0684863328934;2;True;25;2;155.04107880593617
317;317;1449489466;2.1402409076700004;0.797243237495;0.0683806687593;2;True;25;2;155.04107880593617
318;318;1449489466;2.1400678157799997;0.797241687775;0.0686741322279;2;True;25;2;155.04107880593617
319;319;1449489466;2.14015769958;0.797337591648;0.0685955956578;2;True;25;2;155.04107880593617
320;320;1449489466;2.1401026248900004;0.797147989273;0.0685799568892;2;True;25;2;155.04107880593617
321;321;1449489466;2.1401145458200004;0.7972397804260001;0.0686047896743;2;True;25;2;155.04107880593617
322;322;1449489466;2.14009690285;0.7972219586370001;0.06867030262950001;2;True;25;2;155.04107880593617
323;323;1449489466;2.14014959335;0.797287166119;0.0685476213694;2;True;25;2;155.04107880593617
324;324;1449489466;2.14013409615;0.7973651289939999;0.0685817226768;2;True;25;2;155.04107880593617
325;325;1449489466;2.14019775391;0.797146141529;0.0684646442533;2;True;25;2;155.04107880593617
326;326;1449489466;2.1402451992;0.797380268574;0.0683992877603;2;True;25;2;155.04107880593617
327;327;1449489466;2.14012026787;0.7971560359000001;0.0685127526522;2;True;25;2;155.04107880593617
328;328;1449489466;2.14020466805;0.797247409821;0.0684712976217;2;True;25;2;155.04107880593617
329;329;1449489466;2.14013528824;0.7971256971359999;0.0685179680586;2;True;25;2;155.04107880593617
330;330;1449489466;2.14004158974;0.79724240303;0.0685903057456;2;True;25;2;155.04107880593617
331;331;1449489466;2.14015841484;0.797358453274;0.0685899928212;2;True;25;2;155.04107880593617
332;332;1449489466;2.14025425911;0.797366917133;0.0683966130018;2;True;25;2;155.04107880593617
333;333;1449489466;2.14007544518;0.797287523746;0.0686553120613;2;True;25;2;155.04107880593617
334;334;1449489466;2.1401181221;0.797330498695;0.0686144456267;2;True;25;2;155.04107880593617
335;335;1449489466;2.14004158974;0.7970888018610001;0.0688017606735;2;True;25;2;155.04107880593617
336;336;1449489466;2.14014387131;0.7972990870479999;0.0685563310981;2;True;25;2;155.04107880593617
337;337;1449489466;2.14010906219;0.797309041023;0.0686957389116;2;True;25;2;155.04107880593617
338;338;1449489466;2.14008116722;0.797310233116;0.0686622411013;2;True;25;2;155.04107880593617
339;339;1449489466;2.14011621475;0.7971942424770001;0.06858716905119999;2;True;25;2;155.04107880593617
340;340;1449489466;2.14010000229;0.797325611115;0.0685597881675;2;True;25;2;155.04107880593617
341;341;1449489466;2.14013791084;0.7973474264139999;0.06854697316880001;2;True;25;2;155.04107880593617
342;342;1449489466;2.14025712013;0.79747480154;0.0683916136622;2;True;25;2;155.04107880593617
343;343;1449489466;2.1400990486099998;0.797261118889;0.0685828924179;2;True;25;2;155.04107880593617
344;344;1449489466;2.14007425308;0.797341942787;0.0685789659619;2;True;25;2;155.04107880593617
345;345;1449489466;2.14015245438;0.797306120396;0.06854189932350001;2;True;25;2;155.04107880593617
346;346;1449489466;2.1401505470299997;0.797297894955;0.0685762837529;2;True;25;2;155.04107880593617
347;347;1449489466;2.1401746273;0.797196984291;0.06850106269119999;2;True;25;2;155.04107880593617
348;348;1449489466;2.14011907578;0.797124147415;0.0685031116009;2;True;25;2;155.04107880593617
349;349;1449489466;2.14014434814;0.797197401524;0.06848440319299999;2;True;25;2;155.04107880593617
350;350;1449489466;2.1401739120500003;0.7973263859749999;0.0685584321618;2;True;25;2;155.04107880593617
351;351;1449489466;2.14026474953;0.7973514795300001;0.0683879107237;2;True;25;2;155.04107880593617
352;352;1449489466;2.14019227028;0.7973848581309999;0.0685055851936;2;True;25;2;155.04107880593617
353;353;1449489466;2.14021277428;0.7972059249879999;0.0684477761388;2;True;25;2;155.04107880593617
354;354;1449489466;2.14006400108;0.797325134277;0.06859973073009999;2;True;25;2;155.04107880593617
355;355;1449489466;2.14018821716;0.797385215759;0.0684892460704;2;True;25;2;155.04107880593617
356;356;1449489466;2.14019227028;0.797326683998;0.0684953778982;2;True;25;2;155.04107880593617
357;357;1449489466;2.14024734497;0.7973932623860001;0.0683939382434;2;True;25;2;155.04107880593617
358;358;1449489466;2.14024615288;0.797252595425;0.0683621540666;2;True;25;2;155.04107880593617
359;359;1449489466;2.1401591301;0.7973031997679999;0.0685355141759;2;True;25;2;155.04107880593617
360;360;1449489466;2.14007711411;0.79730284214;0.0686909630895;2;True;25;2;155.04107880593617
361;361;1449489466;2.14017271996;0.797264814377;0.0685424953699;2;True;25;2;155.04107880593617
362;362;1449489466;2.14008307457;0.797056496143;0.06853880733249999;2;True;25;2;155.04107880593617
363;363;1449489466;2.14004945755;0.797254920006;0.0686889141798;2;True;25;2;155.04107880593617
364;364;1449489466;2.1402170658099995;0.7974424958230001;0.0684514567256;2;True;25;2;155.04107880593617
365;365;1449489466;2.1400878429400003;0.797216176987;0.0685865730047;2;True;25;2;155.04107880593617
366;366;1449489466;2.1402485370599997;0.797392547131;0.0683702975512;2;True;25;2;155.04107880593617
367;367;1449489466;2.14020681381;0.797249078751;0.068434946239;2;True;25;2;155.04107880593617
368;368;1449489466;2.1401257515;0.797265410423;0.0685501769185;2;True;25;2;155.04107880593617
369;369;1449489466;2.1401154995;0.7971132993699999;0.06848809868099999;2;True;25;2;155.04107880593617
370;370;1449489466;2.14019179344;0.7972356677060001;0.0684425607324;2;True;25;2;155.04107880593617
371;371;1449489466;2.14014291763;0.7972633838650001;0.0685071721673;2;True;25;2;155.04107880593617
372;372;1449489466;2.14006972313;0.797145664692;0.068657040596;2;True;25;2;155.04107880593617
373;373;1449489466;2.14014673233;0.797295153141;0.0685203820467;2;True;25;2;155.04107880593617
374;374;1449489466;2.1401550769799997;0.797389924526;0.0685237497091;2;True;25;2;155.04107880593617
375;375;1449489466;2.1401073932599997;0.797077834606;0.068502664566;2;True;25;2;155.04107880593617
376;376;1449489466;2.1400411129;0.797301828861;0.0686443150043;2;True;25;2;155.04107880593617
377;377;1449489466;2.14011025429;0.797080218792;0.0685129910707;2;True;25;2;155.04107880593617
378;378;1449489466;2.1402015686;0.7972610592839999;0.068457365036;2;True;25;2;155.04107880593617
379;379;1449489466;2.14012646675;0.7972788810729999;0.0686028897762;2;True;25;2;155.04107880593617
380;380;1449489466;2.1400842666599997;0.7972984910009999;0.0686001554132;2;True;25;2;155.04107880593617
381;381;1449489466;2.14012384415;0.7970941662790001;0.06849322468039999;2;True;25;2;155.04107880593617
382;382;1449489466;2.14021611214;0.7974683046340001;0.0684655606747;2;True;25;2;155.04107880593617
383;383;1449489466;2.14005565643;0.797265827656;0.0686793997884;2;True;25;2;155.04107880593617
384;384;1449489466;2.1401660442400003;0.7973438501360001;0.0685187801719;2;True;25;2;155.04107880593617
385;385;1449489466;2.14009165764;0.7972145676610001;0.06856762617829999;2;True;25;2;155.04107880593617
386;386;1449489466;2.14012932777;0.797285377979;0.06857006251810001;2;True;25;2;155.04107880593617
387;387;1449489466;2.1402668952900004;0.797359645367;0.0683828890324;2;True;25;2;155.04107880593617
388;388;1449489466;2.14014863968;0.7973677515979999;0.0685653537512;2;True;25;2;155.04107880593617
389;389;1449489466;2.1401331424700003;0.7973220348360001;0.0686595588923;2;True;25;2;155.04107880593617
390;390;1449489466;2.1400821209;0.797333180904;0.0685916692019;2;True;25;2;155.04107880593617
391;391;1449489466;2.14018845558;0.797388613224;0.0684927999973;2;True;25;2;155.04107880593617
392;392;1449489466;2.14007854462;0.7971569895739999;0.0685600340366;2;True;25;2;155.04107880593617
393;393;1449489466;2.1401522159599997;0.7974119186399999;0.0685339793563;2;True;25;2;155.04107880593617
394;394;1449489466;2.14025139809;0.797484397888;0.068416595459;2;True;25;2;155.04107880593617
395;395;1449489466;2.1402406692500002;0.7973191142080001;0.06840316951270001;2;True;25;2;155.04107880593617
396;396;1449489466;2.14018273354;0.7972998023029999;0.0685020834208;2;True;25;2;155.04107880593617
397;397;1449489466;2.1400637626599996;0.7972227931020001;0.0685756951571;2;True;25;2;155.04107880593617
398;398;1449489466;2.14007616043;0.797225117683;0.0685436874628;2;True;25;2;155.04107880593617
399;399;1449489466;2.14017748833;0.797387778759;0.0685144886374;2;True;25;2;155.04107880593617
400;400;1449489466;2.14014601707;0.797292590141;0.0685040950775;2;True;25;2;155.04107880593617
401;401;1449489466;2.14007043839;0.7973198890690001;0.0687011554837;2;True;25;2;155.04107880593617
402;402;1449489466;2.14025306702;0.7973365187639999;0.068350866437;2;True;25;2;155.04107880593617
403;403;1449489466;2.14015865326;0.7973866462710001;0.0685210153461;2;True;25;2;155.04107880593617
404;404;1449489466;2.1401035785699998;0.7972411513330001;0.06861983984709999;2;True;25;2;155.04107880593617
405;405;1449489466;2.14026427269;0.797540068626;0.06841605901719999;2;True;25;2;155.04107880593617
406;406;1449489466;2.1401224136400003;0.7973520159720001;0.0686214193702;2;True;25;2;155.04107880593617
407;407;1449489466;2.14020514488;0.7973009943960001;0.0684661641717;2;True;25;2;155.04107880593617
408;408;1449489466;2.14022564888;0.7972615957260001;0.0683718845248;2;True;25;2;155.04107880593617
409;409;1449489466;2.14015078545;0.797185957432;0.0684877857566;2;True;25;2;155.04107880593617
410;410;1449489466;2.14013195038;0.7972996234890001;0.0686125680804;2;True;25;2;155.04107880593617
411;411;1449489466;2.14013051987;0.79734236002;0.06859458237890001;2;True;25;2;155.04107880593617
412;412;1449489466;2.14020013809;0.797344267368;0.0684737414122;2;True;25;2;155.04107880593617
413;413;1449489466;2.13999056816;0.797103643417;0.068679638207;2;True;25;2;155.04107880593617
414;414;1449489466;2.1401808261900004;0.797137618065;0.0684473663568;2;True;25;2;155.04107880593617
415;415;1449489466;2.14013147354;0.79724919796;0.0686101838946;2;True;25;2;155.04107880593617
416;416;1449489466;2.14008235931;0.797257840633;0.0686015412211;2;True;25;2;155.04107880593617
417;417;1449489466;2.1401171684299998;0.7970842719079999;0.0685191377997;2;True;25;2;155.04107880593617
418;418;1449489466;2.14013791084;0.797365486622;0.0686164945364;2;True;25;2;155.04107880593617
419;419;1449489466;2.14020657539;0.797313511372;0.0685050264001;2;True;25;2;155.04107880593617
420;420;1449489466;2.1401035785699998;0.797202706337;0.0685843378305;2;True;25;2;155.04107880593617
421;421;1449489466;2.14010477066;0.7970278263089999;0.06854736804959999;2;True;25;2;155.04107880593617
422;422;1449489466;2.1400270462;0.797215223312;0.0685968846083;2;True;25;2;155.04107880593617
423;423;1449489466;2.14008593559;0.797331035137;0.06859538704160001;2;True;25;2;155.04107880593617
424;424;1449489466;2.1402668952900004;0.7973527908329999;0.0683954060078;2;True;25;2;155.04107880593617
425;425;1449489466;2.1401371955900004;0.797289013863;0.0685504302382;2;True;25;2;155.04107880593617
426;426;1449489466;2.14010834694;0.797323346138;0.0685831606388;2;True;25;2;155.04107880593617
427;427;1449489466;2.14016914368;0.79734480381;0.0685956254601;2;True;25;2;155.04107880593617
428;428;1449489466;2.14015126228;0.797298550606;0.06855066865680001;2;True;25;2;155.04107880593617
429;429;1449489466;2.1400551796;0.7972804903980001;0.06868588179349999;2;True;25;2;155.04107880593617
430;430;1449489466;2.14010667801;0.797229528427;0.068613037467;2;True;25;2;155.04107880593617
431;431;1449489466;2.14017224312;0.7973089814190001;0.06854976713659999;2;True;25;2;155.04107880593617
432;432;1449489466;2.14020705223;0.7973794341089999;0.0685069710016;2;True;25;2;155.04107880593617
433;433;1449489466;2.1401159763299997;0.7970971465109999;0.06854300946;2;True;25;2;155.04107880593617
434;434;1449489466;2.14017558098;0.797282934189;0.06854338198900001;2;True;25;2;155.04107880593617
435;435;1449489466;2.14024615288;0.7972540855410001;0.06838633120059999;2;True;25;2;155.04107880593617
436;436;1449489466;2.14019966125;0.797250330448;0.0684445425868;2;True;25;2;155.04107880593617
437;437;1449489466;2.14006066322;0.797323822975;0.0687066614628;2;True;25;2;155.04107880593617
438;438;1449489466;2.1400694847099997;0.797261118889;0.06861188262699999;2;True;25;2;155.04107880593617
439;439;1449489466;2.14006328583;0.797285139561;0.0686275288463;2;True;25;2;155.04107880593617
440;440;1449489466;2.1400551796;0.797495305538;0.06856379657980001;2;True;25;2;155.04107880593617
441;441;1449489466;2.14016008377;0.7972450852390001;0.0685334652662;2;True;25;2;155.04107880593617
442;442;1449489466;2.14007711411;0.7973325252529999;0.0685615465045;2;True;25;2;155.04107880593617
443;443;1449489466;2.1402204036700003;0.7973045706749999;0.068453527987;2;True;25;2;155.04107880593617
444;444;1449489466;2.14004206657;0.797266602516;0.0685792565346;2;True;25;2;155.04107880593617
445;445;1449489466;2.1401603221900003;0.797301530838;0.0685368999839;2;True;25;2;155.04107880593617
446;446;1449489466;2.1402533054400004;0.797341763973;0.0683914721012;2;True;25;2;155.04107880593617
447;447;1449489466;2.14006185532;0.7972271442409999;0.0685842111707;2;True;25;2;155.04107880593617
448;448;1449489466;2.1401116848;0.797077834606;0.0685139596462;2;True;25;2;155.04107880593617
449;449;1449489466;2.14023423195;0.7972638607029999;0.0683818459511;2;True;25;2;155.04107880593617
450;450;1449489466;2.14008450508;0.7973276376719999;0.06857075542209999;2;True;25;2;155.04107880593617
451;451;1449489466;2.14023590088;0.797326862812;0.0683563351631;2;True;25;2;155.04107880593617
452;452;1449489466;2.14025402069;0.7974634170530001;0.0684108585119;2;True;25;2;155.04107880593617
453;453;1449489466;2.14004015923;0.797258913517;0.0687153041363;2;True;25;2;155.04107880593617
454;454;1449489466;2.14024877548;0.7973139286040001;0.06842219829559999;2;True;25;2;155.04107880593617
455;455;1449489466;2.1401562690700002;0.797284245491;0.0684899017215;2;True;25;2;155.04107880593617
456;456;1449489466;2.14019083977;0.797345280647;0.0684698820114;2;True;25;2;155.04107880593617
457;457;1449489466;2.1401331424700003;0.7972860336300001;0.0685726776719;2;True;25;2;155.04107880593617
458;458;1449489466;2.14008045197;0.7972424626350001;0.0686092153192;2;True;25;2;155.04107880593617
459;459;1449489466;2.14010381699;0.797243535519;0.06864205002780001;2;True;25;2;155.04107880593617
460;460;1449489466;2.140229702;0.797323763371;0.0683388337493;2;True;25;2;155.04107880593617
461;461;1449489466;2.1401655674;0.797380328178;0.068500302732;2;True;25;2;155.04107880593617
462;462;1449489466;2.14026117325;0.79754948616;0.068373799324;2;True;25;2;155.04107880593617
463;463;1449489466;2.14020776749;0.7972661852840001;0.0684504359961;2;True;25;2;155.04107880593617
464;464;1449489466;2.14010763168;0.797250926495;0.068590477109;2;True;25;2;155.04107880593617
465;465;1449489466;2.14011287689;0.797282218933;0.06859548389909999;2;True;25;2;155.04107880593617
466;466;1449489466;2.14025902748;0.797534346581;0.06838326156140001;2;True;25;2;155.04107880593617
467;467;1449489466;2.1400952339200003;0.797168791294;0.068572960794;2;True;25;2;155.04107880593617
468;468;1449489466;2.14027500153;0.797447562218;0.0683464109898;2;True;25;2;155.04107880593617
469;469;1449489466;2.1400637626599996;0.7972144484520001;0.0686436742544;2;True;25;2;155.04107880593617
470;470;1449489466;2.14015841484;0.797372996807;0.06849508732559999;2;True;25;2;155.04107880593617
471;471;1449489466;2.14012408257;0.797321856022;0.06857617199419999;2;True;25;2;155.04107880593617
472;472;1449489466;2.1400949955;0.797276079655;0.0686251968145;2;True;25;2;155.04107880593617
473;473;1449489466;2.1401402950299997;0.797284245491;0.0685066506267;2;True;25;2;155.04107880593617
474;474;1449489466;2.14013004303;0.7973551154140001;0.0685755833983;2;True;25;2;155.04107880593617
475;475;1449489466;2.14012742043;0.797246336937;0.0685259699821;2;True;25;2;155.04107880593617
476;476;1449489466;2.14009141922;0.79723751545;0.0685906708241;2;True;25;2;155.04107880593617
477;477;1449489466;2.1401212215400003;0.797278046608;0.06857404857869999;2;True;25;2;155.04107880593617
478;478;1449489466;2.14014410973;0.7972880005840001;0.06852734833959999;2;True;25;2;155.04107880593617
479;479;1449489466;2.1401522159599997;0.797233521938;0.06849502027030001;2;True;25;2;155.04107880593617
480;480;1449489466;2.1401953697200002;0.797364890575;0.0684715136886;2;True;25;2;155.04107880593617
481;481;1449489466;2.1401283741;0.797230005264;0.0685276016593;2;True;25;2;155.04107880593617
482;482;1449489466;2.14008903503;0.797345340252;0.0685729458928;2;True;25;2;155.04107880593617
483;483;1449489466;2.14026594162;0.7975644469259999;0.0683813095093;2;True;25;2;155.04107880593617
484;484;1449489466;2.14018750191;0.797290205956;0.0684599131346;2;True;25;2;155.04107880593617
485;485;1449489466;2.1402132511099996;0.797313630581;0.0684167146683;2;True;25;2;155.04107880593617
486;486;1449489466;2.1401510238599997;0.796970546246;0.0684384480119;2;True;25;2;155.04107880593617
487;487;1449489466;2.14025044441;0.7973387241359999;0.0683813244104;2;True;25;2;155.04107880593617
488;488;1449489466;2.1401653289800002;0.797252476215;0.06847308576109999;2;True;25;2;155.04107880593617
489;489;1449489466;2.1401603221900003;0.797212660313;0.0684515088797;2;True;25;2;155.04107880593617
490;490;1449489466;2.14018249512;0.797370970249;0.0684869736433;2;True;25;2;155.04107880593617
491;491;1449489466;2.1400356292700002;0.7973309755329999;0.06855528801680001;2;True;25;2;155.04107880593617
492;492;1449489466;2.14022111893;0.797231376171;0.0683718919754;2;True;25;2;155.04107880593617
493;493;1449489466;2.13997626305;0.797451794147;0.0686513260007;2;True;25;2;155.04107880593617
494;494;1449489466;2.14010047913;0.7970870733259999;0.0685039535165;2;True;25;2;155.04107880593617
495;495;1449489466;2.1401720047;0.797372758389;0.0684693008661;2;True;25;2;155.04107880593617
496;496;1449489466;2.14010667801;0.797353863716;0.06857836991550001;2;True;25;2;155.04107880593617
497;497;1449489466;2.1400940418200003;0.797313272953;0.0686063319445;2;True;25;2;155.04107880593617
498;498;1449489466;2.14008975029;0.7972685694689999;0.068520411849;2;True;25;2;155.04107880593617
499;499;1449489466;2.1401548385599996;0.797119796276;0.06845124065880001;2;True;25;2;155.04107880593617
500;500;1449489466;2.1401782035799997;0.797250628471;0.0684535875916;2;True;25;2;155.04107880593617
501;501;1449489466;2.14011979103;0.797375500202;0.0686368644238;2;True;25;2;155.04107880593617
502;502;1449489466;2.1402173042299997;0.797313034534;0.0684154480696;2;True;25;2;155.04107880593617
503;503;1449489466;2.1401939392099996;0.7973791956899999;0.06846991181369999;2;True;25;2;155.04107880593617
504;504;1449489466;2.14012360573;0.797423839569;0.0685419589281;2;True;25;2;155.04107880593617
505;505;1449489466;2.14021468163;0.797471225262;0.0684871450067;2;True;25;2;155.04107880593617
506;506;1449489466;2.1400265693700002;0.797230482101;0.0686856657267;2;True;25;2;155.04107880593617
507;507;1449489466;2.14012551308;0.7972840666769999;0.0685725435615;2;True;25;2;155.04107880593617
508;508;1449489466;2.14006710052;0.7973821163179999;0.0685487017035;2;True;25;2;155.04107880593617
509;509;1449489466;2.14005541801;0.797324419022;0.0686525180936;2;True;25;2;155.04107880593617
510;510;1449489466;2.14017128944;0.797257125378;0.0685132071376;2;True;25;2;155.04107880593617
511;511;1449489466;2.1401619911200003;0.7970622777940001;0.0684307962656;2;True;25;2;155.04107880593617
512;512;1449489466;2.14008498192;0.797249734402;0.06864395737649999;2;True;25;2;155.04107880593617
513;513;1449489466;2.14008688927;0.797210276127;0.0685810595751;2;True;25;2;155.04107880593617
514;514;1449489466;2.14001560211;0.7972053289409999;0.06858395040040001;2;True;25;2;155.04107880593617
515;515;1449489466;2.14022803307;0.7973152399060001;0.0683675184846;2;True;25;2;155.04107880593617
516;516;1449489467;2.14020657539;0.7973465323450001;0.0684899389744;3;True;25;2;155.04107880593617
517;517;1449489467;2.14005494118;0.797227323055;0.06855106353759999;3;True;25;2;155.04107880593617
518;518;1449489467;2.14019083977;0.797290623188;0.0684162080288;3;True;25;2;155.04107880593617
519;519;1449489467;2.1401708126099996;0.797258019447;0.068410359323;3;True;25;2;155.04107880593617
520;520;1449489467;2.1400787830400003;0.7971690297130001;0.06850354373459999;3;True;25;2;155.04107880593617
521;521;1449489467;2.1400678157799997;0.797291636467;0.06858968734740001;3;True;25;2;155.04107880593617
522;522;1449489467;2.14023590088;0.7971637248989999;0.068330489099;3;True;25;2;155.04107880593617
523;523;1449489467;2.14012598991;0.797136962414;0.0684643611312;3;True;25;2;155.04107880593617
524;524;1449489467;2.14007782936;0.797216355801;0.06855642795559999;3;True;25;2;155.04107880593617
525;525;1449489467;2.14007568359;0.7970581650730001;0.0685191825032;3;True;25;2;155.04107880593617
526;526;1449489467;2.14003705978;0.797306895256;0.0685590356588;3;True;25;2;155.04107880593617
527;527;1449489467;2.14017558098;0.7972179651260001;0.06843110918999999;3;True;25;2;155.04107880593617
528;528;1449489467;2.14021635056;0.797380268574;0.0684237033129;3;True;25;2;155.04107880593617
529;529;1449489467;2.14018177986;0.797184348106;0.068466193974;3;True;25;2;155.04107880593617
530;530;1449489467;2.14018964767;0.7972812652590001;0.0685094222426;3;True;25;2;155.04107880593617
531;531;1449489467;2.1401617527;0.7972265481949999;0.0684384703636;3;True;25;2;155.04107880593617
532;532;1449489467;2.1401269435900003;0.797276556492;0.0685673654079;3;True;25;2;155.04107880593617
533;533;1449489467;2.13988876343;0.797072291374;0.0686788037419;3;True;25;2;155.04107880593617
534;534;1449489467;2.1401345729799996;0.7972553968430001;0.06860181689259999;3;True;25;2;155.04107880593617
535;535;1449489467;2.1401159763299997;0.797337412834;0.0685662999749;3;True;25;2;155.04107880593617
536;536;1449489467;2.13996958733;0.797428309917;0.0687343776226;3;True;25;2;155.04107880593617
537;537;1449489467;2.1401112079599995;0.797210216522;0.06856562942269999;3;True;25;2;155.04107880593617
538;538;1449489467;2.14000248909;0.797278106213;0.0686921104789;3;True;25;2;155.04107880593617
539;539;1449489467;2.14017415047;0.7973757386210001;0.06850746273990001;3;True;25;2;155.04107880593617
540;540;1449489467;2.1400990486099998;0.7970929741859999;0.0685232877731;3;True;25;2;155.04107880593617
541;541;1449489467;2.1400294303900003;0.797196805477;0.0687243118882;3;True;25;2;155.04107880593617
542;542;1449489467;2.14010024071;0.797350466251;0.0685917288065;3;True;25;2;155.04107880593617
543;543;1449489467;2.14024162292;0.7973922491069999;0.0684078633785;3;True;25;2;155.04107880593617
544;544;1449489467;2.14012002945;0.797278285027;0.0685738921165;3;True;25;2;155.04107880593617
545;545;1449489467;2.14028739929;0.79749417305;0.0683376714587;3;True;25;2;155.04107880593617
546;546;1449489467;2.14017748833;0.797039270401;0.0684592500329;3;True;25;2;155.04107880593617
547;547;1449489467;2.1402330398599996;0.797366559505;0.06839636713269999;3;True;25;2;155.04107880593617
548;548;1449489467;2.140157938;0.797110438347;0.068509824574;3;True;25;2;155.04107880593617
549;549;1449489467;2.1401464939099997;0.797279179096;0.06856983900069999;3;True;25;2;155.04107880593617
550;550;1449489467;2.14009737968;0.797070324421;0.068520128727;3;True;25;2;155.04107880593617
551;551;1449489467;2.14006686211;0.797224581242;0.0685605406761;3;True;25;2;155.04107880593617
552;552;1449489467;2.14017724991;0.797070622444;0.0684457048774;3;True;25;2;155.04107880593617
553;553;1449489467;2.14023399353;0.797335386276;0.0684430599213;3;True;25;2;155.04107880593617
554;554;1449489467;2.1402335166900004;0.797328352928;0.0683943703771;3;True;25;2;155.04107880593617
555;555;1449489467;2.14007282257;0.7970514297490001;0.0685566142201;3;True;25;2;155.04107880593617
556;556;1449489467;2.1402409076700004;0.797468781471;0.0684263780713;3;True;25;2;155.04107880593617
557;557;1449489467;2.1401941776299997;0.7972670793529999;0.06845522671939999;3;True;25;2;155.04107880593617
558;558;1449489467;2.13992357254;0.797509074211;0.068766400218;3;True;25;2;155.04107880593617
559;559;1449489467;2.1400809288;0.797070801258;0.0685286968946;3;True;25;2;155.04107880593617
560;560;1449489467;2.1400794982900004;0.7970588803290001;0.06853026896719999;3;True;25;2;155.04107880593617
561;561;1449489467;2.14026737213;0.797481060028;0.0683358609676;3;True;25;2;155.04107880593617
562;562;1449489467;2.1400976181;0.796961128712;0.0684910342097;3;True;25;2;155.04107880593617
563;563;1449489467;2.1401503086099996;0.797298669815;0.0685463324189;3;True;25;2;155.04107880593617
564;564;1449489467;2.1401257515;0.797285020351;0.06857741624119999;3;True;25;2;155.04107880593617
565;565;1449489467;2.14023470879;0.797320783138;0.0684105977416;3;True;25;2;155.04107880593617
566;566;1449489467;2.1402204036700003;0.7972339391709999;0.0683751478791;3;True;25;2;155.04107880593617
567;567;1449489467;2.14005351067;0.7973805665970001;0.0685532391071;3;True;25;2;155.04107880593617
568;568;1449489467;2.14010429382;0.797344386578;0.0686132311821;3;True;25;2;155.04107880593617
569;569;1449489467;2.14019083977;0.7974255084990001;0.0685300007463;3;True;25;2;155.04107880593617
570;570;1449489467;2.14012432098;0.7973203063009999;0.06856950372460001;3;True;25;2;155.04107880593617
571;571;1449489467;2.14024019241;0.797280669212;0.068421266973;3;True;25;2;155.04107880593617
572;572;1449489467;2.14015364647;0.7972200512890001;0.06844560056919999;3;True;25;2;155.04107880593617
573;573;1449489467;2.14019203186;0.797346293926;0.0684853494167;3;True;25;2;155.04107880593617
574;574;1449489467;2.1400372981999998;0.797228217125;0.06858024746180001;3;True;25;2;155.04107880593617
575;575;1449489467;2.14011240005;0.797356545925;0.0685759708285;3;True;25;2;155.04107880593617
576;576;1449489467;2.1401522159599997;0.7970840930940001;0.06847500056030001;3;True;25;2;155.04107880593617
577;577;1449489467;2.14004015923;0.797416090965;0.0685841590166;3;True;25;2;155.04107880593617
578;578;1449489467;2.1401987075799997;0.79727345705;0.06846605986359999;3;True;25;2;155.04107880593617
579;579;1449489467;2.1400949955;0.797271490097;0.06858143955469999;3;True;25;2;155.04107880593617
580;580;1449489467;2.14013290405;0.7973971366879999;0.06853314489130001;3;True;25;2;155.04107880593617
581;581;1449489467;2.1402244567900004;0.797348976135;0.0684315562248;3;True;25;2;155.04107880593617
582;582;1449489467;2.14008116722;0.797232806683;0.0686088725924;3;True;25;2;155.04107880593617
583;583;1449489467;2.1400339603400003;0.797307491302;0.0687140077353;3;True;25;2;155.04107880593617
584;584;1449489467;2.1401185989400004;0.797253251076;0.068549618125;3;True;25;2;155.04107880593617
585;585;1449489467;2.14004087448;0.79726010561;0.0686795786023;3;True;25;2;155.04107880593617
586;586;1449489467;2.1400072574599998;0.797160625458;0.068616040051;3;True;25;2;155.04107880593617
587;587;1449489467;2.14009141922;0.797140181065;0.0685602277517;3;True;25;2;155.04107880593617
588;588;1449489467;2.14011287689;0.7970869541169999;0.068486481905;3;True;25;2;155.04107880593617
589;589;1449489467;2.14024734497;0.797346770763;0.06837865710260001;3;True;25;2;155.04107880593617
590;590;1449489467;2.1401693821000003;0.797464728355;0.0685426518321;3;True;25;2;155.04107880593617
591;591;1449489467;2.14009594917;0.797075390816;0.0685203224421;3;True;25;2;155.04107880593617
592;592;1449489467;2.14009571075;0.797222554684;0.0685661807656;3;True;25;2;155.04107880593617
593;593;1449489467;2.1402387619;0.7973077297210001;0.0683519914746;3;True;25;2;155.04107880593617
594;594;1449489467;2.1400976181;0.797296285629;0.06861305236819999;3;True;25;2;155.04107880593617
595;595;1449489467;2.14009737968;0.7972742915150001;0.0685486644506;3;True;25;2;155.04107880593617
596;596;1449489467;2.1402661800400002;0.797468066216;0.0683288499713;3;True;25;2;155.04107880593617
597;597;1449489467;2.1400952339200003;0.797280848026;0.0686468183994;3;True;25;2;155.04107880593617
598;598;1449489467;2.1401500701900003;0.79738253355;0.0685346648097;3;True;25;2;155.04107880593617
599;599;1449489467;2.1401271820099996;0.797280848026;0.06853952258830001;3;True;25;2;155.04107880593617
600;600;1449489467;2.1401925087;0.797338545322;0.0684261471033;3;True;25;2;155.04107880593617
601;601;1449489467;2.1402378082299998;0.797383844852;0.0684007927775;3;True;25;2;155.04107880593617
602;602;1449489467;2.14018583298;0.7972971796989999;0.0684552565217;3;True;25;2;155.04107880593617
603;603;1449489467;2.14018201828;0.7973785400390001;0.0684761926532;3;True;25;2;155.04107880593617
