;Unnamed: 0;header_stamp_secs;pose_position_x;pose_position_y;pose_position_z;seconds;drop_values;flight_number;label;dtw
0;0;1445942096;2.15467572212;0.749196767807;0.034616202116;0;True;30;1;48.03350883723092
1;1;1445942096;2.15465760231;0.7491781115530001;0.034601457417;0;True;30;1;48.03350883723092
2;2;1445942096;2.1546850204499997;0.7491853833200001;0.0346124432981;0;True;30;1;48.03350883723092
3;3;1445942096;2.15455532074;0.749071657658;0.0346297211945;0;True;30;1;48.03350883723092
4;4;1445942096;2.15455532074;0.7491387128829999;0.0346095301211;0;True;30;1;48.03350883723092
5;5;1445942096;2.1546754837;0.7491732835770001;0.0346098653972;0;True;30;1;48.03350883723092
6;6;1445942096;2.15452599525;0.749049007893;0.034629303962;0;True;30;1;48.03350883723092
7;7;1445942096;2.15467095375;0.749168515205;0.0346208661795;0;True;30;1;48.03350883723092
8;8;1445942096;2.15457701683;0.749147772789;0.0346286818385;0;True;30;1;48.03350883723092
9;9;1445942096;2.15464091301;0.7492306232449999;0.0346222221851;0;True;30;1;48.03350883723092
10;10;1445942096;2.1545419693;0.749097466469;0.0346225276589;0;True;30;1;48.03350883723092
11;11;1445942096;2.1546018123599997;0.7491379380230001;0.0346323214471;0;True;30;1;48.03350883723092
12;12;1445942096;2.1545915603599997;0.7491917610169999;0.0346117801964;0;True;30;1;48.03350883723092
13;13;1445942096;2.15455174446;0.749130308628;0.034630086272999995;0;True;30;1;48.03350883723092
14;14;1445942096;2.1546578407299997;0.7492122054100001;0.034600902348800006;0;True;30;1;48.03350883723092
15;15;1445942096;2.1545751094799996;0.7491692900660001;0.0346186459064;0;True;30;1;48.03350883723092
16;16;1445942096;2.1546692848199998;0.7492230534550001;0.0346038788557;0;True;30;1;48.03350883723092
17;17;1445942096;2.1545469760900002;0.74903768301;0.0346163995564;0;True;30;1;48.03350883723092
18;18;1445942096;2.1545341014900004;0.74909389019;0.0346594192088;0;True;30;1;48.03350883723092
19;19;1445942096;2.15463089943;0.749143719673;0.0346023105085;0;True;30;1;48.03350883723092
20;20;1445942096;2.15465712547;0.7492145895960001;0.0346036590636;0;True;30;1;48.03350883723092
21;21;1445942096;2.15458750725;0.749061942101;0.034616433083999996;0;True;30;1;48.03350883723092
22;22;1445942096;2.15455460548;0.749043226242;0.0346120744944;0;True;30;1;48.03350883723092
23;23;1445942096;2.15466070175;0.7491928339;0.0346038602293;0;True;30;1;48.03350883723092
24;24;1445942096;2.1546101570099996;0.749088764191;0.034618526697199996;0;True;30;1;48.03350883723092
25;25;1445942096;2.15461587906;0.749120056629;0.034617844969;0;True;30;1;48.03350883723092
26;26;1445942096;2.15467190742;0.749154031277;0.034603908658;0;True;30;1;48.03350883723092
27;27;1445942096;2.1545329093900003;0.749053955078;0.034622255712699994;0;True;30;1;48.03350883723092
28;28;1445942096;2.1546638011900003;0.7491563558580001;0.0346050336957;0;True;30;1;48.03350883723092
29;29;1445942096;2.15465593338;0.749184131622;0.0346096158028;0;True;30;1;48.03350883723092
30;30;1445942096;2.15454506874;0.749020218849;0.034619182348300005;0;True;30;1;48.03350883723092
31;31;1445942096;2.1546297073400003;0.7491409778589999;0.034601058810900004;0;True;30;1;48.03350883723092
32;32;1445942096;2.15466046333;0.749171257019;0.034590557217599995;0;True;30;1;48.03350883723092
33;33;1445942096;2.15457248688;0.74909645319;0.0346209816635;0;True;30;1;48.03350883723092
34;34;1445942096;2.15463447571;0.749089896679;0.03459886834030001;0;True;30;1;48.03350883723092
35;35;1445942096;2.15467619896;0.7491660714149999;0.0345993004739;0;True;30;1;48.03350883723092
36;36;1445942096;2.15455341339;0.7490680217739999;0.0346114523709;0;True;30;1;48.03350883723092
37;37;1445942096;2.15465903282;0.74922567606;0.03459549322719999;0;True;30;1;48.03350883723092
38;38;1445942096;2.15457868576;0.749136209488;0.0345918647945;0;True;30;1;48.03350883723092
39;39;1445942096;2.15465855598;0.74916023016;0.0345872044563;0;True;30;1;48.03350883723092
40;40;1445942096;2.15456795692;0.749077677727;0.0346059799194;0;True;30;1;48.03350883723092
41;41;1445942096;2.1546163559;0.749154150486;0.0345985218883;0;True;30;1;48.03350883723092
42;42;1445942096;2.15457177162;0.749135494232;0.0345961302519;0;True;30;1;48.03350883723092
43;43;1445942096;2.15457963943;0.749187409878;0.034595929086199996;0;True;30;1;48.03350883723092
44;44;1445942096;2.15451478958;0.749111115932;0.0346081405878;0;True;30;1;48.03350883723092
45;45;1445942096;2.15453624725;0.749055981636;0.0346029736102;0;True;30;1;48.03350883723092
46;46;1445942096;2.1546406745900004;0.749185860157;0.034603469073800006;0;True;30;1;48.03350883723092
47;47;1445942096;2.15466117859;0.749243795872;0.0345893166959;0;True;30;1;48.03350883723092
48;48;1445942096;2.1545791625999997;0.749167561531;0.034589871764199996;0;True;30;1;48.03350883723092
49;49;1445942096;2.1546561718;0.7491958737369999;0.0345939770341;0;True;30;1;48.03350883723092
50;50;1445942096;2.1546297073400003;0.7492331266399999;0.0345900729299;0;True;30;1;48.03350883723092
51;51;1445942096;2.15464305878;0.749167323112;0.0345849506557;0;True;30;1;48.03350883723092
52;52;1445942096;2.1546351909599997;0.749130129814;0.0345954857767;0;True;30;1;48.03350883723092
53;53;1445942097;2.15451264381;0.749114215374;0.0346083641052;1;True;30;1;48.03350883723092
54;54;1445942097;2.15456271172;0.749132096767;0.0345993898809;1;True;30;1;48.03350883723092
55;55;1445942097;2.1545865535699997;0.7491287589069999;0.03458460420369999;1;True;30;1;48.03350883723092
56;56;1445942097;2.15458106995;0.749156653881;0.0346033424139;1;True;30;1;48.03350883723092
57;57;1445942097;2.15459918976;0.749164223671;0.034596681594800005;1;True;30;1;48.03350883723092
58;58;1445942097;2.1546351909599997;0.749239742756;0.0345970541239;1;True;30;1;48.03350883723092
59;59;1445942097;2.1545522213;0.749085187912;0.034596469253300004;1;True;30;1;48.03350883723092
60;60;1445942097;2.15458416939;0.7491688728329999;0.0345903448761;1;True;30;1;48.03350883723092
61;61;1445942097;2.15458035469;0.749129354954;0.0345790050924;1;True;30;1;48.03350883723092
62;62;1445942097;2.1545341014900004;0.749136269093;0.0345892421901;1;True;30;1;48.03350883723092
63;63;1445942097;2.15463495255;0.749183118343;0.034580312669300006;1;True;30;1;48.03350883723092
64;64;1445942097;2.15465283394;0.7491855025290001;0.034565914422300004;1;True;30;1;48.03350883723092
65;65;1445942097;2.1546351909599997;0.749234259129;0.0345759131014;1;True;30;1;48.03350883723092
66;66;1445942097;2.1546454429599997;0.749230742455;0.034582268446699996;1;True;30;1;48.03350883723092
67;67;1445942097;2.15459084511;0.749126076698;0.0345695465803;1;True;30;1;48.03350883723092
68;68;1445942097;2.1546478271500002;0.749229669571;0.0345839597285;1;True;30;1;48.03350883723092
69;69;1445942097;2.15454411507;0.749127686024;0.03459254279730001;1;True;30;1;48.03350883723092
70;70;1445942097;2.15461802483;0.7491722702979999;0.0345683991909;1;True;30;1;48.03350883723092
71;71;1445942097;2.15455031395;0.749099552631;0.0345969758928;1;True;30;1;48.03350883723092
72;72;1445942097;2.15464019775;0.7492184042929999;0.0345733202994;1;True;30;1;48.03350883723092
73;73;1445942097;2.15457582474;0.749130010605;0.0345902889967;1;True;30;1;48.03350883723092
74;74;1445942097;2.15461993217;0.749143600464;0.0345802791417;1;True;30;1;48.03350883723092
75;75;1445942097;2.15462255478;0.749115765095;0.0345664508641;1;True;30;1;48.03350883723092
76;76;1445942097;2.15462803841;0.749162018299;0.034576758742300005;1;True;30;1;48.03350883723092
77;77;1445942097;2.15454077721;0.749074161053;0.0345925725996;1;True;30;1;48.03350883723092
78;78;1445942097;2.15462422371;0.749217033386;0.0345840342343;1;True;30;1;48.03350883723092
79;79;1445942097;2.15463089943;0.7492150068279999;0.034582760185;1;True;30;1;48.03350883723092
80;80;1445942097;2.1546053886400003;0.7491216659550001;0.0345830693841;1;True;30;1;48.03350883723092
81;81;1445942097;2.15465855598;0.7492415308949999;0.034572444856199994;1;True;30;1;48.03350883723092
82;82;1445942097;2.1546297073400003;0.7491474747660001;0.0345808938146;1;True;30;1;48.03350883723092
83;83;1445942097;2.1546101570099996;0.749121010303;0.0345924124122;1;True;30;1;48.03350883723092
84;84;1445942097;2.15464186668;0.749196708202;0.0346017032862;1;True;30;1;48.03350883723092
85;85;1445942097;2.15465593338;0.749172329903;0.0345852151513;1;True;30;1;48.03350883723092
86;86;1445942097;2.1546008586900003;0.7491249442100001;0.034589506685699996;1;True;30;1;48.03350883723092
87;87;1445942097;2.15453219414;0.7491037249570001;0.0346080511808;1;True;30;1;48.03350883723092
88;88;1445942097;2.1545386314400004;0.749073684216;0.0346051491797;1;True;30;1;48.03350883723092
89;89;1445942097;2.1546697616599997;0.749185919762;0.0345873571932;1;True;30;1;48.03350883723092
90;90;1445942097;2.15459918976;0.749106407166;0.034583888948;1;True;30;1;48.03350883723092
91;91;1445942097;2.15461397171;0.749144852161;0.034601245075500005;1;True;30;1;48.03350883723092
92;92;1445942097;2.15463614464;0.7491399645810001;0.034594126045699995;1;True;30;1;48.03350883723092
93;93;1445942097;2.15457415581;0.749123096466;0.0346024036407;1;True;30;1;48.03350883723092
94;94;1445942097;2.15465164185;0.749232470989;0.0346049815416;1;True;30;1;48.03350883723092
95;95;1445942097;2.1545782089200003;0.749072253704;0.0346072949469;1;True;30;1;48.03350883723092
96;96;1445942097;2.15451622009;0.7490918040279999;0.034620217979;1;True;30;1;48.03350883723092
97;97;1445942097;2.1546454429599997;0.749172091484;0.034588567912599996;1;True;30;1;48.03350883723092
98;98;1445942097;2.15454173088;0.7491102218629999;0.0345974192023;1;True;30;1;48.03350883723092
99;99;1445942097;2.1545951366400002;0.749148607254;0.0346132293344;1;True;30;1;48.03350883723092
100;100;1445942097;2.1546313762700002;0.7491407394410001;0.0346024557948;1;True;30;1;48.03350883723092
101;101;1445942097;2.15457940102;0.7491446733470001;0.034612569958;1;True;30;1;48.03350883723092
102;102;1445942097;2.15464758873;0.7492272853849999;0.0346122086048;1;True;30;1;48.03350883723092
103;103;1445942097;2.15464687347;0.7491447925570001;0.0346060097218;1;True;30;1;48.03350883723092
104;104;1445942097;2.15466475487;0.7492303252220001;0.0346123725176;1;True;30;1;48.03350883723092
105;105;1445942097;2.15454125404;0.749059975147;0.034618735313400005;1;True;30;1;48.03350883723092
106;106;1445942097;2.15452456474;0.749077260494;0.0346224941313;1;True;30;1;48.03350883723092
107;107;1445942097;2.15456295013;0.749105989933;0.0346199423075;1;True;30;1;48.03350883723092
108;108;1445942097;2.1546549797099996;0.749166369438;0.034612100571400004;1;True;30;1;48.03350883723092
109;109;1445942097;2.1546449661300002;0.749206960201;0.03460817784069999;1;True;30;1;48.03350883723092
110;110;1445942097;2.15461707115;0.7491523623469999;0.0346167944372;1;True;30;1;48.03350883723092
111;111;1445942097;2.15465855598;0.749223351479;0.034601673483800006;1;True;30;1;48.03350883723092
112;112;1445942097;2.1546330452;0.7491644620899999;0.034617591649300006;1;True;30;1;48.03350883723092
113;113;1445942097;2.15462732315;0.7491796612739999;0.0346136540174;1;True;30;1;48.03350883723092
114;114;1445942097;2.1546404361700002;0.749177455902;0.0346038602293;1;True;30;1;48.03350883723092
115;115;1445942097;2.15458130836;0.749123454094;0.0346203297377;1;True;30;1;48.03350883723092
116;116;1445942097;2.1546523571000002;0.7491688728329999;0.0346017442644;1;True;30;1;48.03350883723092
117;117;1445942097;2.1546459198;0.7492172122;0.0346177257597;1;True;30;1;48.03350883723092
118;118;1445942097;2.15457558632;0.749121844769;0.0346227400005;1;True;30;1;48.03350883723092
119;119;1445942097;2.15466141701;0.749154806137;0.0346141085029;1;True;30;1;48.03350883723092
120;120;1445942097;2.1545240879099996;0.749070167542;0.034606557339400004;1;True;30;1;48.03350883723092
121;121;1445942097;2.15451455116;0.749087691307;0.0346320830286;1;True;30;1;48.03350883723092
122;122;1445942097;2.1546556949599998;0.749238550663;0.0346125848591;1;True;30;1;48.03350883723092
123;123;1445942097;2.1545970439900004;0.749156057835;0.0346267074347;1;True;30;1;48.03350883723092
124;124;1445942097;2.15458464622;0.749098479748;0.034615598619;1;True;30;1;48.03350883723092
125;125;1445942097;2.15463900566;0.749177634716;0.034593462944;1;True;30;1;48.03350883723092
126;126;1445942097;2.15457224846;0.74917525053;0.034612357616400004;1;True;30;1;48.03350883723092
127;127;1445942097;2.15453338623;0.749086558819;0.034622929990300005;1;True;30;1;48.03350883723092
128;128;1445942097;2.1545624733;0.7491190433499999;0.0346185527742;1;True;30;1;48.03350883723092
129;129;1445942097;2.154556036;0.749104201794;0.034627385437500005;1;True;30;1;48.03350883723092
130;130;1445942097;2.15463542938;0.749173641205;0.0345976278186;1;True;30;1;48.03350883723092
131;131;1445942097;2.15464258194;0.749160945415;0.034605223685499995;1;True;30;1;48.03350883723092
132;132;1445942097;2.15463900566;0.7491610646250001;0.03459993377330001;1;True;30;1;48.03350883723092
133;133;1445942097;2.15461993217;0.7491333484649999;0.0346042588353;1;True;30;1;48.03350883723092
134;134;1445942097;2.15467214584;0.749166727066;0.034601204097300005;1;True;30;1;48.03350883723092
135;135;1445942097;2.1546015739400004;0.749156951904;0.0346066579223;1;True;30;1;48.03350883723092
136;136;1445942097;2.15464091301;0.749165534973;0.0345904603601;1;True;30;1;48.03350883723092
137;137;1445942097;2.1546394825;0.7491487860680001;0.0345880948007;1;True;30;1;48.03350883723092
138;138;1445942097;2.15465664864;0.749226033688;0.0345877297223;1;True;30;1;48.03350883723092
139;139;1445942097;2.15463399887;0.749186217785;0.034599229693400006;1;True;30;1;48.03350883723092
140;140;1445942097;2.15459322929;0.749133527279;0.0345982648432;1;True;30;1;48.03350883723092
141;141;1445942097;2.1546115875200003;0.7491457462309999;0.0345938540995;1;True;30;1;48.03350883723092
142;142;1445942097;2.15458059311;0.74908387661;0.0346105322242;1;True;30;1;48.03350883723092
143;143;1445942097;2.1545941829700004;0.749111950397;0.0345977954566;1;True;30;1;48.03350883723092
144;144;1445942097;2.15459871292;0.74911159277;0.0345930308104;1;True;30;1;48.03350883723092
145;145;1445942097;2.15454554558;0.749029219151;0.0346111059189;1;True;30;1;48.03350883723092
146;146;1445942097;2.1546783447299998;0.749165058136;0.034583009779500004;1;True;30;1;48.03350883723092
147;147;1445942097;2.15456080437;0.7490881085400001;0.0345927588642;1;True;30;1;48.03350883723092
148;148;1445942097;2.15463280678;0.7491623759270001;0.034587148577;1;True;30;1;48.03350883723092
149;149;1445942097;2.1546103954299998;0.749109685421;0.0345874205232;1;True;30;1;48.03350883723092
150;150;1445942097;2.1546630859400002;0.749137222767;0.0345803610981;1;True;30;1;48.03350883723092
151;151;1445942097;2.15463280678;0.7491087317470001;0.0345867685974;1;True;30;1;48.03350883723092
152;152;1445942097;2.15457034111;0.749109387398;0.0346034951508;1;True;30;1;48.03350883723092
153;153;1445942097;2.15464735031;0.7492086887360001;0.034593358635900004;1;True;30;1;48.03350883723092
154;154;1445942097;2.15461850166;0.749187409878;0.0346035994589;1;True;30;1;48.03350883723092
155;155;1445942097;2.15456700325;0.749154806137;0.0346040539443;1;True;30;1;48.03350883723092
156;156;1445942097;2.1546452045400004;0.7491759657860001;0.0345826633275;1;True;30;1;48.03350883723092
157;157;1445942097;2.15458035469;0.749089300632;0.0346022769809;1;True;30;1;48.03350883723092
158;158;1445942097;2.1546399593400003;0.749225974083;0.0345987416804;1;True;30;1;48.03350883723092
159;159;1445942097;2.15462088585;0.749181747437;0.0345878079534;1;True;30;1;48.03350883723092
160;160;1445942097;2.15464258194;0.749149262905;0.0345911644399;1;True;30;1;48.03350883723092
161;161;1445942097;2.15459442139;0.7491600513459999;0.034596730023599996;1;True;30;1;48.03350883723092
162;162;1445942097;2.15462470055;0.7492406368260001;0.0345975123346;1;True;30;1;48.03350883723092
163;163;1445942097;2.1546459198;0.7491853833200001;0.0345801822841;1;True;30;1;48.03350883723092
164;164;1445942097;2.1546313762700002;0.7491813898090001;0.0345825999975;1;True;30;1;48.03350883723092
165;165;1445942097;2.15459728241;0.749179899693;0.0345962420106;1;True;30;1;48.03350883723092
166;166;1445942097;2.15463638306;0.749182581902;0.0345957875252;1;True;30;1;48.03350883723092
167;167;1445942097;2.15457105637;0.749168932438;0.0345920920372;1;True;30;1;48.03350883723092
168;168;1445942097;2.15456533432;0.7491483688349999;0.0345915965736;1;True;30;1;48.03350883723092
169;169;1445942097;2.15458583832;0.7491079568860001;0.0345980376005;1;True;30;1;48.03350883723092
170;170;1445942097;2.15452623367;0.74911236763;0.034607514739;1;True;30;1;48.03350883723092
171;171;1445942097;2.1545157432599997;0.749109566212;0.0346043817699;1;True;30;1;48.03350883723092
172;172;1445942097;2.15463638306;0.749179065228;0.034577522426800004;1;True;30;1;48.03350883723092
173;173;1445942097;2.1546254158;0.749182522297;0.0345815941691;1;True;30;1;48.03350883723092
174;174;1445942097;2.15462398529;0.749255478382;0.034587018191800004;1;True;30;1;48.03350883723092
175;175;1445942097;2.1546332836200004;0.749186098576;0.0345758609474;1;True;30;1;48.03350883723092
176;176;1445942097;2.15454602242;0.749162316322;0.0345937795937;1;True;30;1;48.03350883723092
177;177;1445942097;2.15458464622;0.749168515205;0.034583009779500004;1;True;30;1;48.03350883723092
178;178;1445942097;2.15457344055;0.749137759209;0.0345724001527;1;True;30;1;48.03350883723092
179;179;1445942097;2.1545715332;0.749132990837;0.0345735996962;1;True;30;1;48.03350883723092
180;180;1445942097;2.15462088585;0.749171614647;0.0345659218729;1;True;30;1;48.03350883723092
181;181;1445942097;2.15452170372;0.749118983746;0.0345918387175;1;True;30;1;48.03350883723092
182;182;1445942097;2.1545662879900003;0.749139130116;0.03457800298930001;1;True;30;1;48.03350883723092
183;183;1445942097;2.1546220779400005;0.749209165573;0.034579835832099996;1;True;30;1;48.03350883723092
184;184;1445942097;2.1546399593400003;0.7491564750669999;0.0345644466579;1;True;30;1;48.03350883723092
185;185;1445942097;2.1546318531;0.7492039799690001;0.03457292169330001;1;True;30;1;48.03350883723092
186;186;1445942097;2.15464282036;0.749152719975;0.0345699377358;1;True;30;1;48.03350883723092
187;187;1445942097;2.1546602249099998;0.749151945114;0.0345683060586;1;True;30;1;48.03350883723092
188;188;1445942097;2.1545860767400002;0.74910479784;0.0345691405237;1;True;30;1;48.03350883723092
189;189;1445942097;2.15465188026;0.74920630455;0.0345783382654;1;True;30;1;48.03350883723092
190;190;1445942097;2.15457439423;0.7490930557250001;0.0345861315727;1;True;30;1;48.03350883723092
191;191;1445942097;2.15464019775;0.749131917953;0.0345703437924;1;True;30;1;48.03350883723092
192;192;1445942097;2.15464472771;0.749195456505;0.034561756998300004;1;True;30;1;48.03350883723092
193;193;1445942097;2.15461921692;0.749110877514;0.034575082361699996;1;True;30;1;48.03350883723092
194;194;1445942097;2.15465807915;0.7491571307179999;0.034570723772;1;True;30;1;48.03350883723092
195;195;1445942097;2.15461707115;0.749079763889;0.0345737338066;1;True;30;1;48.03350883723092
196;196;1445942097;2.15459299088;0.7491371631620001;0.034584451466800004;1;True;30;1;48.03350883723092
197;197;1445942097;2.15454387665;0.749107480049;0.0345936603844;1;True;30;1;48.03350883723092
198;198;1445942097;2.15462493896;0.7491523027420001;0.034579910337900005;1;True;30;1;48.03350883723092
199;199;1445942097;2.1545920372;0.749115586281;0.034581888467099996;1;True;30;1;48.03350883723092
200;200;1445942097;2.15462708473;0.749204576015;0.034585975110499996;1;True;30;1;48.03350883723092
201;201;1445942097;2.15465593338;0.7492234110830001;0.034585122019099995;1;True;30;1;48.03350883723092
202;202;1445942097;2.15462708473;0.749158501625;0.0345894508064;1;True;30;1;48.03350883723092
203;203;1445942097;2.15466165543;0.7492086887360001;0.0345969982445;1;True;30;1;48.03350883723092
204;204;1445942097;2.15452861786;0.749044775963;0.0346137583256;1;True;30;1;48.03350883723092
205;205;1445942097;2.1545958519;0.749139487743;0.034595254808699995;1;True;30;1;48.03350883723092
206;206;1445942097;2.15454864502;0.7490568161010001;0.0346111059189;1;True;30;1;48.03350883723092
207;207;1445942097;2.15464353561;0.749128401279;0.0346023663878;1;True;30;1;48.03350883723092
208;208;1445942097;2.15462875366;0.749147951603;0.0345960557461;1;True;30;1;48.03350883723092
209;209;1445942097;2.1545612812;0.7490966320039999;0.034612968564;1;True;30;1;48.03350883723092
210;210;1445942097;2.15463423729;0.7491526603700001;0.0346075966954;1;True;30;1;48.03350883723092
211;211;1445942097;2.15447735786;0.7490537762639999;0.0346603617072;1;True;30;1;48.03350883723092
212;212;1445942097;2.15462255478;0.749118208885;0.0346082746983;1;True;30;1;48.03350883723092
213;213;1445942097;2.1546058654799998;0.749147355556;0.034604534506800004;1;True;30;1;48.03350883723092
214;214;1445942097;2.15460848808;0.749160587788;0.034609075635699996;1;True;30;1;48.03350883723092
215;215;1445942097;2.1546332836200004;0.7491308450699999;0.0345963574946;1;True;30;1;48.03350883723092
216;216;1445942097;2.15463232994;0.749132752419;0.0345987677574;1;True;30;1;48.03350883723092
217;217;1445942097;2.15465283394;0.749145030975;0.0346044935286;1;True;30;1;48.03350883723092
218;218;1445942097;2.1545522213;0.749059855938;0.034624155610800005;1;True;30;1;48.03350883723092
219;219;1445942097;2.15454220772;0.749062895775;0.03462186455730001;1;True;30;1;48.03350883723092
220;220;1445942097;2.15465259552;0.7491551637649999;0.0345977321267;1;True;30;1;48.03350883723092
221;221;1445942097;2.15454506874;0.749034941196;0.0346212387085;1;True;30;1;48.03350883723092
222;222;1445942097;2.1546444892900003;0.7491905689239999;0.034607946872699996;1;True;30;1;48.03350883723092
223;223;1445942097;2.15458393097;0.7491047382350001;0.034606620669400005;1;True;30;1;48.03350883723092
224;224;1445942097;2.15452980995;0.749088168144;0.0346196815372;1;True;30;1;48.03350883723092
225;225;1445942097;2.15458679199;0.7491198182109999;0.0346086286008;1;True;30;1;48.03350883723092
226;226;1445942097;2.15464878082;0.749185085297;0.034603856504000004;1;True;30;1;48.03350883723092
227;227;1445942097;2.15465474129;0.7491422295569999;0.0345966108143;1;True;30;1;48.03350883723092
228;228;1445942097;2.15463542938;0.7491950988770001;0.034607369452699994;1;True;30;1;48.03350883723092
229;229;1445942097;2.1546254158;0.7491930127140001;0.0346026755869;1;True;30;1;48.03350883723092
230;230;1445942097;2.15460371971;0.749114513397;0.03460258245469999;1;True;30;1;48.03350883723092
231;231;1445942097;2.15460920334;0.749130249023;0.034595541656;1;True;30;1;48.03350883723092
232;232;1445942097;2.15465021133;0.7491392493250001;0.0345945470035;1;True;30;1;48.03350883723092
233;233;1445942097;2.15448737144;0.74904191494;0.0346464887261;1;True;30;1;48.03350883723092
234;234;1445942097;2.15458035469;0.749089062214;0.0346047766507;1;True;30;1;48.03350883723092
235;235;1445942097;2.15461945534;0.749138772488;0.034593693912;1;True;30;1;48.03350883723092
236;236;1445942097;2.1546406745900004;0.7492039799690001;0.034594617784000005;1;True;30;1;48.03350883723092
237;237;1445942097;2.15465736389;0.7492012381550001;0.0346004515886;1;True;30;1;48.03350883723092
238;238;1445942097;2.15452671051;0.7490304112430001;0.0346140153706;1;True;30;1;48.03350883723092
239;239;1445942097;2.1546533107799997;0.74913829565;0.034598432481300005;1;True;30;1;48.03350883723092
240;240;1445942097;2.1546630859400002;0.749200582504;0.0345976129174;1;True;30;1;48.03350883723092
241;241;1445942097;2.1545751094799996;0.749106407166;0.0346152558923;1;True;30;1;48.03350883723092
242;242;1445942097;2.15464305878;0.749176323414;0.034595210105199996;1;True;30;1;48.03350883723092
243;243;1445942097;2.1546652316999997;0.749169588089;0.0345983020961;1;True;30;1;48.03350883723092
244;244;1445942097;2.15459823608;0.749121904373;0.0346056334674;1;True;30;1;48.03350883723092
245;245;1445942097;2.1545784473400005;0.7491386532780001;0.0346066094935;1;True;30;1;48.03350883723092
246;246;1445942097;2.15459990501;0.749128043652;0.034599479287900005;1;True;30;1;48.03350883723092
247;247;1445942097;2.15459251404;0.7491666674609999;0.0345884896815;1;True;30;1;48.03350883723092
248;248;1445942097;2.15459465981;0.7491412758830001;0.0346023365855;1;True;30;1;48.03350883723092
249;249;1445942097;2.1545474529299997;0.749069273472;0.034606650471699994;1;True;30;1;48.03350883723092
250;250;1445942097;2.15452051163;0.749027609825;0.0346151590347;1;True;30;1;48.03350883723092
251;251;1445942097;2.1546549797099996;0.749142289162;0.0345969051123;1;True;30;1;48.03350883723092
252;252;1445942097;2.15464138985;0.749141693115;0.034583482891300005;1;True;30;1;48.03350883723092
253;253;1445942097;2.15457677841;0.74909389019;0.0346039421856;1;True;30;1;48.03350883723092
254;254;1445942097;2.1546151638;0.749128937721;0.03459820896390001;1;True;30;1;48.03350883723092
255;255;1445942097;2.1546478271500002;0.749158084393;0.0345952734351;1;True;30;1;48.03350883723092
256;256;1445942097;2.15462756157;0.7491140365600001;0.034585908055300006;1;True;30;1;48.03350883723092
257;257;1445942097;2.15460443497;0.7491439580920001;0.0346009209752;1;True;30;1;48.03350883723092
258;258;1445942097;2.15464997292;0.749219238758;0.0345945842564;1;True;30;1;48.03350883723092
259;259;1445942097;2.15453648567;0.7491072416310001;0.0346007980406;1;True;30;1;48.03350883723092
260;260;1445942097;2.15464830399;0.74922555685;0.0345886386931;1;True;30;1;48.03350883723092
261;261;1445942097;2.1546306610099997;0.749194264412;0.034584499895599995;1;True;30;1;48.03350883723092
262;262;1445942097;2.15461063385;0.749181747437;0.0345938913524;1;True;30;1;48.03350883723092
263;263;1445942097;2.1546220779400005;0.7492399215700001;0.034614302218;1;True;30;1;48.03350883723092
264;264;1445942097;2.15459322929;0.74918282032;0.0345943421125;1;True;30;1;48.03350883723092
265;265;1445942097;2.15459728241;0.7491987347600001;0.034595813602199994;1;True;30;1;48.03350883723092
266;266;1445942097;2.15457320213;0.74915599823;0.0345954336226;1;True;30;1;48.03350883723092
267;267;1445942097;2.15456414223;0.7491233348849999;0.0345961712301;1;True;30;1;48.03350883723092
268;268;1445942097;2.15462756157;0.7491647601129999;0.034584831446400004;1;True;30;1;48.03350883723092
269;269;1445942097;2.1546056270599996;0.749224722385;0.0345958769321;1;True;30;1;48.03350883723092
270;270;1445942097;2.15454602242;0.749138951302;0.034606508910699996;1;True;30;1;48.03350883723092
271;271;1445942097;2.15461063385;0.749200999737;0.0345782935619;1;True;30;1;48.03350883723092
272;272;1445942097;2.15454125404;0.749128043652;0.034601099789100004;1;True;30;1;48.03350883723092
273;273;1445942097;2.1546404361700002;0.7492263317110001;0.034581001848;1;True;30;1;48.03350883723092
274;274;1445942097;2.15463399887;0.749155938625;0.0345690101385;1;True;30;1;48.03350883723092
275;275;1445942097;2.15456938744;0.7491688728329999;0.034591406583800006;1;True;30;1;48.03350883723092
276;276;1445942097;2.15452837944;0.749099075794;0.0345722734928;1;True;30;1;48.03350883723092
277;277;1445942097;2.1545865535699997;0.7491769194600001;0.0345824919641;1;True;30;1;48.03350883723092
278;278;1445942097;2.1546335220299997;0.7492220997810001;0.034578699618599995;1;True;30;1;48.03350883723092
279;279;1445942097;2.15461587906;0.7491807937620001;0.0345682352781;1;True;30;1;48.03350883723092
280;280;1445942097;2.15455174446;0.749111711979;0.0345816574991;1;True;30;1;48.03350883723092
281;281;1445942097;2.15454292297;0.749085366726;0.0345945581794;1;True;30;1;48.03350883723092
282;282;1445942097;2.15460705757;0.749162733555;0.0345891751349;1;True;30;1;48.03350883723092
283;283;1445942097;2.15460896492;0.749154210091;0.0345799662173;1;True;30;1;48.03350883723092
284;284;1445942097;2.1546227931999997;0.749231338501;0.0345792770386;1;True;30;1;48.03350883723092
285;285;1445942097;2.1546163559;0.74915009737;0.0345749892294;1;True;30;1;48.03350883723092
286;286;1445942097;2.15454554558;0.749094188213;0.0345859602094;1;True;30;1;48.03350883723092
287;287;1445942097;2.15463447571;0.749183893204;0.0345723628998;1;True;30;1;48.03350883723092
288;288;1445942097;2.15454173088;0.7491061091419999;0.0345786139369;1;True;30;1;48.03350883723092
289;289;1445942097;2.1545751094799996;0.7491634488109999;0.0345803275704;1;True;30;1;48.03350883723092
290;290;1445942097;2.15461111069;0.749158263206;0.0345718041062;1;True;30;1;48.03350883723092
291;291;1445942098;2.1546330452;0.7492597103120001;0.03456979617480001;2;True;30;1;48.03350883723092
292;292;1445942098;2.15460467339;0.749231100082;0.034581869840599994;2;True;30;1;48.03350883723092
293;293;1445942098;2.15462732315;0.749173939228;0.0345713496208;2;True;30;1;48.03350883723092
294;294;1445942098;2.15453696251;0.749084174633;0.0345976687968;2;True;30;1;48.03350883723092
295;295;1445942098;2.15458893776;0.7491409778589999;0.034575663507;2;True;30;1;48.03350883723092
296;296;1445942098;2.15458989143;0.749136686325;0.034582521766400004;2;True;30;1;48.03350883723092
297;297;1445942098;2.15458893776;0.74912571907;0.034580036997800004;2;True;30;1;48.03350883723092
298;298;1445942098;2.15451216698;0.749081254005;0.0345956124365;2;True;30;1;48.03350883723092
299;299;1445942098;2.1545870304099997;0.7491782903669999;0.034587688744099995;2;True;30;1;48.03350883723092
300;300;1445942098;2.15456295013;0.749136090279;0.0345805212855;2;True;30;1;48.03350883723092
301;301;1445942098;2.15462327003;0.749228656292;0.0345826335251;2;True;30;1;48.03350883723092
302;302;1445942098;2.15458774567;0.749198019505;0.0345942042768;2;True;30;1;48.03350883723092
303;303;1445942098;2.15450596809;0.749101698399;0.034597620368;2;True;30;1;48.03350883723092
304;304;1445942098;2.15454506874;0.749138534069;0.0345922112465;2;True;30;1;48.03350883723092
305;305;1445942098;2.15454602242;0.749136090279;0.0345841906965;2;True;30;1;48.03350883723092
306;306;1445942098;2.1545348167400005;0.74914431572;0.034595862031;2;True;30;1;48.03350883723092
307;307;1445942098;2.15449905396;0.749083757401;0.034606195986300006;2;True;30;1;48.03350883723092
308;308;1445942098;2.1546299457599996;0.749161839485;0.034591935575;2;True;30;1;48.03350883723092
309;309;1445942098;2.154556036;0.749092042446;0.034594707190999996;2;True;30;1;48.03350883723092
310;310;1445942098;2.1546163559;0.74918204546;0.0345796234906;2;True;30;1;48.03350883723092
311;311;1445942098;2.1546201705900003;0.749189734459;0.0345835573971;2;True;30;1;48.03350883723092
312;312;1445942098;2.15452361107;0.7490919232369999;0.034609407186500005;2;True;30;1;48.03350883723092
313;313;1445942098;2.1545779705;0.749166548252;0.034590952098400005;2;True;30;1;48.03350883723092
314;314;1445942098;2.15458273888;0.749096870422;0.034598145633900006;2;True;30;1;48.03350883723092
315;315;1445942098;2.15460348129;0.7491753697399999;0.034605197608500005;2;True;30;1;48.03350883723092
316;316;1445942098;2.15456867218;0.7491216659550001;0.0346010960639;2;True;30;1;48.03350883723092
317;317;1445942098;2.15456533432;0.749124109745;0.0346091911197;2;True;30;1;48.03350883723092
318;318;1445942098;2.15458488464;0.7491314411159999;0.034616999328099994;2;True;30;1;48.03350883723092
319;319;1445942098;2.15462350845;0.74913841486;0.03460843488569999;2;True;30;1;48.03350883723092
320;320;1445942098;2.1546399593400003;0.7492280006409999;0.0345936343074;2;True;30;1;48.03350883723092
321;321;1445942098;2.15460681915;0.749126315117;0.034601777792;2;True;30;1;48.03350883723092
322;322;1445942098;2.1546630859400002;0.749162435532;0.0346016846597;2;True;30;1;48.03350883723092
323;323;1445942098;2.15461754799;0.749180912971;0.0346068479121;2;True;30;1;48.03350883723092
324;324;1445942098;2.15457034111;0.749118506908;0.034609477967;2;True;30;1;48.03350883723092
325;325;1445942098;2.15462303162;0.749175012112;0.0346025750041;2;True;30;1;48.03350883723092
326;326;1445942098;2.15464639664;0.74921476841;0.0346039496362;2;True;30;1;48.03350883723092
327;327;1445942098;2.15459823608;0.749099910259;0.0346058085561;2;True;30;1;48.03350883723092
328;328;1445942098;2.15454673767;0.7490631341930001;0.034620951861099994;2;True;30;1;48.03350883723092
329;329;1445942098;2.15458416939;0.749121963978;0.0346109010279;2;True;30;1;48.03350883723092
330;330;1445942098;2.15459823608;0.749121189117;0.034600295126400005;2;True;30;1;48.03350883723092
331;331;1445942098;2.1546220779400005;0.7491639256479999;0.034596107900099995;2;True;30;1;48.03350883723092
332;332;1445942098;2.15463256836;0.7491782903669999;0.0345965698361;2;True;30;1;48.03350883723092
333;333;1445942098;2.1546652316999997;0.74921554327;0.0345995053649;2;True;30;1;48.03350883723092
334;334;1445942098;2.15451836586;0.7491089105609999;0.0346126146615;2;True;30;1;48.03350883723092
335;335;1445942098;2.1545863151599995;0.7491408586499999;0.0346121191978;2;True;30;1;48.03350883723092
336;336;1445942098;2.15463638306;0.749254345894;0.03460052981969999;2;True;30;1;48.03350883723092
337;337;1445942098;2.15465044975;0.7492371201520001;0.034605037421;2;True;30;1;48.03350883723092
338;338;1445942098;2.1545348167400005;0.7491492033;0.034622732549900004;2;True;30;1;48.03350883723092
339;339;1445942098;2.15456557274;0.749146103859;0.0346148982644;2;True;30;1;48.03350883723092
340;340;1445942098;2.1546406745900004;0.749184846878;0.034600365907000004;2;True;30;1;48.03350883723092
341;341;1445942098;2.15452528;0.749085187912;0.0346157252789;2;True;30;1;48.03350883723092
342;342;1445942098;2.15453839302;0.7491256594660001;0.034627154469499995;2;True;30;1;48.03350883723092
343;343;1445942098;2.1546394825;0.7491756677629999;0.0346043892205;2;True;30;1;48.03350883723092
344;344;1445942098;2.1545355319999997;0.749131798744;0.0346161723137;2;True;30;1;48.03350883723092
345;345;1445942098;2.15462684631;0.749221920967;0.0346042364836;2;True;30;1;48.03350883723092
346;346;1445942098;2.15464377403;0.749170362949;0.0346120968461;2;True;30;1;48.03350883723092
347;347;1445942098;2.15463614464;0.7491763830179999;0.0346032828093;2;True;30;1;48.03350883723092
348;348;1445942098;2.15457439423;0.749160766602;0.034619525075;2;True;30;1;48.03350883723092
349;349;1445942098;2.15461182594;0.7491865754129999;0.0346125587821;2;True;30;1;48.03350883723092
350;350;1445942098;2.15455102921;0.749113500118;0.0346262976527;2;True;30;1;48.03350883723092
351;351;1445942098;2.1546459198;0.749162793159;0.0346092432737;2;True;30;1;48.03350883723092
352;352;1445942098;2.1545822620400004;0.7491548657420001;0.0346214957535;2;True;30;1;48.03350883723092
353;353;1445942098;2.15465092659;0.749204039574;0.034613661468000004;2;True;30;1;48.03350883723092
354;354;1445942098;2.15464377403;0.7491831779479999;0.0346024744213;2;True;30;1;48.03350883723092
355;355;1445942098;2.1545515060400002;0.749134361744;0.0346305221319;2;True;30;1;48.03350883723092
356;356;1445942098;2.15463709831;0.7491676807400001;0.0346056334674;2;True;30;1;48.03350883723092
357;357;1445942098;2.1546115875200003;0.749213635921;0.034619424492099996;2;True;30;1;48.03350883723092
358;358;1445942098;2.15460205078;0.749166607857;0.034602332860199994;2;True;30;1;48.03350883723092
359;359;1445942098;2.1546599865;0.749184310436;0.034605156630300005;2;True;30;1;48.03350883723092
360;360;1445942098;2.15456032753;0.74914431572;0.0346249267459;2;True;30;1;48.03350883723092
361;361;1445942098;2.15456151962;0.7490991353990001;0.034617569297599994;2;True;30;1;48.03350883723092
362;362;1445942098;2.15463972092;0.74918037653;0.0346079021692;2;True;30;1;48.03350883723092
363;363;1445942098;2.1545910835299997;0.7491555809970001;0.0346151255071;2;True;30;1;48.03350883723092
364;364;1445942098;2.1545777320900004;0.749070465565;0.0346152298152;2;True;30;1;48.03350883723092
365;365;1445942098;2.1546592712400003;0.7492067813869999;0.034606561064699996;2;True;30;1;48.03350883723092
366;366;1445942098;2.15458083153;0.749131560326;0.0346106775105;2;True;30;1;48.03350883723092
367;367;1445942098;2.15458106995;0.749119281769;0.0345995724201;2;True;30;1;48.03350883723092
368;368;1445942098;2.15462779999;0.7491769790649999;0.0345990695059;2;True;30;1;48.03350883723092
369;369;1445942098;2.1545782089200003;0.7491531372069999;0.0346113815904;2;True;30;1;48.03350883723092
370;370;1445942098;2.15463495255;0.7491639256479999;0.0346029289067;2;True;30;1;48.03350883723092
371;371;1445942098;2.15462350845;0.749124765396;0.034603733569400004;2;True;30;1;48.03350883723092
372;372;1445942098;2.1546053886400003;0.7491286396979999;0.034591708332300006;2;True;30;1;48.03350883723092
373;373;1445942098;2.15462112427;0.749097704887;0.034598145633900006;2;True;30;1;48.03350883723092
374;374;1445942098;2.15463113785;0.74923479557;0.0346046425402;2;True;30;1;48.03350883723092
375;375;1445942098;2.1545979976700003;0.7491435408589999;0.0346034877002;2;True;30;1;48.03350883723092
376;376;1445942098;2.1545779705;0.7491195797920001;0.0345937758684;2;True;30;1;48.03350883723092
377;377;1445942098;2.15459084511;0.7491640448569999;0.0346110425889;2;True;30;1;48.03350883723092
378;378;1445942098;2.15461468697;0.749223470688;0.0345977582037;2;True;30;1;48.03350883723092
379;379;1445942098;2.15459132195;0.7491252422329999;0.0345929116011;2;True;30;1;48.03350883723092
380;380;1445942098;2.15460324287;0.749190807343;0.0346090719104;2;True;30;1;48.03350883723092
381;381;1445942098;2.15461826324;0.7491652369499999;0.034589715302;2;True;30;1;48.03350883723092
382;382;1445942098;2.15451860428;0.749063432217;0.034606590867;2;True;30;1;48.03350883723092
383;383;1445942098;2.1546406745900004;0.749154746532;0.034588202834099996;2;True;30;1;48.03350883723092
384;384;1445942098;2.15452957153;0.74903357029;0.0345998592675;2;True;30;1;48.03350883723092
385;385;1445942098;2.15459299088;0.749099969864;0.0345831848681;2;True;30;1;48.03350883723092
386;386;1445942098;2.1546564102200003;0.749146103859;0.0345852822065;2;True;30;1;48.03350883723092
387;387;1445942098;2.1546533107799997;0.749196887016;0.0345699153841;2;True;30;1;48.03350883723092
388;388;1445942098;2.15464019775;0.7491686940189999;0.034568041563;2;True;30;1;48.03350883723092
389;389;1445942098;2.1545782089200003;0.749106049538;0.034588020294900004;2;True;30;1;48.03350883723092
390;390;1445942098;2.15464305878;0.749165058136;0.0345719605684;2;True;30;1;48.03350883723092
391;391;1445942098;2.1546030044599997;0.749117791653;0.0345843955874;2;True;30;1;48.03350883723092
392;392;1445942098;2.15460705757;0.749120235443;0.0345880165696;2;True;30;1;48.03350883723092
393;393;1445942098;2.1545464992500003;0.749103367329;0.03458539024;2;True;30;1;48.03350883723092
394;394;1445942098;2.15453028679;0.7490863204000001;0.034591753035800005;2;True;30;1;48.03350883723092
395;395;1445942098;2.1546404361700002;0.749156951904;0.0345770828426;2;True;30;1;48.03350883723092
396;396;1445942098;2.1545765399900003;0.7491802573199999;0.0345725379884;2;True;30;1;48.03350883723092
397;397;1445942098;2.15459132195;0.7491203546520001;0.0345734097064;2;True;30;1;48.03350883723092
398;398;1445942098;2.15457248688;0.749139785767;0.034572981298;2;True;30;1;48.03350883723092
399;399;1445942098;2.15458345413;0.74913340807;0.0345690771937;2;True;30;1;48.03350883723092
400;400;1445942098;2.15457558632;0.749144732952;0.0345806926489;2;True;30;1;48.03350883723092
401;401;1445942098;2.15450930595;0.749087870121;0.034584518522;2;True;30;1;48.03350883723092
402;402;1445942098;2.15457439423;0.749165713787;0.0345862992108;2;True;30;1;48.03350883723092
403;403;1445942098;2.1545901298500003;0.7491115331649999;0.0345698967576;2;True;30;1;48.03350883723092
404;404;1445942098;2.15463662148;0.749177336693;0.0345628336072;2;True;30;1;48.03350883723092
405;405;1445942098;2.1545751094799996;0.7490591406820001;0.034571364522;2;True;30;1;48.03350883723092
406;406;1445942098;2.1545941829700004;0.7491634488109999;0.0345776192844;2;True;30;1;48.03350883723092
407;407;1445942098;2.15461993217;0.7491595745090001;0.0345687717199;2;True;30;1;48.03350883723092
408;408;1445942098;2.15452384949;0.749086737633;0.034585136920199995;2;True;30;1;48.03350883723092
409;409;1445942098;2.1545279026;0.7490726113320001;0.0345859006047;2;True;30;1;48.03350883723092
410;410;1445942098;2.15454673767;0.749069273472;0.0345873460174;2;True;30;1;48.03350883723092
411;411;1445942098;2.1545865535699997;0.749118506908;0.0345669612288;2;True;30;1;48.03350883723092
412;412;1445942098;2.15463256836;0.7492121458050001;0.0345679596066;2;True;30;1;48.03350883723092
413;413;1445942098;2.1545431613900003;0.749099731445;0.0345737077296;2;True;30;1;48.03350883723092
414;414;1445942098;2.15458750725;0.749129891396;0.034581374377;2;True;30;1;48.03350883723092
415;415;1445942098;2.15464949608;0.749222755432;0.034568756818800006;2;True;30;1;48.03350883723092
416;416;1445942098;2.15457892418;0.7490973472600001;0.034568641334800004;2;True;30;1;48.03350883723092
417;417;1445942098;2.15464282036;0.749154806137;0.0345548801124;2;True;30;1;48.03350883723092
418;418;1445942098;2.1545472145099995;0.7490593194959999;0.0345831699669;2;True;30;1;48.03350883723092
419;419;1445942098;2.15457606316;0.749098479748;0.0345945470035;2;True;30;1;48.03350883723092
420;420;1445942098;2.15464282036;0.7491140365600001;0.0345648154616;2;True;30;1;48.03350883723092
421;421;1445942098;2.1546022892;0.749095439911;0.034572388976800005;2;True;30;1;48.03350883723092
422;422;1445942098;2.15462946892;0.749096393585;0.034560039639499995;2;True;30;1;48.03350883723092
423;423;1445942098;2.15454936028;0.749094367027;0.0345818959177;2;True;30;1;48.03350883723092
424;424;1445942098;2.15465474129;0.7491525411609999;0.034569710493099995;2;True;30;1;48.03350883723092
425;425;1445942098;2.15462303162;0.7490782141689999;0.034568287432199994;2;True;30;1;48.03350883723092
426;426;1445942098;2.1546578407299997;0.7491952776909999;0.034585975110499996;2;True;30;1;48.03350883723092
427;427;1445942098;2.1545128822299997;0.749059796333;0.034625098109199996;2;True;30;1;48.03350883723092
428;428;1445942098;2.15466237068;0.7492129802699999;0.0345800146461;2;True;30;1;48.03350883723092
429;429;1445942098;2.1546375751499998;0.7491251230239999;0.034590087831;2;True;30;1;48.03350883723092
430;430;1445942098;2.1545314788799996;0.749064266682;0.0345839224756;2;True;30;1;48.03350883723092
431;431;1445942098;2.15452671051;0.749054133892;0.0346117317677;2;True;30;1;48.03350883723092
432;432;1445942098;2.15465760231;0.749218344688;0.0345818325877;2;True;30;1;48.03350883723092
433;433;1445942098;2.1546049118;0.7490958571430001;0.0345912761986;2;True;30;1;48.03350883723092
434;434;1445942098;2.15462946892;0.749141097069;0.0345880016685;2;True;30;1;48.03350883723092
435;435;1445942098;2.15458059311;0.7491331696510001;0.0345991402864;2;True;30;1;48.03350883723092
436;436;1445942098;2.15465402603;0.7491333484649999;0.03458359465;2;True;30;1;48.03350883723092
437;437;1445942098;2.1545832157099998;0.749098420143;0.03460019081830001;2;True;30;1;48.03350883723092
438;438;1445942098;2.15465974808;0.749202013016;0.034600932151099995;2;True;30;1;48.03350883723092
439;439;1445942098;2.1545684337599997;0.749058544636;0.0346099846065;2;True;30;1;48.03350883723092
440;440;1445942098;2.15462827682;0.749110996723;0.034592192620000004;2;True;30;1;48.03350883723092
441;441;1445942098;2.1546216011;0.74909389019;0.0345968082547;2;True;30;1;48.03350883723092
442;442;1445942098;2.1545341014900004;0.749078571796;0.0346091985703;2;True;30;1;48.03350883723092
443;443;1445942098;2.15461564064;0.749109208584;0.034587431699;2;True;30;1;48.03350883723092
444;444;1445942098;2.15457868576;0.7490739226340001;0.0346034094691;2;True;30;1;48.03350883723092
445;445;1445942098;2.15460252762;0.749112784863;0.034603867679800004;2;True;30;1;48.03350883723092
446;446;1445942098;2.15462255478;0.7490767240520001;0.0346065796912;2;True;30;1;48.03350883723092
447;447;1445942098;2.15464687347;0.7490960359569999;0.034599624574199996;2;True;30;1;48.03350883723092
448;448;1445942098;2.15463662148;0.7491602897640001;0.03461077064280001;2;True;30;1;48.03350883723092
449;449;1445942098;2.15459251404;0.749104321003;0.0346216373146;2;True;30;1;48.03350883723092
450;450;1445942098;2.15464091301;0.7491794824600001;0.0346137024462;2;True;30;1;48.03350883723092
451;451;1445942098;2.15463900566;0.749143600464;0.0345945209265;2;True;30;1;48.03350883723092
452;452;1445942098;2.15463256836;0.749125182629;0.0346012227237;2;True;30;1;48.03350883723092
453;453;1445942098;2.15467166901;0.74913418293;0.0346015766263;2;True;30;1;48.03350883723092
454;454;1445942098;2.15463685989;0.7490836977959999;0.0346081592143;2;True;30;1;48.03350883723092
455;455;1445942098;2.15461778641;0.749106347561;0.0346210859716;2;True;30;1;48.03350883723092
456;456;1445942098;2.15464878082;0.749138891697;0.0345955975354;2;True;30;1;48.03350883723092
457;457;1445942098;2.15466547012;0.749158143997;0.034597359597699995;2;True;30;1;48.03350883723092
458;458;1445942098;2.1546561718;0.749137043953;0.0346037261188;2;True;30;1;48.03350883723092
459;459;1445942098;2.1546561718;0.7492222189899999;0.034606225788599995;2;True;30;1;48.03350883723092
460;460;1445942098;2.15467476845;0.749133527279;0.0345958769321;2;True;30;1;48.03350883723092
461;461;1445942098;2.15455985069;0.749115526676;0.0346193984151;2;True;30;1;48.03350883723092
462;462;1445942098;2.1546187400799997;0.7491337656970001;0.0346046835184;2;True;30;1;48.03350883723092
463;463;1445942098;2.15463447571;0.7490819096570001;0.0346027947962;2;True;30;1;48.03350883723092
464;464;1445942098;2.15460824966;0.749156832695;0.0345927141607;2;True;30;1;48.03350883723092
465;465;1445942098;2.15457105637;0.749092578888;0.034606080502300005;2;True;30;1;48.03350883723092
466;466;1445942098;2.1546359062200002;0.7491977810860001;0.0345989689231;2;True;30;1;48.03350883723092
467;467;1445942098;2.15460515022;0.749146997929;0.0346068665385;2;True;30;1;48.03350883723092
468;468;1445942098;2.1545941829700004;0.7491426467899999;0.0346061103046;2;True;30;1;48.03350883723092
469;469;1445942098;2.15466809273;0.749165117741;0.0345980226994;2;True;30;1;48.03350883723092
470;470;1445942098;2.15460944176;0.749131560326;0.034604780376;2;True;30;1;48.03350883723092
471;471;1445942098;2.15463852882;0.749153256416;0.0346060246229;2;True;30;1;48.03350883723092
472;472;1445942098;2.15460133553;0.749153494835;0.034594617784000005;2;True;30;1;48.03350883723092
473;473;1445942098;2.15463852882;0.7492222189899999;0.034610696137;2;True;30;1;48.03350883723092
474;474;1445942098;2.15462684631;0.749148726463;0.0345983244479;2;True;30;1;48.03350883723092
475;475;1445942098;2.1545910835299997;0.749139070511;0.0345996879041;2;True;30;1;48.03350883723092
476;476;1445942098;2.1546142101299997;0.749151229858;0.034598518163000004;2;True;30;1;48.03350883723092
477;477;1445942098;2.15463495255;0.749135315418;0.034594822675;2;True;30;1;48.03350883723092
478;478;1445942098;2.1546125412;0.74911236763;0.034608785063;2;True;30;1;48.03350883723092
479;479;1445942098;2.15462112427;0.7491706013680001;0.0346014760435;2;True;30;1;48.03350883723092
480;480;1445942098;2.1546347141299997;0.7491713762279999;0.034595329314500003;2;True;30;1;48.03350883723092
481;481;1445942098;2.15460109711;0.749112010002;0.0346160270274;2;True;30;1;48.03350883723092
482;482;1445942098;2.1545317173;0.749125421047;0.0346131213009;2;True;30;1;48.03350883723092
483;483;1445942098;2.1546173095700003;0.749136090279;0.0345981605351;2;True;30;1;48.03350883723092
484;484;1445942098;2.15458130836;0.749134361744;0.0346246510744;2;True;30;1;48.03350883723092
485;485;1445942098;2.15460705757;0.74909555912;0.0346134789288;2;True;30;1;48.03350883723092
486;486;1445942098;2.15459442139;0.74913161993;0.03460946679119999;2;True;30;1;48.03350883723092
487;487;1445942098;2.15463709831;0.7492108941079999;0.034602668136400005;2;True;30;1;48.03350883723092
488;488;1445942098;2.1546101570099996;0.7491775751109999;0.0345944873989;2;True;30;1;48.03350883723092
489;489;1445942098;2.15461111069;0.74920964241;0.034601084888;2;True;30;1;48.03350883723092
490;490;1445942098;2.1546087265000002;0.749160885811;0.0345924161375;2;True;30;1;48.03350883723092
491;491;1445942098;2.15453624725;0.749059915543;0.0346076823771;2;True;30;1;48.03350883723092
492;492;1445942098;2.15464878082;0.749220430851;0.034597620368;2;True;30;1;48.03350883723092
493;493;1445942098;2.15465021133;0.749155879021;0.034589137882;2;True;30;1;48.03350883723092
494;494;1445942098;2.1545958519;0.74913418293;0.0345965214074;2;True;30;1;48.03350883723092
495;495;1445942098;2.15458583832;0.749116718769;0.034590203315;2;True;30;1;48.03350883723092
496;496;1445942098;2.1544585228;0.7490889430050001;0.0346553660929;2;True;30;1;48.03350883723092
497;497;1445942098;2.1545963287400003;0.749164104462;0.034581691026699994;2;True;30;1;48.03350883723092
498;498;1445942098;2.15462493896;0.749221146107;0.034593358635900004;2;True;30;1;48.03350883723092
499;499;1445942098;2.15461564064;0.749129116535;0.034578174352599994;2;True;30;1;48.03350883723092
500;500;1445942098;2.1546449661300002;0.749168097973;0.0345756113529;2;True;30;1;48.03350883723092
501;501;1445942098;2.15461921692;0.7491634488109999;0.034569837153;2;True;30;1;48.03350883723092
502;502;1445942098;2.15457677841;0.749115765095;0.0345714427531;2;True;30;1;48.03350883723092
503;503;1445942098;2.15463709831;0.7491748332979999;0.0345766544342;2;True;30;1;48.03350883723092
504;504;1445942098;2.15463447571;0.7491605281829999;0.034576162695900005;2;True;30;1;48.03350883723092
505;505;1445942098;2.15458512306;0.7491528987880001;0.0345823392272;2;True;30;1;48.03350883723092
506;506;1445942098;2.15456223488;0.7491312623019999;0.034591965377300006;2;True;30;1;48.03350883723092
507;507;1445942098;2.15463399887;0.7491666674609999;0.0345781370997;2;True;30;1;48.03350883723092
508;508;1445942098;2.15447020531;0.7490842342380001;0.0346294827759;2;True;30;1;48.03350883723092
509;509;1445942098;2.1545910835299997;0.749165058136;0.0345715992153;2;True;30;1;48.03350883723092
510;510;1445942098;2.15457701683;0.749141693115;0.0345771461725;2;True;30;1;48.03350883723092
511;511;1445942098;2.1546459198;0.749141573906;0.0345681421459;2;True;30;1;48.03350883723092
512;512;1445942098;2.15459871292;0.749159097672;0.03456788510080001;2;True;30;1;48.03350883723092
513;513;1445942098;2.1545729637099997;0.7491321563719999;0.034581463784;2;True;30;1;48.03350883723092
514;514;1445942098;2.15461587906;0.749202251434;0.0345679819584;2;True;30;1;48.03350883723092
515;515;1445942098;2.15459322929;0.749153494835;0.0345684327185;2;True;30;1;48.03350883723092
516;516;1445942098;2.15458202362;0.7491393685340001;0.03457771986719999;2;True;30;1;48.03350883723092
517;517;1445942098;2.1546149253799998;0.74908053875;0.0345699265599;2;True;30;1;48.03350883723092
518;518;1445942098;2.15461945534;0.7492194175720001;0.034578070044499996;2;True;30;1;48.03350883723092
519;519;1445942098;2.15461707115;0.7491617798810001;0.0345609150827;2;True;30;1;48.03350883723092
520;520;1445942098;2.15460371971;0.749130785465;0.0345696546137;2;True;30;1;48.03350883723092
521;521;1445942098;2.15463399887;0.749165654182;0.0345642827451;2;True;30;1;48.03350883723092
522;522;1445942098;2.15453314781;0.749178409576;0.0345843955874;2;True;30;1;48.03350883723092
523;523;1445942098;2.1546087265000002;0.749118804932;0.034578315913699996;2;True;30;1;48.03350883723092
524;524;1445942098;2.15461921692;0.7491562962530001;0.0345704518259;2;True;30;1;48.03350883723092
525;525;1445942098;2.15454292297;0.7491221427920001;0.0345834903419;2;True;30;1;48.03350883723092
526;526;1445942098;2.15458750725;0.7491372823720001;0.0345703437924;2;True;30;1;48.03350883723092
527;527;1445942098;2.15464615822;0.749194324017;0.034571088850500004;2;True;30;1;48.03350883723092
528;528;1445942098;2.15457081795;0.749116063118;0.0345757976174;2;True;30;1;48.03350883723092
529;529;1445942098;2.1546568870500002;0.7491565346719999;0.034572321921599994;2;True;30;1;48.03350883723092
530;530;1445942098;2.15465402603;0.749146640301;0.03457693755630001;2;True;30;1;48.03350883723092
531;531;1445942099;2.15456724167;0.749095797539;0.0345868505538;3;True;30;1;48.03350883723092
532;532;1445942099;2.1546125412;0.749203622341;0.0345863886178;3;True;30;1;48.03350883723092
533;533;1445942099;2.1546220779400005;0.7491514682770001;0.034580871462800006;3;True;30;1;48.03350883723092
534;534;1445942099;2.15465664864;0.749135136604;0.034577932208800004;3;True;30;1;48.03350883723092
535;535;1445942099;2.15451049805;0.749113976955;0.0346311666071;3;True;30;1;48.03350883723092
536;536;1445942099;2.1546812057499998;0.749148488045;0.03457721322769999;3;True;30;1;48.03350883723092
537;537;1445942099;2.15460968018;0.749093353748;0.0345822870731;3;True;30;1;48.03350883723092
538;538;1445942099;2.1546056270599996;0.749103009701;0.0345837250352;3;True;30;1;48.03350883723092
539;539;1445942099;2.15460395813;0.749137341976;0.034591719508199996;3;True;30;1;48.03350883723092
540;540;1445942099;2.15462875366;0.749144375324;0.0345924422145;3;True;30;1;48.03350883723092
541;541;1445942099;2.1546742916099997;0.749189555645;0.0345896370709;3;True;30;1;48.03350883723092
542;542;1445942099;2.15468621254;0.749137818813;0.0345973894;3;True;30;1;48.03350883723092
543;543;1445942099;2.15462040901;0.7491034269329999;0.0346029736102;3;True;30;1;48.03350883723092
544;544;1445942099;2.15467977524;0.749141335487;0.0345967113972;3;True;30;1;48.03350883723092
545;545;1445942099;2.15465450287;0.7491796612739999;0.034605782479;3;True;30;1;48.03350883723092
546;546;1445942099;2.15456056595;0.7490388154979999;0.0346150547266;3;True;30;1;48.03350883723092
547;547;1445942099;2.15467453003;0.749139070511;0.0345992185175;3;True;30;1;48.03350883723092
548;548;1445942099;2.15462350845;0.749039828777;0.034599404782099996;3;True;30;1;48.03350883723092
549;549;1445942099;2.15464234352;0.749134778976;0.0346038229764;3;True;30;1;48.03350883723092
550;550;1445942099;2.1546649932900004;0.749197542667;0.0346080213785;3;True;30;1;48.03350883723092
551;551;1445942099;2.15461945534;0.7490881085400001;0.034592982381599996;3;True;30;1;48.03350883723092
552;552;1445942099;2.1545712947799998;0.749091267586;0.0346103124321;3;True;30;1;48.03350883723092
553;553;1445942099;2.15463805199;0.7491317391399999;0.0345864333212;3;True;30;1;48.03350883723092
554;554;1445942099;2.1546742916099997;0.7491419911380001;0.034595929086199996;3;True;30;1;48.03350883723092
555;555;1445942099;2.1545526981400003;0.7490876317020001;0.034613940864800005;3;True;30;1;48.03350883723092
556;556;1445942099;2.15462684631;0.749145925045;0.0345858670771;3;True;30;1;48.03350883723092
557;557;1445942099;2.1546149253799998;0.749105155468;0.0346035882831;3;True;30;1;48.03350883723092
558;558;1445942099;2.15466332436;0.7491928935050001;0.034596607088999996;3;True;30;1;48.03350883723092
559;559;1445942099;2.15467000008;0.749110996723;0.0345809981227;3;True;30;1;48.03350883723092
560;560;1445942099;2.15459942818;0.749106705189;0.0346004739404;3;True;30;1;48.03350883723092
561;561;1445942099;2.15467643738;0.749154031277;0.034592140466;3;True;30;1;48.03350883723092
562;562;1445942099;2.1546788215599997;0.749206900597;0.0345964208245;3;True;30;1;48.03350883723092
563;563;1445942099;2.1545586586;0.74906283617;0.034622613340599996;3;True;30;1;48.03350883723092
564;564;1445942099;2.15459036827;0.749107718468;0.0346135646105;3;True;30;1;48.03350883723092
565;565;1445942099;2.15462875366;0.749135375023;0.0346087515354;3;True;30;1;48.03350883723092
566;566;1445942099;2.15465092659;0.7491486668590001;0.0345990508795;3;True;30;1;48.03350883723092
567;567;1445942099;2.1545715332;0.749092280865;0.034600883722300003;3;True;30;1;48.03350883723092
568;568;1445942099;2.15466237068;0.7491371631620001;0.0346039012074;3;True;30;1;48.03350883723092
569;569;1445942099;2.15466427803;0.7492135763169999;0.0346091985703;3;True;30;1;48.03350883723092
570;570;1445942099;2.1545472145099995;0.749047398567;0.034628521651;3;True;30;1;48.03350883723092
571;571;1445942099;2.1546297073400003;0.749134004116;0.0346121154726;3;True;30;1;48.03350883723092
572;572;1445942099;2.15462064743;0.749089062214;0.0346121639013;3;True;30;1;48.03350883723092
573;573;1445942099;2.15467309952;0.749200344086;0.034619227051699994;3;True;30;1;48.03350883723092
574;574;1445942099;2.15461921692;0.7490422129629999;0.0346170961857;3;True;30;1;48.03350883723092
575;575;1445942099;2.1546313762700002;0.749086201191;0.0346042402089;3;True;30;1;48.03350883723092
576;576;1445942099;2.15463805199;0.749110639095;0.034613981843;3;True;30;1;48.03350883723092
577;577;1445942099;2.15465736389;0.7491346597669999;0.034613169729699994;3;True;30;1;48.03350883723092
578;578;1445942099;2.15463423729;0.7490686178210001;0.0346150510013;3;True;30;1;48.03350883723092
579;579;1445942099;2.15464091301;0.749107301235;0.034599959850300004;3;True;30;1;48.03350883723092
580;580;1445942099;2.15470314026;0.749132394791;0.0346060693264;3;True;30;1;48.03350883723092
581;581;1445942099;2.1546638011900003;0.749168336391;0.0346014872193;3;True;30;1;48.03350883723092
582;582;1445942099;2.1545894146;0.749102294445;0.034609708935;3;True;30;1;48.03350883723092
583;583;1445942099;2.1546733379400003;0.749128818512;0.0345903858542;3;True;30;1;48.03350883723092
584;584;1445942099;2.1546466350599998;0.7491367459299999;0.034591499716;3;True;30;1;48.03350883723092
585;585;1445942099;2.15463089943;0.749128699303;0.034584030509000004;3;True;30;1;48.03350883723092
586;586;1445942099;2.1545870304099997;0.749090492725;0.034607686102400004;3;True;30;1;48.03350883723092
587;587;1445942099;2.1545855999000003;0.749084532261;0.0345958545804;3;True;30;1;48.03350883723092
588;588;1445942099;2.1546568870500002;0.749121785164;0.0345828458667;3;True;30;1;48.03350883723092
589;589;1445942099;2.1545426845599995;0.749044656754;0.0346101000905;3;True;30;1;48.03350883723092
590;590;1445942099;2.1545956134799997;0.749090015888;0.0346038788557;3;True;30;1;48.03350883723092
591;591;1445942099;2.15465450287;0.749135315418;0.0345964990556;3;True;30;1;48.03350883723092
592;592;1445942099;2.1546857356999998;0.749130010605;0.034578509628800005;3;True;30;1;48.03350883723092
593;593;1445942099;2.15458011627;0.7490422129629999;0.0346024669707;3;True;30;1;48.03350883723092
594;594;1445942099;2.15463256836;0.749113917351;0.0345993600786;3;True;30;1;48.03350883723092
595;595;1445942099;2.15466570854;0.749193906784;0.0345889255404;3;True;30;1;48.03350883723092
596;596;1445942099;2.15465188026;0.749187469482;0.03459014743569999;3;True;30;1;48.03350883723092
597;597;1445942099;2.15467476845;0.749138891697;0.034583974629599994;3;True;30;1;48.03350883723092
598;598;1445942099;2.15459132195;0.7491087317470001;0.0345892235637;3;True;30;1;48.03350883723092
599;599;1445942099;2.15456700325;0.7490701079369999;0.034599941223900005;3;True;30;1;48.03350883723092
600;600;1445942099;2.1545915603599997;0.749120891094;0.0345925614238;3;True;30;1;48.03350883723092
601;601;1445942099;2.1545963287400003;0.7491156458849999;0.0345831401646;3;True;30;1;48.03350883723092
602;602;1445942099;2.15463900566;0.749137639999;0.0345860905945;3;True;30;1;48.03350883723092
603;603;1445942099;2.15459990501;0.7491149306300001;0.034577917307599994;3;True;30;1;48.03350883723092
604;604;1445942099;2.1546030044599997;0.7491785883900001;0.034599680453499995;3;True;30;1;48.03350883723092
605;605;1445942099;2.1546485424;0.7491602897640001;0.0346048660576;3;True;30;1;48.03350883723092
606;606;1445942099;2.15458202362;0.749077856541;0.034612193703699994;3;True;30;1;48.03350883723092
607;607;1445942099;2.15452075005;0.749073147774;0.034625280648500005;3;True;30;1;48.03350883723092
