;Unnamed: 0;header_stamp_secs;pose_position_x;pose_position_y;pose_position_z;seconds;drop_values;flight_number;label;dtw
0;0;1449491029;2.16318488121;0.789987206459;0.0689399540424;0;True;35;2;143.58578491210002
1;1;1449491029;2.16316270828;0.789888679981;0.06881780922410001;0;True;35;2;143.58578491210002
2;2;1449491029;2.16309118271;0.789976477623;0.0689349249005;0;True;35;2;143.58578491210002
3;3;1449491029;2.16288018227;0.7895539402959999;0.0693380460143;0;True;35;2;143.58578491210002
4;4;1449491029;2.16264677048;0.7896897196770001;0.0689679458737;0;True;35;2;143.58578491210002
5;5;1449491029;2.16315865517;0.789956510067;0.068936355412;0;True;35;2;143.58578491210002
6;6;1449491029;2.1628737449599997;0.7897129058840001;0.06891563534739999;0;True;35;2;143.58578491210002
7;7;1449491029;2.16301608086;0.78966653347;0.0696413442492;0;True;35;2;143.58578491210002
8;8;1449491029;2.16309690475;0.789993405342;0.06893765926360002;0;True;35;2;143.58578491210002
9;9;1449491029;2.1628720760299998;0.789850175381;0.0689244791865;0;True;35;2;143.58578491210002
10;10;1449491029;2.1627376079599996;0.7897376418109999;0.068887270987;0;True;35;2;143.58578491210002
11;11;1449491029;2.1630115509;0.7899633646009999;0.06894883513450001;0;True;35;2;143.58578491210002
12;12;1449491029;2.16298627853;0.7898759245870001;0.068939216435;0;True;35;2;143.58578491210002
13;13;1449491029;2.16290688515;0.789831280708;0.0689235180616;0;True;35;2;143.58578491210002
14;14;1449491029;2.16288852692;0.789840757847;0.06893520057199999;0;True;35;2;143.58578491210002
15;15;1449491029;2.1629407405900003;0.7895985841750001;0.06916404515499999;0;True;35;2;143.58578491210002
16;16;1449491029;2.16298079491;0.789876401424;0.06894254684449999;0;True;35;2;143.58578491210002
17;17;1449491029;2.1626522541;0.789591610432;0.069066055119;0;True;35;2;143.58578491210002
18;18;1449491029;2.1631662845599995;0.789977610111;0.06895724684;0;True;35;2;143.58578491210002
19;19;1449491029;2.1629884243;0.789861440659;0.0689482092857;0;True;35;2;143.58578491210002
20;20;1449491029;2.16273856163;0.789894878864;0.06920067220930001;0;True;35;2;143.58578491210002
21;21;1449491029;2.16250705719;0.79009693861;0.0687298625708;0;True;35;2;143.58578491210002
22;22;1449491029;2.16267848015;0.789926707745;0.06885329633949999;0;True;35;2;143.58578491210002
23;23;1449491029;2.16296219826;0.789889514446;0.0689624547958;0;True;35;2;143.58578491210002
24;24;1449491029;2.16306614876;0.789913952351;0.0689691975713;0;True;35;2;143.58578491210002
25;25;1449491029;2.1621730327599997;0.789531290531;0.06899108737710001;0;True;35;2;143.58578491210002
26;26;1449491029;2.1627521514900003;0.7894756197930001;0.06914617866280001;0;True;35;2;143.58578491210002
27;27;1449491029;2.1630051136;0.789859950542;0.0689708814025;0;True;35;2;143.58578491210002
28;28;1449491029;2.1626188755;0.790215075016;0.0688100531697;0;True;35;2;143.58578491210002
29;29;1449491029;2.16310620308;0.7899463176729999;0.0688869133592;0;True;35;2;143.58578491210002
30;30;1449491029;2.16227626801;0.789335489273;0.06884709000589999;0;True;35;2;143.58578491210002
31;31;1449491029;2.16293787956;0.7893533110619999;0.0691776573658;0;True;35;2;143.58578491210002
32;32;1449491029;2.1629545688599996;0.789921879768;0.0689499750733;0;True;35;2;143.58578491210002
33;33;1449491029;2.1631095409400003;0.789671182632;0.06894537806510001;0;True;35;2;143.58578491210002
34;34;1449491029;2.16290307045;0.789789557457;0.06906995177269999;0;True;35;2;143.58578491210002
35;35;1449491029;2.16313576698;0.7896488904950001;0.0693735256791;0;True;35;2;143.58578491210002
36;36;1449491029;2.16276931763;0.789831280708;0.06892537325619999;0;True;35;2;143.58578491210002
37;37;1449491029;2.16300320625;0.789849460125;0.068995192647;0;True;35;2;143.58578491210002
38;38;1449491029;2.16275858879;0.789745271206;0.0688755735755;0;True;35;2;143.58578491210002
39;39;1449491029;2.16261291504;0.7900794744490001;0.0687358230352;0;True;35;2;143.58578491210002
40;40;1449491029;2.16257166862;0.789826273918;0.0688786357641;0;True;35;2;143.58578491210002
41;41;1449491029;2.1623988151599995;0.7895622253419999;0.0690199434757;0;True;35;2;143.58578491210002
42;42;1449491029;2.16291642189;0.789905130863;0.0690485090017;0;True;35;2;143.58578491210002
43;43;1449491029;2.1623630523700004;0.789955794811;0.0688628852367;0;True;35;2;143.58578491210002
44;44;1449491029;2.16310477257;0.789915502071;0.06898899376389998;0;True;35;2;143.58578491210002
45;45;1449491029;2.16282439232;0.789943695068;0.0689911991358;0;True;35;2;143.58578491210002
46;46;1449491029;2.16270089149;0.789866983891;0.06887207925319999;0;True;35;2;143.58578491210002
47;47;1449491029;2.16230869293;0.7894704937929999;0.0693493336439;0;True;35;2;143.58578491210002
48;48;1449491029;2.16266584396;0.7898116707800001;0.0688621103764;0;True;35;2;143.58578491210002
49;49;1449491029;2.16309428215;0.7899362444879999;0.0689908191562;0;True;35;2;143.58578491210002
50;50;1449491029;2.16303539276;0.789600014687;0.0690465718508;0;True;35;2;143.58578491210002
51;51;1449491029;2.16288948059;0.789824604988;0.0689806640148;0;True;35;2;143.58578491210002
52;52;1449491029;2.16301608086;0.7895952463150001;0.0691295862198;0;True;35;2;143.58578491210002
53;53;1449491029;2.16274666786;0.789802610874;0.0691710934043;0;True;35;2;143.58578491210002
54;54;1449491029;2.16311693192;0.789572417736;0.06895384937520001;0;True;35;2;143.58578491210002
55;55;1449491029;2.16310214996;0.789934635162;0.0689619407058;0;True;35;2;143.58578491210002
56;56;1449491029;2.16315221786;0.7899665832520001;0.068989366293;0;True;35;2;143.58578491210002
57;57;1449491029;2.1627907753;0.789786934853;0.0690346881747;0;True;35;2;143.58578491210002
58;58;1449491029;2.1627335548400004;0.789917349815;0.0691498145461;0;True;35;2;143.58578491210002
59;59;1449491029;2.16311740875;0.7896859049799999;0.0689478591084;0;True;35;2;143.58578491210002
60;60;1449491029;2.16316843033;0.789956569672;0.0689852461219;0;True;35;2;143.58578491210002
61;61;1449491029;2.1626348495500003;0.7895219922069999;0.0690832212567;0;True;35;2;143.58578491210002
62;62;1449491029;2.1631000042;0.789549946785;0.0689184144139;0;True;35;2;143.58578491210002
63;63;1449491029;2.16317796707;0.7899217605589999;0.0689712017775;0;True;35;2;143.58578491210002
64;64;1449491029;2.16299986839;0.7898681163789999;0.0689730867743;0;True;35;2;143.58578491210002
65;65;1449491029;2.16236376762;0.790085494518;0.06844349205490001;0;True;35;2;143.58578491210002
66;66;1449491029;2.1629550457;0.7898319363590001;0.0689619407058;0;True;35;2;143.58578491210002
67;67;1449491029;2.16284513474;0.789842665195;0.06895624101160001;0;True;35;2;143.58578491210002
68;68;1449491029;2.16284132004;0.789889395237;0.0687963441014;0;True;35;2;143.58578491210002
69;69;1449491029;2.16304755211;0.7896407842640001;0.06936553865669999;0;True;35;2;143.58578491210002
70;70;1449491029;2.16300201416;0.789887487888;0.06896179914469999;0;True;35;2;143.58578491210002
71;71;1449491029;2.1628596782700003;0.789659738541;0.0689487308264;0;True;35;2;143.58578491210002
72;72;1449491029;2.16248488426;0.789736628532;0.06902536749839999;0;True;35;2;143.58578491210002
73;73;1449491029;2.16278672218;0.789870679379;0.06893540173769999;0;True;35;2;143.58578491210002
74;74;1449491029;2.16285300255;0.7898163795469999;0.0689440891147;0;True;35;2;143.58578491210002
75;75;1449491029;2.16301894188;0.7896494865420001;0.0690051838756;0;True;35;2;143.58578491210002
76;76;1449491029;2.16256713867;0.789843201637;0.0690747499466;0;True;35;2;143.58578491210002
77;77;1449491029;2.1624338626900004;0.789701402187;0.0691977962852;0;True;35;2;143.58578491210002
78;78;1449491029;2.16274595261;0.789925456047;0.0690317377448;0;True;35;2;143.58578491210002
79;79;1449491029;2.16300058365;0.789788246155;0.0689605027437;0;True;35;2;143.58578491210002
80;80;1449491029;2.16267251968;0.789720773697;0.06900344789030001;0;True;35;2;143.58578491210002
81;81;1449491029;2.16277766228;0.789765715599;0.0688852369785;0;True;35;2;143.58578491210002
82;82;1449491029;2.16301012039;0.789569795132;0.0689718350768;0;True;35;2;143.58578491210002
83;83;1449491029;2.1629846096;0.789853930473;0.0689330101013;0;True;35;2;143.58578491210002
84;84;1449491029;2.1631577014900003;0.789820849895;0.0688108503819;0;True;35;2;143.58578491210002
85;85;1449491029;2.16301751137;0.78995269537;0.06893137097360001;0;True;35;2;143.58578491210002
86;86;1449491029;2.16290211678;0.789765894413;0.0690077096224;0;True;35;2;143.58578491210002
87;87;1449491029;2.16292309761;0.7898660302159999;0.0689132660627;0;True;35;2;143.58578491210002
88;88;1449491029;2.16279745102;0.790137529373;0.06861713528630001;0;True;35;2;143.58578491210002
89;89;1449491029;2.16302537918;0.789889514446;0.0689372569323;0;True;35;2;143.58578491210002
90;90;1449491029;2.1630511283900002;0.789931893349;0.06893435120579999;0;True;35;2;143.58578491210002
91;91;1449491029;2.16290402412;0.7895313501360001;0.0692921057343;0;True;35;2;143.58578491210002
92;92;1449491029;2.16281485558;0.79003494978;0.06892767548560001;0;True;35;2;143.58578491210002
93;93;1449491029;2.16265702248;0.789794445038;0.0689178258181;0;True;35;2;143.58578491210002
94;94;1449491029;2.1629269123099997;0.789966523647;0.0689346566796;0;True;35;2;143.58578491210002
95;95;1449491029;2.16249966621;0.789817988873;0.06862536072730001;0;True;35;2;143.58578491210002
96;96;1449491029;2.16251420975;0.790048062801;0.0687429010868;0;True;35;2;143.58578491210002
97;97;1449491029;2.16301774979;0.7898088693619999;0.0691353678703;0;True;35;2;143.58578491210002
98;98;1449491029;2.1629586219799997;0.7898634076119999;0.06891076266769999;0;True;35;2;143.58578491210002
99;99;1449491029;2.16271662712;0.7897746562960001;0.068888515234;0;True;35;2;143.58578491210002
100;100;1449491029;2.16281294823;0.789720058441;0.0689378008246;0;True;35;2;143.58578491210002
101;101;1449491029;2.16328167915;0.790028452873;0.06931840628389999;0;True;35;2;143.58578491210002
102;102;1449491029;2.16275501251;0.7897197604180001;0.06902185082439999;0;True;35;2;143.58578491210002
103;103;1449491029;2.16282749176;0.78985863924;0.0691156834364;0;True;35;2;143.58578491210002
104;104;1449491029;2.16285943985;0.7898428440090001;0.0689617842436;0;True;35;2;143.58578491210002
105;105;1449491029;2.16273021698;0.789765715599;0.0688855573535;0;True;35;2;143.58578491210002
106;106;1449491029;2.16299128532;0.7898830175399999;0.0689276233315;0;True;35;2;143.58578491210002
107;107;1449491029;2.16292643547;0.7892430424690001;0.0689513087273;0;True;35;2;143.58578491210002
108;108;1449491029;2.16245222092;0.7893036603929999;0.06865640729669999;0;True;35;2;143.58578491210002
109;109;1449491029;2.16267943382;0.789603710175;0.0690153837204;0;True;35;2;143.58578491210002
110;110;1449491029;2.16295552254;0.789878606796;0.0689382106066;0;True;35;2;143.58578491210002
111;111;1449491029;2.16293382645;0.7898551225660001;0.0689016729593;0;True;35;2;143.58578491210002
112;112;1449491029;2.1629121303599996;0.7896788120270001;0.0690844878554;0;True;35;2;143.58578491210002
113;113;1449491029;2.1629011631;0.7898321747779999;0.06897391378880001;0;True;35;2;143.58578491210002
114;114;1449491029;2.16285252571;0.789717197418;0.06901998072860001;0;True;35;2;143.58578491210002
115;115;1449491029;2.16265130043;0.789661586285;0.0688442662358;0;True;35;2;143.58578491210002
116;116;1449491029;2.16225123405;0.7895184159280001;0.0691915899515;0;True;35;2;143.58578491210002
117;117;1449491029;2.1629660129499997;0.789877891541;0.068928681314;0;True;35;2;143.58578491210002
118;118;1449491029;2.1629819869999998;0.7894158363339999;0.069398522377;0;True;35;2;143.58578491210002
119;119;1449491029;2.16241908073;0.7896127700810001;0.0686814859509;0;True;35;2;143.58578491210002
120;120;1449491029;2.1630716323900003;0.790209531784;0.0690768733621;0;True;35;2;143.58578491210002
121;121;1449491029;2.1628336906400003;0.789980053902;0.0686042383313;0;True;35;2;143.58578491210002
122;122;1449491029;2.16275501251;0.7898238897319999;0.0690210685134;0;True;35;2;143.58578491210002
123;123;1449491029;2.16294264793;0.7893294692039999;0.069424547255;0;True;35;2;143.58578491210002
124;124;1449491029;2.16264247894;0.7898620963099999;0.0688611268997;0;True;35;2;143.58578491210002
125;125;1449491029;2.1630909442900004;0.789702773094;0.06889146566389999;0;True;35;2;143.58578491210002
126;126;1449491029;2.16284203529;0.7898440957070001;0.06891598552469999;0;True;35;2;143.58578491210002
127;127;1449491029;2.1621720790900003;0.789546191692;0.06897161901;0;True;35;2;143.58578491210002
128;128;1449491029;2.16301131248;0.7898538708689999;0.06894092261789998;0;True;35;2;143.58578491210002
129;129;1449491029;2.16296672821;0.789809644222;0.0690380483866;0;True;35;2;143.58578491210002
130;130;1449491029;2.16276311874;0.789948284626;0.0688869729638;0;True;35;2;143.58578491210002
131;131;1449491029;2.1626780033099995;0.7898544669149999;0.0688861310482;0;True;35;2;143.58578491210002
132;132;1449491029;2.16286349297;0.789922654629;0.0688701942563;0;True;35;2;143.58578491210002
133;133;1449491029;2.16234278679;0.7896870970730001;0.06885590404269999;0;True;35;2;143.58578491210002
134;134;1449491029;2.16292047501;0.789731860161;0.0689304918051;0;True;35;2;143.58578491210002
135;135;1449491029;2.16275000572;0.789782702923;0.0690707191825;0;True;35;2;143.58578491210002
136;136;1449491029;2.1628556251499997;0.78955757618;0.069113701582;0;True;35;2;143.58578491210002
137;137;1449491029;2.16312837601;0.789453148842;0.068882972002;0;True;35;2;143.58578491210002
138;138;1449491029;2.1622262001;0.7896503210070001;0.06864707916980001;0;True;35;2;143.58578491210002
139;139;1449491029;2.1625027656599998;0.7898285984990001;0.0691481605172;0;True;35;2;143.58578491210002
140;140;1449491029;2.16296863556;0.789926588535;0.0689618587494;0;True;35;2;143.58578491210002
141;141;1449491029;2.1626064777400003;0.789899706841;0.0689524337649;0;True;35;2;143.58578491210002
142;142;1449491029;2.1631026268;0.789908409119;0.0689566805959;0;True;35;2;143.58578491210002
143;143;1449491029;2.16283273697;0.7898401021960001;0.0689283832908;0;True;35;2;143.58578491210002
144;144;1449491029;2.1631245613099996;0.7896137237549999;0.06937909126280001;0;True;35;2;143.58578491210002
145;145;1449491029;2.16282272339;0.789774477482;0.0689465329051;0;True;35;2;143.58578491210002
146;146;1449491029;2.16271948814;0.789746463299;0.06928735971450001;0;True;35;2;143.58578491210002
147;147;1449491029;2.16303229332;0.789646744728;0.06926837563510001;0;True;35;2;143.58578491210002
148;148;1449491029;2.16282463074;0.7898175120350001;0.0689360201359;0;True;35;2;143.58578491210002
149;149;1449491029;2.16294193268;0.7900121212010001;0.068893417716;0;True;35;2;143.58578491210002
150;150;1449491029;2.16277551651;0.789665877819;0.0689448714256;0;True;35;2;143.58578491210002
151;151;1449491029;2.16285610199;0.7898333668709999;0.0689418017864;0;True;35;2;143.58578491210002
152;152;1449491029;2.16301083565;0.789523184299;0.0690459236503;0;True;35;2;143.58578491210002
153;153;1449491029;2.16300988197;0.7898073792460001;0.0689976885915;0;True;35;2;143.58578491210002
154;154;1449491029;2.16300606728;0.7897102236750001;0.06924828141929999;0;True;35;2;143.58578491210002
155;155;1449491030;2.16266107559;0.789624929428;0.06909215450289999;1;True;35;2;143.58578491210002
156;156;1449491030;2.16301751137;0.789879202843;0.06896549463269999;1;True;35;2;143.58578491210002
157;157;1449491030;2.1628823280300002;0.789717078209;0.0690253302455;1;True;35;2;143.58578491210002
158;158;1449491030;2.16311240196;0.789884150028;0.0689760297537;1;True;35;2;143.58578491210002
159;159;1449491030;2.16302108765;0.789866685867;0.06897965818639999;1;True;35;2;143.58578491210002
160;160;1449491030;2.16320443153;0.7899665832520001;0.06898552179339999;1;True;35;2;143.58578491210002
161;161;1449491030;2.16282653809;0.7897770404819999;0.0689579322934;1;True;35;2;143.58578491210002
162;162;1449491030;2.16226768494;0.78994590044;0.0686997845769;1;True;35;2;143.58578491210002
163;163;1449491030;2.16298270226;0.7897859811779999;0.0689667239785;1;True;35;2;143.58578491210002
164;164;1449491030;2.16282510757;0.789808034897;0.068960621953;1;True;35;2;143.58578491210002
165;165;1449491030;2.16301178932;0.789762675762;0.06894141435619999;1;True;35;2;143.58578491210002
166;166;1449491030;2.16289687157;0.7898368835449999;0.06896146386860001;1;True;35;2;143.58578491210002
167;167;1449491030;2.16306185722;0.7898700833319999;0.0689724907279;1;True;35;2;143.58578491210002
168;168;1449491030;2.16286540031;0.789850652218;0.0689663812518;1;True;35;2;143.58578491210002
169;169;1449491030;2.16302657127;0.789855480194;0.0689839199185;1;True;35;2;143.58578491210002
170;170;1449491030;2.1629345417;0.7898340821269999;0.06902866065499999;1;True;35;2;143.58578491210002
171;171;1449491030;2.1629967689500003;0.789639115334;0.069274507463;1;True;35;2;143.58578491210002
172;172;1449491030;2.16285920143;0.789817214012;0.0689688622952;1;True;35;2;143.58578491210002
173;173;1449491030;2.16307067871;0.789951682091;0.06897796690460001;1;True;35;2;143.58578491210002
174;174;1449491030;2.16316533089;0.789836645126;0.0689650326967;1;True;35;2;143.58578491210002
175;175;1449491030;2.1627292633099997;0.789692342281;0.0689526125789;1;True;35;2;143.58578491210002
176;176;1449491030;2.16308569908;0.789791285992;0.0689495801926;1;True;35;2;143.58578491210002
177;177;1449491030;2.1628513336200004;0.789808452129;0.0689649358392;1;True;35;2;143.58578491210002
178;178;1449491030;2.16262102127;0.789690971375;0.0689755007625;1;True;35;2;143.58578491210002
179;179;1449491030;2.1625349521599997;0.789679348469;0.0690434500575;1;True;35;2;143.58578491210002
180;180;1449491030;2.16313743591;0.79010784626;0.06898878514769999;1;True;35;2;143.58578491210002
181;181;1449491030;2.16261363029;0.789883077145;0.06887567788360001;1;True;35;2;143.58578491210002
182;182;1449491030;2.16318464279;0.789975345135;0.06897240132089999;1;True;35;2;143.58578491210002
183;183;1449491030;2.16284537315;0.789861798286;0.06894572824239999;1;True;35;2;143.58578491210002
184;184;1449491030;2.1631081104299996;0.78961622715;0.06892725080249999;1;True;35;2;143.58578491210002
185;185;1449491030;2.1628513336200004;0.78987121582;0.0689368769526;1;True;35;2;143.58578491210002
186;186;1449491030;2.16305041313;0.789659619331;0.0689486116171;1;True;35;2;143.58578491210002
187;187;1449491030;2.16304063797;0.7898705005650001;0.06894014030689999;1;True;35;2;143.58578491210002
188;188;1449491030;2.1626200676;0.7897776365279999;0.0688852667809;1;True;35;2;143.58578491210002
189;189;1449491030;2.16316199303;0.78975725174;0.06885425001380001;1;True;35;2;143.58578491210002
190;190;1449491030;2.1628949642200004;0.7896558046340001;0.0691819339991;1;True;35;2;143.58578491210002
191;191;1449491030;2.16228485107;0.790050148964;0.068488843739;1;True;35;2;143.58578491210002
192;192;1449491030;2.1628844738;0.7897855639460001;0.06925299018619999;1;True;35;2;143.58578491210002
193;193;1449491030;2.1627700328799997;0.789679825306;0.0690228641033;1;True;35;2;143.58578491210002
194;194;1449491030;2.16296958923;0.7898626923559999;0.06892271339889999;1;True;35;2;143.58578491210002
195;195;1449491030;2.16304755211;0.78984862566;0.0689481124282;1;True;35;2;143.58578491210002
196;196;1449491030;2.16299891472;0.7898135185240001;0.0689320489764;1;True;35;2;143.58578491210002
197;197;1449491030;2.1629061698900003;0.789572119713;0.0692417174578;1;True;35;2;143.58578491210002
198;198;1449491030;2.16323542595;0.789488434792;0.0695141851902;1;True;35;2;143.58578491210002
199;199;1449491030;2.16244864464;0.789839982986;0.0687180012465;1;True;35;2;143.58578491210002
200;200;1449491030;2.16292476654;0.789830982685;0.06890834867949999;1;True;35;2;143.58578491210002
201;201;1449491030;2.16283035278;0.789879500866;0.0689070299268;1;True;35;2;143.58578491210002
202;202;1449491030;2.1631200313599996;0.789766490459;0.0688650384545;1;True;35;2;143.58578491210002
203;203;1449491030;2.16279459;0.789885044098;0.06889295578;1;True;35;2;143.58578491210002
204;204;1449491030;2.1629564762099998;0.789844870567;0.0689387023449;1;True;35;2;143.58578491210002
205;205;1449491030;2.1630995273599996;0.789788782597;0.06893949210639999;1;True;35;2;143.58578491210002
206;206;1449491030;2.16302371025;0.789673507214;0.0689783170819;1;True;35;2;143.58578491210002
207;207;1449491030;2.16308927536;0.789592325687;0.0688715577126;1;True;35;2;143.58578491210002
208;208;1449491030;2.1628003120400003;0.789771020412;0.0689629614353;1;True;35;2;143.58578491210002
209;209;1449491030;2.16258311272;0.789667665958;0.0689761415124;1;True;35;2;143.58578491210002
210;210;1449491030;2.1631717681900002;0.7899708747859999;0.0689404830337;1;True;35;2;143.58578491210002
211;211;1449491030;2.16297721863;0.789848566055;0.06893327832219999;1;True;35;2;143.58578491210002
212;212;1449491030;2.1631867885599996;0.7899978160860001;0.06894610822200001;1;True;35;2;143.58578491210002
213;213;1449491030;2.16279292107;0.790044426918;0.0689475536346;1;True;35;2;143.58578491210002
214;214;1449491030;2.16281294823;0.7895906567569999;0.06895630061630001;1;True;35;2;143.58578491210002
215;215;1449491030;2.16318941116;0.789962232113;0.0689406469464;1;True;35;2;143.58578491210002
216;216;1449491030;2.1629545688599996;0.789928436279;0.0689819976687;1;True;35;2;143.58578491210002
217;217;1449491030;2.16292023659;0.7898702025409999;0.0689282268286;1;True;35;2;143.58578491210002
218;218;1449491030;2.1628477573400002;0.7898101806640001;0.0688737928867;1;True;35;2;143.58578491210002
219;219;1449491030;2.16301178932;0.789496541023;0.0694660022855;1;True;35;2;143.58578491210002
220;220;1449491030;2.1629345417;0.7899644970890001;0.06884598731989999;1;True;35;2;143.58578491210002
221;221;1449491030;2.16255450249;0.789972424507;0.0689292401075;1;True;35;2;143.58578491210002
222;222;1449491030;2.16259169579;0.789800286293;0.0688990131021;1;True;35;2;143.58578491210002
223;223;1449491030;2.1630511283900002;0.78987634182;0.0690079778433;1;True;35;2;143.58578491210002
224;224;1449491030;2.16249251366;0.789317727089;0.0688427612185;1;True;35;2;143.58578491210002
225;225;1449491030;2.1630373001099996;0.7898759245870001;0.0689576566219;1;True;35;2;143.58578491210002
226;226;1449491030;2.16271829605;0.789714694023;0.06934236735110001;1;True;35;2;143.58578491210002
227;227;1449491030;2.16293859482;0.789861798286;0.06892798841;1;True;35;2;143.58578491210002
228;228;1449491030;2.16284608841;0.7898736000059999;0.0689695551991;1;True;35;2;143.58578491210002
229;229;1449491030;2.1628234386400003;0.789722919464;0.0689851492643;1;True;35;2;143.58578491210002
230;230;1449491030;2.1624104976700003;0.7894199490549999;0.0686717629433;1;True;35;2;143.58578491210002
231;231;1449491030;2.16296076775;0.7898572087289999;0.068931274116;1;True;35;2;143.58578491210002
232;232;1449491030;2.16300201416;0.789887189865;0.0689169093966;1;True;35;2;143.58578491210002
233;233;1449491030;2.1630053520200003;0.789680540562;0.0691111758351;1;True;35;2;143.58578491210002
234;234;1449491030;2.16265058517;0.7897033095360001;0.06901880353689999;1;True;35;2;143.58578491210002
235;235;1449491030;2.16285061836;0.789973795414;0.06894462555650001;1;True;35;2;143.58578491210002
236;236;1449491030;2.1625325679799996;0.790268540382;0.068574488163;1;True;35;2;143.58578491210002
237;237;1449491030;2.1629395484900003;0.789865255356;0.0689087659121;1;True;35;2;143.58578491210002
238;238;1449491030;2.16315793991;0.789961695671;0.06893856823439999;1;True;35;2;143.58578491210002
239;239;1449491030;2.16280674934;0.789968907833;0.06860783696169999;1;True;35;2;143.58578491210002
240;240;1449491030;2.16285443306;0.789920032024;0.06888975203039999;1;True;35;2;143.58578491210002
241;241;1449491030;2.16300272942;0.7900312542919999;0.06891406327489999;1;True;35;2;143.58578491210002
242;242;1449491030;2.1629819869999998;0.7896217703820001;0.0689430087805;1;True;35;2;143.58578491210002
243;243;1449491030;2.16313672066;0.789987325668;0.0689578205347;1;True;35;2;143.58578491210002
244;244;1449491030;2.16289687157;0.789850533009;0.0689063966274;1;True;35;2;143.58578491210002
245;245;1449491030;2.1630096435499997;0.789866745472;0.0689300000668;1;True;35;2;143.58578491210002
246;246;1449491030;2.16316533089;0.789981365204;0.0689636170864;1;True;35;2;143.58578491210002
247;247;1449491030;2.1625225544;0.790135383606;0.0684033855796;1;True;35;2;143.58578491210002
248;248;1449491030;2.16264152527;0.790115118027;0.06854434311390001;1;True;35;2;143.58578491210002
249;249;1449491030;2.16269278526;0.789925992489;0.06897247582669999;1;True;35;2;143.58578491210002
250;250;1449491030;2.1626510620099997;0.789762198925;0.0689422860742;1;True;35;2;143.58578491210002
251;251;1449491030;2.16310238838;0.7899420857430001;0.0689454525709;1;True;35;2;143.58578491210002
252;252;1449491030;2.16311359406;0.7896762490270001;0.0689186453819;1;True;35;2;143.58578491210002
253;253;1449491030;2.1621348857900005;0.789526462555;0.06906955689189999;1;True;35;2;143.58578491210002
254;254;1449491030;2.1629638671900002;0.7897456288339999;0.06896550953389999;1;True;35;2;143.58578491210002
255;255;1449491030;2.16270136833;0.789657473564;0.0690101012588;1;True;35;2;143.58578491210002
256;256;1449491030;2.16257786751;0.789834976196;0.068890415132;1;True;35;2;143.58578491210002
257;257;1449491030;2.1625452041599997;0.7896605730060001;0.06896750628949999;1;True;35;2;143.58578491210002
258;258;1449491030;2.16279053688;0.789886891842;0.0689236596227;1;True;35;2;143.58578491210002
259;259;1449491030;2.16299891472;0.7897943854330001;0.0689734518528;1;True;35;2;143.58578491210002
260;260;1449491030;2.1632158756299997;0.7899590730670001;0.06899490207430001;1;True;35;2;143.58578491210002
261;261;1449491030;2.16286158562;0.790002644062;0.0689812451601;1;True;35;2;143.58578491210002
262;262;1449491030;2.16299033165;0.7898544073100001;0.0690058097243;1;True;35;2;143.58578491210002
263;263;1449491030;2.16309022903;0.789926111698;0.0689893066883;1;True;35;2;143.58578491210002
264;264;1449491030;2.16299986839;0.7898578047750001;0.068978972733;1;True;35;2;143.58578491210002
265;265;1449491030;2.1628262996700003;0.7898285984990001;0.0691273733974;1;True;35;2;143.58578491210002
266;266;1449491030;2.16312670708;0.789959549904;0.06900277733799999;1;True;35;2;143.58578491210002
267;267;1449491030;2.16304779053;0.789885938168;0.0689733475447;1;True;35;2;143.58578491210002
268;268;1449491030;2.16303038597;0.7898796200749999;0.0689756795764;1;True;35;2;143.58578491210002
269;269;1449491030;2.16297674179;0.789921343327;0.0690173730254;1;True;35;2;143.58578491210002
270;270;1449491030;2.1628789901700003;0.7898585796359999;0.06897727400060001;1;True;35;2;143.58578491210002
271;271;1449491030;2.1628143787400003;0.7898461222650001;0.06917091459039999;1;True;35;2;143.58578491210002
272;272;1449491030;2.16294407845;0.7897314429279999;0.0689853280783;1;True;35;2;143.58578491210002
273;273;1449491030;2.16293978691;0.789878070354;0.06900878995660001;1;True;35;2;143.58578491210002
274;274;1449491030;2.1628165245099997;0.790021836758;0.0687846615911;1;True;35;2;143.58578491210002
275;275;1449491030;2.16290354729;0.789842188358;0.06897727400060001;1;True;35;2;143.58578491210002
276;276;1449491030;2.16299152374;0.7898571491240001;0.06899189203980001;1;True;35;2;143.58578491210002
277;277;1449491030;2.16314816475;0.7899389266969999;0.0688880681992;1;True;35;2;143.58578491210002
278;278;1449491030;2.1629652977;0.789737224579;0.06897836923600001;1;True;35;2;143.58578491210002
279;279;1449491030;2.16310048103;0.789575994015;0.0690984204412;1;True;35;2;143.58578491210002
280;280;1449491030;2.16295909882;0.790029346943;0.0689163506031;1;True;35;2;143.58578491210002
281;281;1449491030;2.16287565231;0.789713203907;0.0690589025617;1;True;35;2;143.58578491210002
282;282;1449491030;2.1631305217700003;0.789526045322;0.06895979493860001;1;True;35;2;143.58578491210002
283;283;1449491030;2.1629836559299997;0.7898114919660001;0.0689961612225;1;True;35;2;143.58578491210002
284;284;1449491030;2.1626625061;0.7893342971799999;0.06919557601210001;1;True;35;2;143.58578491210002
285;285;1449491030;2.1629936695099996;0.78974121809;0.0689939558506;1;True;35;2;143.58578491210002
286;286;1449491030;2.16286206245;0.789616942406;0.0690228268504;1;True;35;2;143.58578491210002
287;287;1449491030;2.16298246384;0.790015816689;0.06898775696750001;1;True;35;2;143.58578491210002
288;288;1449491030;2.16276502609;0.789875864983;0.06895181536669999;1;True;35;2;143.58578491210002
289;289;1449491030;2.16319704056;0.789972901344;0.06900400668380001;1;True;35;2;143.58578491210002
290;290;1449491030;2.1626839637799997;0.7895285487170001;0.06917826831339999;1;True;35;2;143.58578491210002
291;291;1449491030;2.16300320625;0.789865612984;0.0689963698387;1;True;35;2;143.58578491210002
292;292;1449491030;2.1626257896400003;0.789863467216;0.0689945966005;1;True;35;2;143.58578491210002
293;293;1449491030;2.16295814514;0.7899374365809999;0.06895539164539999;1;True;35;2;143.58578491210002
294;294;1449491030;2.1628432273900002;0.7899403572079999;0.06916203349830001;1;True;35;2;143.58578491210002
295;295;1449491030;2.16295266151;0.7897586226459999;0.0689870193601;1;True;35;2;143.58578491210002
296;296;1449491030;2.1629381179799996;0.789885342121;0.0690152719617;1;True;35;2;143.58578491210002
297;297;1449491030;2.1624677181200003;0.789943814278;0.0690736547112;1;True;35;2;143.58578491210002
298;298;1449491030;2.16246700287;0.789702832699;0.06917189061639999;1;True;35;2;143.58578491210002
299;299;1449491030;2.1630730629;0.789955377579;0.06894467026000001;1;True;35;2;143.58578491210002
300;300;1449491030;2.16303896904;0.789616703987;0.06901833415030001;1;True;35;2;143.58578491210002
301;301;1449491030;2.16287541389;0.789758145809;0.0689866617322;1;True;35;2;143.58578491210002
302;302;1449491030;2.1628537178;0.789490461349;0.0692325085402;1;True;35;2;143.58578491210002
303;303;1449491030;2.1626701355;0.789540171623;0.0693285018206;1;True;35;2;143.58578491210002
304;304;1449491030;2.16288280487;0.789988815784;0.0689704194665;1;True;35;2;143.58578491210002
305;305;1449491030;2.16288661957;0.7900087833399999;0.0689214915037;1;True;35;2;143.58578491210002
306;306;1449491030;2.16282200813;0.789774477482;0.0689333602786;1;True;35;2;143.58578491210002
307;307;1449491030;2.16316509247;0.789866685867;0.0689540654421;1;True;35;2;143.58578491210002
308;308;1449491030;2.16261506081;0.790096402168;0.0687849596143;1;True;35;2;143.58578491210002
309;309;1449491030;2.16297340393;0.7898752093320001;0.0689641982317;1;True;35;2;143.58578491210002
310;310;1449491030;2.16295218468;0.789816617966;0.0689238980412;1;True;35;2;143.58578491210002
311;311;1449491030;2.16282320023;0.789943158627;0.0689236968756;1;True;35;2;143.58578491210002
312;312;1449491030;2.16299009323;0.789838254452;0.0689461752772;1;True;35;2;143.58578491210002
313;313;1449491030;2.16298222542;0.789845228195;0.0689326375723;1;True;35;2;143.58578491210002
314;314;1449491030;2.16274023056;0.7897862792020001;0.06907238811250001;1;True;35;2;143.58578491210002
315;315;1449491030;2.16297221184;0.78964215517;0.0690162777901;1;True;35;2;143.58578491210002
316;316;1449491030;2.1629173755599997;0.78984349966;0.0689761042595;1;True;35;2;143.58578491210002
317;317;1449491030;2.16297721863;0.7898336052889999;0.06893900036810001;1;True;35;2;143.58578491210002
318;318;1449491030;2.1632754802700003;0.789304256439;0.069555208087;1;True;35;2;143.58578491210002
319;319;1449491030;2.1630256176;0.789600789547;0.0690010413527;1;True;35;2;143.58578491210002
320;320;1449491030;2.16288495064;0.789708375931;0.0689874887466;1;True;35;2;143.58578491210002
321;321;1449491030;2.16316008568;0.789971709251;0.0689404010773;1;True;35;2;143.58578491210002
322;322;1449491030;2.16312050819;0.78998041153;0.0689425244927;1;True;35;2;143.58578491210002
323;323;1449491030;2.1628651619;0.789903700352;0.068872012198;1;True;35;2;143.58578491210002
324;324;1449491030;2.16288018227;0.789805710316;0.0689113512635;1;True;35;2;143.58578491210002
325;325;1449491030;2.16293859482;0.789990484715;0.0689617320895;1;True;35;2;143.58578491210002
326;326;1449491030;2.16286563873;0.789809048176;0.0689241886139;1;True;35;2;143.58578491210002
327;327;1449491030;2.16271734238;0.789929926395;0.0688996762037;1;True;35;2;143.58578491210002
328;328;1449491030;2.16212177277;0.789546787739;0.0688763931394;1;True;35;2;143.58578491210002
329;329;1449491030;2.1627607345599995;0.789711892605;0.0688182488084;1;True;35;2;143.58578491210002
330;330;1449491030;2.1628143787400003;0.789702475071;0.0690566524863;1;True;35;2;143.58578491210002
331;331;1449491030;2.16294670105;0.789777517319;0.0689574107528;1;True;35;2;143.58578491210002
332;332;1449491030;2.16290783882;0.7898771166799999;0.0689851716161;1;True;35;2;143.58578491210002
333;333;1449491030;2.16316699982;0.789993643761;0.0689390748739;1;True;35;2;143.58578491210002
334;334;1449491030;2.16292977333;0.789680957794;0.0690843611956;1;True;35;2;143.58578491210002
335;335;1449491030;2.16292238235;0.789898276329;0.0693165883422;1;True;35;2;143.58578491210002
336;336;1449491030;2.1628439426400003;0.789700865746;0.06910384446380001;1;True;35;2;143.58578491210002
337;337;1449491030;2.16295742989;0.7899534702300001;0.0689252838492;1;True;35;2;143.58578491210002
338;338;1449491030;2.16300797462;0.789683461189;0.0689930692315;1;True;35;2;143.58578491210002
339;339;1449491030;2.1629343032799997;0.7898285984990001;0.06892669200899999;1;True;35;2;143.58578491210002
340;340;1449491030;2.16304206848;0.789683997631;0.0689867660403;1;True;35;2;143.58578491210002
341;341;1449491030;2.1631002426099997;0.7897812724109999;0.0689421519637;1;True;35;2;143.58578491210002
342;342;1449491030;2.16286277771;0.789759099483;0.068814471364;1;True;35;2;143.58578491210002
343;343;1449491030;2.16287183762;0.789879083633;0.0689293667674;1;True;35;2;143.58578491210002
344;344;1449491030;2.16300702095;0.7896869182590001;0.06897293031219999;1;True;35;2;143.58578491210002
345;345;1449491030;2.16301345825;0.7896423935889999;0.06900243461130001;1;True;35;2;143.58578491210002
346;346;1449491030;2.16309165955;0.7897544503210001;0.06890994310380001;1;True;35;2;143.58578491210002
347;347;1449491030;2.1625020504;0.789855241776;0.0688259452581;1;True;35;2;143.58578491210002
348;348;1449491030;2.16305375099;0.789701879025;0.0689580962062;1;True;35;2;143.58578491210002
349;349;1449491030;2.1630418300599996;0.789956629276;0.0689653903246;1;True;35;2;143.58578491210002
350;350;1449491030;2.1629819869999998;0.789661288261;0.0689919292927;1;True;35;2;143.58578491210002
351;351;1449491030;2.1626996994;0.78961789608;0.06903526932;1;True;35;2;143.58578491210002
352;352;1449491030;2.16318035126;0.789973914623;0.06896108388899999;1;True;35;2;143.58578491210002
353;353;1449491030;2.16277909279;0.789777934551;0.0690374299884;1;True;35;2;143.58578491210002
354;354;1449491030;2.16310787201;0.789619207382;0.068878851831;1;True;35;2;143.58578491210002
355;355;1449491030;2.1626183986700003;0.789522171021;0.0690477490425;1;True;35;2;143.58578491210002
356;356;1449491030;2.16267180443;0.7898631095890001;0.06886344403030001;1;True;35;2;143.58578491210002
357;357;1449491030;2.16304278374;0.789938271046;0.0689470618963;1;True;35;2;143.58578491210002
358;358;1449491030;2.1627423763299998;0.789812028408;0.06889273226260001;1;True;35;2;143.58578491210002
359;359;1449491030;2.16272306442;0.789579808712;0.06920410692689999;1;True;35;2;143.58578491210002
360;360;1449491030;2.16305351257;0.789907157421;0.0692036151886;1;True;35;2;143.58578491210002
361;361;1449491030;2.16264104843;0.7895753383640001;0.0691869854927;1;True;35;2;143.58578491210002
362;362;1449491030;2.16316533089;0.789816021919;0.0688759982586;1;True;35;2;143.58578491210002
363;363;1449491030;2.1622936725599997;0.789594531059;0.0687828958035;1;True;35;2;143.58578491210002
364;364;1449491030;2.16245603561;0.7895156145100001;0.0690401792526;1;True;35;2;143.58578491210002
365;365;1449491030;2.16317558289;0.7900007963179999;0.0689694061875;1;True;35;2;143.58578491210002
366;366;1449491030;2.16265940666;0.789865016937;0.0687988176942;1;True;35;2;143.58578491210002
367;367;1449491030;2.1624610424;0.789541780949;0.0691602230072;1;True;35;2;143.58578491210002
368;368;1449491030;2.1630096435499997;0.7896462082860001;0.0690063685179;1;True;35;2;143.58578491210002
369;369;1449491030;2.16309499741;0.789564013481;0.0689114183187;1;True;35;2;143.58578491210002
370;370;1449491030;2.16307115555;0.789637804031;0.06899526715280001;1;True;35;2;143.58578491210002
371;371;1449491030;2.16298723221;0.789672315121;0.0689932629466;1;True;35;2;143.58578491210002
372;372;1449491030;2.16295480728;0.789915323257;0.0689460411668;1;True;35;2;143.58578491210002
373;373;1449491030;2.16289544106;0.789840757847;0.06893774867060001;1;True;35;2;143.58578491210002
374;374;1449491030;2.1627864837599997;0.789785087109;0.0689537078142;1;True;35;2;143.58578491210002
375;375;1449491030;2.1629228591900005;0.789734601974;0.06907039135689999;1;True;35;2;143.58578491210002
376;376;1449491030;2.1628403663599998;0.789731383324;0.0691345185041;1;True;35;2;143.58578491210002
377;377;1449491030;2.16296863556;0.7898402810100001;0.0689582005143;1;True;35;2;143.58578491210002
378;378;1449491030;2.16252636909;0.7895296216009999;0.06899896264080001;1;True;35;2;143.58578491210002
379;379;1449491030;2.1628236770599996;0.7897251248360001;0.0689534619451;1;True;35;2;143.58578491210002
380;380;1449491030;2.16287517548;0.789744257927;0.06898531317710001;1;True;35;2;143.58578491210002
381;381;1449491030;2.1629757881200002;0.789849579334;0.0689598545432;1;True;35;2;143.58578491210002
382;382;1449491030;2.16272544861;0.789599776268;0.0689943879843;1;True;35;2;143.58578491210002
383;383;1449491030;2.16303944588;0.78985875845;0.0689624547958;1;True;35;2;143.58578491210002
384;384;1449491030;2.16260957718;0.789636313915;0.06901797652239999;1;True;35;2;143.58578491210002
385;385;1449491030;2.1630604267099995;0.7896111607549999;0.0695627629757;1;True;35;2;143.58578491210002
386;386;1449491030;2.16297340393;0.789877355099;0.0689565986395;1;True;35;2;143.58578491210002
387;387;1449491030;2.16280078888;0.789855957031;0.068944811821;1;True;35;2;143.58578491210002
388;388;1449491030;2.16300630569;0.789856731892;0.06897046417000001;1;True;35;2;143.58578491210002
389;389;1449491030;2.16260099411;0.79002815485;0.0684015154839;1;True;35;2;143.58578491210002
390;390;1449491030;2.16282200813;0.789817631245;0.0689479708672;1;True;35;2;143.58578491210002
391;391;1449491030;2.16295266151;0.7898805141449999;0.06895072758200001;1;True;35;2;143.58578491210002
392;392;1449491030;2.16294550896;0.7897258400920001;0.0691418275237;1;True;35;2;143.58578491210002
393;393;1449491030;2.16273403168;0.789492726326;0.0693215280771;1;True;35;2;143.58578491210002
394;394;1449491031;2.16255831718;0.789936363697;0.0689787566662;2;True;35;2;143.58578491210002
395;395;1449491031;2.16282725334;0.7898110747339999;0.0689473226666;2;True;35;2;143.58578491210002
396;396;1449491031;2.1626868247999997;0.7897749543189999;0.06897985190150001;2;True;35;2;143.58578491210002
397;397;1449491031;2.1628935337099997;0.7898998260500001;0.06894715875389999;2;True;35;2;143.58578491210002
398;398;1449491031;2.16289758682;0.7898368835449999;0.0689604133368;2;True;35;2;143.58578491210002
399;399;1449491031;2.16255116463;0.789866566658;0.0689482241869;2;True;35;2;143.58578491210002
400;400;1449491031;2.1628601551099997;0.789849579334;0.0689486041665;2;True;35;2;143.58578491210002
401;401;1449491031;2.16312193871;0.7899665832520001;0.068972915411;2;True;35;2;143.58578491210002
402;402;1449491031;2.16290426254;0.789983272552;0.0689753293991;2;True;35;2;143.58578491210002
403;403;1449491031;2.16255736351;0.789644420147;0.069000415504;2;True;35;2;143.58578491210002
404;404;1449491031;2.16296434402;0.790115535259;0.0691371262074;2;True;35;2;143.58578491210002
405;405;1449491031;2.16320037842;0.7899604439740001;0.0689837783575;2;True;35;2;143.58578491210002
406;406;1449491031;2.1629281044;0.789587020874;0.0689774230123;2;True;35;2;143.58578491210002
407;407;1449491031;2.16270875931;0.789843142033;0.0689182803035;2;True;35;2;143.58578491210002
408;408;1449491031;2.16235780716;0.7899733781810001;0.068819001317;2;True;35;2;143.58578491210002
409;409;1449491031;2.1628692150099997;0.789625704288;0.0691813006997;2;True;35;2;143.58578491210002
410;410;1449491031;2.16275119781;0.789694190025;0.0690406709909;2;True;35;2;143.58578491210002
411;411;1449491031;2.162504673;0.78982925415;0.0688120275736;2;True;35;2;143.58578491210002
412;412;1449491031;2.1624228954299998;0.7896538972849999;0.06909611821169999;2;True;35;2;143.58578491210002
413;413;1449491031;2.1627702713;0.7896782159810001;0.0690615773201;2;True;35;2;143.58578491210002
414;414;1449491031;2.16264915466;0.7898954153059999;0.0689879953861;2;True;35;2;143.58578491210002
415;415;1449491031;2.1626760959599998;0.7900898456569999;0.06896141916510001;2;True;35;2;143.58578491210002
416;416;1449491031;2.1622352600099997;0.789702296257;0.0687939301133;2;True;35;2;143.58578491210002
417;417;1449491031;2.1629400253299997;0.789972186089;0.06896480917930001;2;True;35;2;143.58578491210002
418;418;1449491031;2.1628670692400003;0.789813160896;0.0689485445619;2;True;35;2;143.58578491210002
419;419;1449491031;2.1630272865299998;0.789861440659;0.0689634755254;2;True;35;2;143.58578491210002
420;420;1449491031;2.16254925728;0.789200603962;0.0692808628082;2;True;35;2;143.58578491210002
421;421;1449491031;2.1629128456099997;0.789695441723;0.06939948350189999;2;True;35;2;143.58578491210002
422;422;1449491031;2.16277432442;0.789750218391;0.068955026567;2;True;35;2;143.58578491210002
423;423;1449491031;2.1628625392900003;0.789899647236;0.0689107254148;2;True;35;2;143.58578491210002
424;424;1449491031;2.16285419464;0.789973795414;0.0689055249095;2;True;35;2;143.58578491210002
425;425;1449491031;2.16310834885;0.7896578311920001;0.0690027549863;2;True;35;2;143.58578491210002
426;426;1449491031;2.1629741191900003;0.7900447249410001;0.0690459311008;2;True;35;2;143.58578491210002
427;427;1449491031;2.1629652977;0.7899136543269999;0.06897970288989999;2;True;35;2;143.58578491210002
428;428;1449491031;2.1627967357599998;0.789954602718;0.06903512030839999;2;True;35;2;143.58578491210002
429;429;1449491031;2.16284966469;0.7897930741310001;0.0689489170909;2;True;35;2;143.58578491210002
430;430;1449491031;2.16299748421;0.789819538593;0.0689779818058;2;True;35;2;143.58578491210002
431;431;1449491031;2.16269731522;0.789743423462;0.0689318478107;2;True;35;2;143.58578491210002
432;432;1449491031;2.16297483444;0.7899035215379999;0.06895153224469999;2;True;35;2;143.58578491210002
433;433;1449491031;2.16259288788;0.789838373661;0.06896941363810001;2;True;35;2;143.58578491210002
434;434;1449491031;2.16319894791;0.789981007576;0.0689840912819;2;True;35;2;143.58578491210002
435;435;1449491031;2.16294693947;0.789892196655;0.06897427886719999;2;True;35;2;143.58578491210002
436;436;1449491031;2.16272449493;0.7897993326189999;0.068959839642;2;True;35;2;143.58578491210002
437;437;1449491031;2.1631977558099997;0.789981424809;0.06895927339789999;2;True;35;2;143.58578491210002
438;438;1449491031;2.16300606728;0.7898914217949999;0.0689867213368;2;True;35;2;143.58578491210002
439;439;1449491031;2.1631751060499997;0.7896946072579999;0.06918165832760001;2;True;35;2;143.58578491210002
440;440;1449491031;2.16268730164;0.789725780487;0.0690669044852;2;True;35;2;143.58578491210002
441;441;1449491031;2.1628580093400003;0.789722084999;0.069009333849;2;True;35;2;143.58578491210002
442;442;1449491031;2.1628599166900004;0.789853453636;0.0689585208893;2;True;35;2;143.58578491210002
443;443;1449491031;2.16299128532;0.789604604244;0.069011375308;2;True;35;2;143.58578491210002
444;444;1449491031;2.16286349297;0.789897859097;0.0689457505941;2;True;35;2;143.58578491210002
445;445;1449491031;2.16282916069;0.789752304554;0.06909911334510001;2;True;35;2;143.58578491210002
446;446;1449491031;2.1627805233;0.789778470993;0.0689445063472;2;True;35;2;143.58578491210002
447;447;1449491031;2.16235923767;0.790064752102;0.06878256797789999;2;True;35;2;143.58578491210002
448;448;1449491031;2.1631014347099997;0.789603173733;0.06886085867880001;2;True;35;2;143.58578491210002
449;449;1449491031;2.16264200211;0.7895720601080001;0.0689134523273;2;True;35;2;143.58578491210002
450;450;1449491031;2.1628036499000003;0.78991240263;0.06888372451069999;2;True;35;2;143.58578491210002
451;451;1449491031;2.16233348846;0.790072381496;0.0687676742673;2;True;35;2;143.58578491210002
452;452;1449491031;2.16276478767;0.78979241848;0.0691841393709;2;True;35;2;143.58578491210002
453;453;1449491031;2.1627264022799997;0.790026783943;0.0687847733498;2;True;35;2;143.58578491210002
454;454;1449491031;2.16280794144;0.789996147156;0.0689908415079;2;True;35;2;143.58578491210002
455;455;1449491031;2.16277647018;0.7896496057510001;0.0689865723252;2;True;35;2;143.58578491210002
456;456;1449491031;2.16275978088;0.78974378109;0.06886906176810001;2;True;35;2;143.58578491210002
457;457;1449491031;2.16287565231;0.7895340323450001;0.06909174472089999;2;True;35;2;143.58578491210002
458;458;1449491031;2.16272115707;0.7895598411560001;0.06923297047619999;2;True;35;2;143.58578491210002
459;459;1449491031;2.1629896163900004;0.789834141731;0.0689119920135;2;True;35;2;143.58578491210002
460;460;1449491031;2.16292500496;0.789862573147;0.0688952282071;2;True;35;2;143.58578491210002
461;461;1449491031;2.16268181801;0.789912521839;0.0689510703087;2;True;35;2;143.58578491210002
462;462;1449491031;2.16237688065;0.790102899075;0.0687115043402;2;True;35;2;143.58578491210002
463;463;1449491031;2.162358284;0.789997458458;0.0685140043497;2;True;35;2;143.58578491210002
464;464;1449491031;2.16300630569;0.789916098118;0.0689003542066;2;True;35;2;143.58578491210002
465;465;1449491031;2.16291713715;0.7897973656649999;0.0690309405327;2;True;35;2;143.58578491210002
466;466;1449491031;2.16288900375;0.789847314358;0.0689062401652;2;True;35;2;143.58578491210002
467;467;1449491031;2.1627686023700003;0.7897761464120001;0.0688931047916;2;True;35;2;143.58578491210002
468;468;1449491031;2.1629452705400003;0.7898176908490001;0.0688994526863;2;True;35;2;143.58578491210002
469;469;1449491031;2.16262197495;0.7899631857870001;0.0689124166965;2;True;35;2;143.58578491210002
470;470;1449491031;2.1628267765;0.7899204492569999;0.0689421966672;2;True;35;2;143.58578491210002
471;471;1449491031;2.16288280487;0.7899619340899999;0.0689437016845;2;True;35;2;143.58578491210002
472;472;1449491031;2.16301608086;0.789862573147;0.0689210370183;2;True;35;2;143.58578491210002
473;473;1449491031;2.16270971298;0.789666473866;0.06907888501880001;2;True;35;2;143.58578491210002
474;474;1449491031;2.16296124458;0.7900122404100001;0.0690106526017;2;True;35;2;143.58578491210002
475;475;1449491031;2.16257357597;0.789597690105;0.0689199566841;2;True;35;2;143.58578491210002
476;476;1449491031;2.16280865669;0.789726316929;0.069024078548;2;True;35;2;143.58578491210002
477;477;1449491031;2.16255378723;0.789858460426;0.0688229352236;2;True;35;2;143.58578491210002
478;478;1449491031;2.16242074966;0.790194690228;0.068522028625;2;True;35;2;143.58578491210002
479;479;1449491031;2.16296243668;0.7898570299150001;0.0689243376255;2;True;35;2;143.58578491210002
480;480;1449491031;2.16295838356;0.789953112602;0.06892248243089999;2;True;35;2;143.58578491210002
481;481;1449491031;2.1626596450799997;0.789837956429;0.0688610523939;2;True;35;2;143.58578491210002
482;482;1449491031;2.1629319191;0.7898510694499999;0.06889963895080001;2;True;35;2;143.58578491210002
483;483;1449491031;2.16303992271;0.7898890972139999;0.0689227059484;2;True;35;2;143.58578491210002
484;484;1449491031;2.16308999062;0.789554655552;0.0688874796033;2;True;35;2;143.58578491210002
485;485;1449491031;2.1625356674200003;0.7896481752399999;0.0689603686333;2;True;35;2;143.58578491210002
486;486;1449491031;2.16297626495;0.7898564934729999;0.068935982883;2;True;35;2;143.58578491210002
487;487;1449491031;2.16304707527;0.789443969727;0.0695529952645;2;True;35;2;143.58578491210002
488;488;1449491031;2.16272854805;0.789586007595;0.06895210593939999;2;True;35;2;143.58578491210002
489;489;1449491031;2.16283774376;0.789858818054;0.0689341202378;2;True;35;2;143.58578491210002
490;490;1449491031;2.1630289554599997;0.7896164655689999;0.06896193325519999;2;True;35;2;143.58578491210002
491;491;1449491031;2.162804842;0.78972619772;0.06895993649960001;2;True;35;2;143.58578491210002
492;492;1449491031;2.1628658771500002;0.7889710664749999;0.06954541802410001;2;True;35;2;143.58578491210002
493;493;1449491031;2.1630284786200003;0.7895911335950001;0.06899266690019999;2;True;35;2;143.58578491210002
494;494;1449491031;2.16240620613;0.7901538610459999;0.0690015777946;2;True;35;2;143.58578491210002
495;495;1449491031;2.16277217865;0.7898367047310001;0.0689176395535;2;True;35;2;143.58578491210002
496;496;1449491031;2.16260695457;0.789587557316;0.0689136609435;2;True;35;2;143.58578491210002
497;497;1449491031;2.16317939758;0.789968550205;0.06896319240330001;2;True;35;2;143.58578491210002
498;498;1449491031;2.16278910637;0.7896422147750001;0.0690918713808;2;True;35;2;143.58578491210002
499;499;1449491031;2.16299176216;0.7895953655239999;0.06930428743360001;2;True;35;2;143.58578491210002
500;500;1449491031;2.16290044785;0.7898523807529999;0.0689639225602;2;True;35;2;143.58578491210002
501;501;1449491031;2.1631588935900004;0.789431512356;0.06948190182450001;2;True;35;2;143.58578491210002
502;502;1449491031;2.16288757324;0.7898283004760001;0.0689176097512;2;True;35;2;143.58578491210002
503;503;1449491031;2.16288900375;0.789777100086;0.0690488889813;2;True;35;2;143.58578491210002
504;504;1449491031;2.1628344059;0.789775013924;0.0690378844738;2;True;35;2;143.58578491210002
505;505;1449491031;2.16252350807;0.789758384228;0.06886794418100001;2;True;35;2;143.58578491210002
506;506;1449491031;2.1630094051400004;0.7896435856820001;0.069280475378;2;True;35;2;143.58578491210002
507;507;1449491031;2.16303539276;0.789838552475;0.0689755305648;2;True;35;2;143.58578491210002
508;508;1449491031;2.16292858124;0.789825081825;0.0689555630088;2;True;35;2;143.58578491210002
509;509;1449491031;2.16250324249;0.790160953999;0.0685928687453;2;True;35;2;143.58578491210002
510;510;1449491031;2.16315364838;0.7899748682979999;0.0689873099327;2;True;35;2;143.58578491210002
511;511;1449491031;2.16301584244;0.790011167526;0.0689554810524;2;True;35;2;143.58578491210002
512;512;1449491031;2.16280889511;0.789818227291;0.068974584341;2;True;35;2;143.58578491210002
513;513;1449491031;2.16279983521;0.790023326874;0.0690991654992;2;True;35;2;143.58578491210002
514;514;1449491031;2.16279768944;0.789673924446;0.06906729936599999;2;True;35;2;143.58578491210002
515;515;1449491031;2.16293287277;0.789663136005;0.0694776549935;2;True;35;2;143.58578491210002
516;516;1449491031;2.16305851936;0.789604902267;0.0690157189965;2;True;35;2;143.58578491210002
517;517;1449491031;2.16288280487;0.789836108685;0.0689543932676;2;True;35;2;143.58578491210002
518;518;1449491031;2.16260147095;0.789684712887;0.0691481083632;2;True;35;2;143.58578491210002
519;519;1449491031;2.16312837601;0.7896640896799999;0.06895650178189999;2;True;35;2;143.58578491210002
520;520;1449491031;2.16313958168;0.789703190327;0.06902245432139999;2;True;35;2;143.58578491210002
521;521;1449491031;2.1627535819999997;0.7897130250929999;0.06903783977030001;2;True;35;2;143.58578491210002
522;522;1449491031;2.16299152374;0.789891779423;0.0689729079604;2;True;35;2;143.58578491210002
523;523;1449491031;2.1625125408200003;0.789647042751;0.06906080245969999;2;True;35;2;143.58578491210002
524;524;1449491031;2.16294646263;0.789907813072;0.0689887329936;2;True;35;2;143.58578491210002
525;525;1449491031;2.16284584999;0.7899855971340001;0.06886853277680001;2;True;35;2;143.58578491210002
526;526;1449491031;2.16309595108;0.7897973656649999;0.0687409639359;2;True;35;2;143.58578491210002
527;527;1449491031;2.16301774979;0.78989636898;0.0689559131861;2;True;35;2;143.58578491210002
528;528;1449491031;2.16308999062;0.7892405390739999;0.0693440511823;2;True;35;2;143.58578491210002
529;529;1449491031;2.16293501854;0.7899150252339999;0.06886745244260001;2;True;35;2;143.58578491210002
530;530;1449491031;2.16267347336;0.7895828485490001;0.06898164004089999;2;True;35;2;143.58578491210002
531;531;1449491031;2.16318249702;0.789864182472;0.0689683631063;2;True;35;2;143.58578491210002
532;532;1449491031;2.1627752780900003;0.789398193359;0.06952437013389999;2;True;35;2;143.58578491210002
533;533;1449491031;2.16232562065;0.7898445129389999;0.0688070356846;2;True;35;2;143.58578491210002
534;534;1449491031;2.16294717789;0.789996743202;0.0688198953867;2;True;35;2;143.58578491210002
535;535;1449491031;2.16307115555;0.789904177189;0.068952344358;2;True;35;2;143.58578491210002
536;536;1449491031;2.1628046035799997;0.789769768715;0.0689289420843;2;True;35;2;143.58578491210002
537;537;1449491031;2.1629657745400004;0.789772987366;0.068949855864;2;True;35;2;143.58578491210002
538;538;1449491031;2.16303420067;0.789849817753;0.0689711496234;2;True;35;2;143.58578491210002
539;539;1449491031;2.16280698776;0.78972953558;0.0689205229282;2;True;35;2;143.58578491210002
540;540;1449491031;2.1628036499000003;0.789958000183;0.0689501613379;2;True;35;2;143.58578491210002
541;541;1449491031;2.1629781723;0.789735078812;0.06895033270119999;2;True;35;2;143.58578491210002
542;542;1449491031;2.16291761398;0.789886772633;0.0689600035548;2;True;35;2;143.58578491210002
543;543;1449491031;2.1629095077500002;0.789961993694;0.0689652562141;2;True;35;2;143.58578491210002
544;544;1449491031;2.16298818588;0.7900699973109999;0.0689537599683;2;True;35;2;143.58578491210002
545;545;1449491031;2.16284632683;0.7892562747;0.06936009973289999;2;True;35;2;143.58578491210002
546;546;1449491031;2.16241765022;0.789818167686;0.0689079985023;2;True;35;2;143.58578491210002
547;547;1449491031;2.1624443531;0.7897870540620001;0.06876525282860001;2;True;35;2;143.58578491210002
548;548;1449491031;2.16292524338;0.7898175120350001;0.0689128935337;2;True;35;2;143.58578491210002
549;549;1449491031;2.16288971901;0.789801955223;0.06891134381289998;2;True;35;2;143.58578491210002
550;550;1449491031;2.16264081001;0.7897754907610001;0.06899631768469999;2;True;35;2;143.58578491210002
551;551;1449491031;2.16275238991;0.789692640305;0.06887383013960001;2;True;35;2;143.58578491210002
552;552;1449491031;2.16313552856;0.789892792702;0.0688396915793;2;True;35;2;143.58578491210002
553;553;1449491031;2.1628692150099997;0.7896264791490001;0.0691516697407;2;True;35;2;143.58578491210002
554;554;1449491031;2.1628189086900003;0.7897746562960001;0.0689033791423;2;True;35;2;143.58578491210002
555;555;1449491031;2.16255784035;0.7899508476260001;0.0689779520035;2;True;35;2;143.58578491210002
556;556;1449491031;2.16272091866;0.789857327938;0.06878752261400001;2;True;35;2;143.58578491210002
557;557;1449491031;2.16316318512;0.789952933788;0.0689295306802;2;True;35;2;143.58578491210002
558;558;1449491031;2.1631042957299997;0.789979279041;0.0689211040735;2;True;35;2;143.58578491210002
559;559;1449491031;2.16250228882;0.7897754907610001;0.0690685138106;2;True;35;2;143.58578491210002
560;560;1449491031;2.1630716323900003;0.7899245619769999;0.068910561502;2;True;35;2;143.58578491210002
561;561;1449491031;2.1628162860900004;0.789828360081;0.0688636675477;2;True;35;2;143.58578491210002
562;562;1449491031;2.16309666634;0.789803028107;0.0688974484801;2;True;35;2;143.58578491210002
563;563;1449491031;2.16265654564;0.789716899395;0.0691428780556;2;True;35;2;143.58578491210002
564;564;1449491031;2.16259336472;0.7898719310760001;0.0688599273562;2;True;35;2;143.58578491210002
565;565;1449491031;2.1630895137799997;0.789594888687;0.0688340142369;2;True;35;2;143.58578491210002
566;566;1449491031;2.16291999817;0.7898502945899999;0.0688975304365;2;True;35;2;143.58578491210002
567;567;1449491031;2.1629452705400003;0.78960454464;0.06891962885860001;2;True;35;2;143.58578491210002
568;568;1449491031;2.16243815422;0.789881944656;0.06877475976939999;2;True;35;2;143.58578491210002
569;569;1449491031;2.16313171387;0.789474725723;0.0693419352174;2;True;35;2;143.58578491210002
570;570;1449491031;2.16286635399;0.789898395538;0.0689538344741;2;True;35;2;143.58578491210002
571;571;1449491031;2.16298413277;0.7898517251010001;0.06890438497069999;2;True;35;2;143.58578491210002
572;572;1449491031;2.16285443306;0.7897566556929999;0.06900676339860001;2;True;35;2;143.58578491210002
573;573;1449491031;2.16293692589;0.789771318436;0.0689129754901;2;True;35;2;143.58578491210002
574;574;1449491031;2.1627607345599995;0.7896489501;0.0692355781794;2;True;35;2;143.58578491210002
575;575;1449491031;2.16295790672;0.7898755073549999;0.0689305588603;2;True;35;2;143.58578491210002
576;576;1449491031;2.16299319267;0.7896639108660001;0.06898497045039999;2;True;35;2;143.58578491210002
577;577;1449491031;2.16285538673;0.790059626102;0.0687236264348;2;True;35;2;143.58578491210002
578;578;1449491031;2.1629576683000002;0.789891719818;0.068936266005;2;True;35;2;143.58578491210002
579;579;1449491031;2.16313028336;0.789543151855;0.0692984685302;2;True;35;2;143.58578491210002
580;580;1449491031;2.16233587265;0.7896878719329999;0.0690395981073;2;True;35;2;143.58578491210002
581;581;1449491031;2.1627664566;0.789763510227;0.0688820853829;2;True;35;2;143.58578491210002
582;582;1449491031;2.16295742989;0.7898862361910001;0.0689188838005;2;True;35;2;143.58578491210002
583;583;1449491031;2.16295337677;0.789509296417;0.0694331526756;2;True;35;2;143.58578491210002
584;584;1449491031;2.16310572624;0.7899712920190001;0.0688491538167;2;True;35;2;143.58578491210002
585;585;1449491031;2.1628139019;0.789687752724;0.0689274743199;2;True;35;2;143.58578491210002
586;586;1449491031;2.1629083156599997;0.789797484875;0.06892552226780001;2;True;35;2;143.58578491210002
587;587;1449491031;2.1629309654199997;0.7899075150489999;0.0689345747232;2;True;35;2;143.58578491210002
588;588;1449491031;2.16283845901;0.789915382862;0.0688895136118;2;True;35;2;143.58578491210002
589;589;1449491031;2.16286969185;0.7896645069120001;0.0691577270627;2;True;35;2;143.58578491210002
590;590;1449491031;2.16288590431;0.7897255420679999;0.068921238184;2;True;35;2;143.58578491210002
591;591;1449491031;2.16259455681;0.790044784546;0.0687171146274;2;True;35;2;143.58578491210002
592;592;1449491031;2.16302466393;0.789924740791;0.06897540390489999;2;True;35;2;143.58578491210002
593;593;1449491031;2.1630187034599997;0.789882063866;0.06894789636139999;2;True;35;2;143.58578491210002
594;594;1449491031;2.1627810001400003;0.789664208889;0.0690828189254;2;True;35;2;143.58578491210002
595;595;1449491031;2.1631796359999997;0.7899860739710001;0.06895060092210001;2;True;35;2;143.58578491210002
596;596;1449491031;2.1625287532799997;0.7898610234260001;0.06903473287819999;2;True;35;2;143.58578491210002
597;597;1449491031;2.16266441345;0.789692878723;0.06891075521710001;2;True;35;2;143.58578491210002
598;598;1449491031;2.1628527641299997;0.7897326946259999;0.06905726343389999;2;True;35;2;143.58578491210002
599;599;1449491031;2.16299462318;0.789910972118;0.0689571127295;2;True;35;2;143.58578491210002
600;600;1449491031;2.16307663918;0.78949034214;0.069637581706;2;True;35;2;143.58578491210002
601;601;1449491031;2.16274380684;0.789986729622;0.06881537288430001;2;True;35;2;143.58578491210002
602;602;1449491031;2.16307449341;0.7896911501880001;0.0690039992332;2;True;35;2;143.58578491210002
