;Unnamed: 0;header_stamp_secs;pose_position_x;pose_position_y;pose_position_z;seconds;drop_values;flight_number;label;dtw
0;0;1449492484;2.14812517166;0.805721402168;0.068135805428;0;True;40;2;173.67241495851513
1;1;1449492484;2.1480555534400003;0.805699408054;0.06813789159059999;0;True;40;2;173.67241495851513
2;2;1449492484;2.14805293083;0.805697858334;0.06813332438469999;0;True;40;2;173.67241495851513
3;3;1449492484;2.14796447754;0.805572092533;0.0681570023298;0;True;40;2;173.67241495851513
4;4;1449492484;2.14803123474;0.805698692799;0.068055562675;0;True;40;2;173.67241495851513
5;5;1449492484;2.1479394435900003;0.8055516481399999;0.0681574940681;0;True;40;2;173.67241495851513
6;6;1449492484;2.14810633659;0.805733203888;0.0681085437536;0;True;40;2;173.67241495851513
7;7;1449492484;2.14801716805;0.805659294128;0.0680918246508;0;True;40;2;173.67241495851513
8;8;1449492485;2.1480820178999998;0.8057335615160001;0.0680753961205;1;True;40;2;173.67241495851513
9;9;1449492485;2.1480891704599996;0.805743932724;0.06807416677469999;1;True;40;2;173.67241495851513
10;10;1449492485;2.14808273315;0.8057078719140001;0.0681399777532;1;True;40;2;173.67241495851513
11;11;1449492485;2.14799952507;0.8056086301800001;0.0681814104319;1;True;40;2;173.67241495851513
12;12;1449492485;2.1480610370599997;0.805735707283;0.0681374520063;1;True;40;2;173.67241495851513
13;13;1449492485;2.1481115818000003;0.805734932423;0.06811396777630001;1;True;40;2;173.67241495851513
14;14;1449492485;2.14810872078;0.805759549141;0.06810320913790001;1;True;40;2;173.67241495851513
15;15;1449492485;2.14807224274;0.805682241917;0.0680879428983;1;True;40;2;173.67241495851513
16;16;1449492485;2.14802479744;0.805685698986;0.06810349226;1;True;40;2;173.67241495851513
17;17;1449492485;2.1479780674;0.805569469929;0.0681884288788;1;True;40;2;173.67241495851513
18;18;1449492485;2.14807605743;0.805745482445;0.06816226989030001;1;True;40;2;173.67241495851513
19;19;1449492485;2.1480765342700003;0.805722594261;0.06808730959890001;1;True;40;2;173.67241495851513
20;20;1449492485;2.14811587334;0.805733025074;0.0681050568819;1;True;40;2;173.67241495851513
21;21;1449492485;2.1481125354799997;0.805728077888;0.0681250318885;1;True;40;2;173.67241495851513
22;22;1449492485;2.14811730385;0.8057076931;0.06815125793219999;1;True;40;2;173.67241495851513
23;23;1449492485;2.14806652069;0.805689275265;0.0681631490588;1;True;40;2;173.67241495851513
24;24;1449492485;2.1480515003200003;0.805663883686;0.0681215599179;1;True;40;2;173.67241495851513
25;25;1449492485;2.14800453186;0.8056471943860001;0.06819680333139999;1;True;40;2;173.67241495851513
26;26;1449492485;2.14809632301;0.8057072758670001;0.0681146681309;1;True;40;2;173.67241495851513
27;27;1449492485;2.14810037613;0.805743634701;0.0681316703558;1;True;40;2;173.67241495851513
28;28;1449492485;2.14808344841;0.8056876063349999;0.0681663826108;1;True;40;2;173.67241495851513
29;29;1449492485;2.1480765342700003;0.8057317733759999;0.0681156665087;1;True;40;2;173.67241495851513
30;30;1449492485;2.1479353904700003;0.805558383465;0.06817080825569999;1;True;40;2;173.67241495851513
31;31;1449492485;2.14795470238;0.8055275678630001;0.0681996569037;1;True;40;2;173.67241495851513
32;32;1449492485;2.14804887772;0.805702209473;0.068128362298;1;True;40;2;173.67241495851513
33;33;1449492485;2.14792656898;0.8055520653720001;0.0681682601571;1;True;40;2;173.67241495851513
34;34;1449492485;2.1479787826499996;0.805564105511;0.0682130381465;1;True;40;2;173.67241495851513
35;35;1449492485;2.14808249474;0.805692195892;0.0681551396847;1;True;40;2;173.67241495851513
36;36;1449492485;2.1479580402400003;0.8055361509319999;0.06818889826539999;1;True;40;2;173.67241495851513
37;37;1449492485;2.14808297157;0.8057413101199999;0.0681178793311;1;True;40;2;173.67241495851513
38;38;1449492485;2.14809536934;0.8056828975679999;0.0680968612432;1;True;40;2;173.67241495851513
39;39;1449492485;2.14798283577;0.8055589795110001;0.0682004094124;1;True;40;2;173.67241495851513
40;40;1449492485;2.14808821678;0.805746436119;0.0681209117174;1;True;40;2;173.67241495851513
41;41;1449492485;2.147960186;0.8056734204289999;0.06812483817340001;1;True;40;2;173.67241495851513
42;42;1449492485;2.14808416367;0.8056830167769999;0.06816386431459999;1;True;40;2;173.67241495851513
43;43;1449492485;2.1480779647799997;0.805712938309;0.0681333467364;1;True;40;2;173.67241495851513
44;44;1449492485;2.14805221558;0.805683195591;0.0681336000562;1;True;40;2;173.67241495851513
45;45;1449492485;2.14791870117;0.805552005768;0.06810101121659999;1;True;40;2;173.67241495851513
46;46;1449492485;2.1480243206;0.805687665939;0.0681419223547;1;True;40;2;173.67241495851513
47;47;1449492485;2.14797997475;0.8055575490000001;0.0681723579764;1;True;40;2;173.67241495851513
48;48;1449492485;2.14802479744;0.805634260178;0.0681171864271;1;True;40;2;173.67241495851513
49;49;1449492485;2.14798212051;0.805706560612;0.0680932700634;1;True;40;2;173.67241495851513
50;50;1449492485;2.1479427814500003;0.8055445551870001;0.06818717718119999;1;True;40;2;173.67241495851513
51;51;1449492485;2.14805293083;0.805673897266;0.0681549832225;1;True;40;2;173.67241495851513
52;52;1449492485;2.14805865288;0.805704653263;0.0681135132909;1;True;40;2;173.67241495851513
53;53;1449492485;2.1479198932599997;0.805543482304;0.0680880174041;1;True;40;2;173.67241495851513
54;54;1449492485;2.1480793952900004;0.8057058453560001;0.0681213289499;1;True;40;2;173.67241495851513
55;55;1449492485;2.1480786800400002;0.805751740932;0.0680974796414;1;True;40;2;173.67241495851513
56;56;1449492485;2.1480658054400004;0.805705428123;0.0681163221598;1;True;40;2;173.67241495851513
57;57;1449492485;2.14806413651;0.8057336807250001;0.0680849924684;1;True;40;2;173.67241495851513
58;58;1449492485;2.14805912971;0.805716574192;0.0681563094258;1;True;40;2;173.67241495851513
59;59;1449492485;2.14810395241;0.805747330189;0.0681562423706;1;True;40;2;173.67241495851513
60;60;1449492485;2.14801907539;0.8056725859639999;0.06811966747050001;1;True;40;2;173.67241495851513
61;61;1449492485;2.1480808258099997;0.805747807026;0.0680802986026;1;True;40;2;173.67241495851513
62;62;1449492485;2.1480610370599997;0.805733263493;0.0681550577283;1;True;40;2;173.67241495851513
63;63;1449492485;2.14801049232;0.8057047128679999;0.0681177228689;1;True;40;2;173.67241495851513
64;64;1449492485;2.14803218842;0.8056644201279999;0.0681400150061;1;True;40;2;173.67241495851513
65;65;1449492485;2.1479482650799997;0.80554318428;0.0681714117527;1;True;40;2;173.67241495851513
66;66;1449492485;2.1480691433000003;0.8057458400730001;0.06814429163930001;1;True;40;2;173.67241495851513
67;67;1449492485;2.1480650901800002;0.8057119250300001;0.06807212531569999;1;True;40;2;173.67241495851513
68;68;1449492485;2.14803099632;0.805670559406;0.06815226376059999;1;True;40;2;173.67241495851513
69;69;1449492485;2.14808130264;0.805706501007;0.06811802834269999;1;True;40;2;173.67241495851513
70;70;1449492485;2.14805221558;0.8057301640510001;0.06814219057559999;1;True;40;2;173.67241495851513
71;71;1449492485;2.14794754982;0.805569708347;0.0681556463242;1;True;40;2;173.67241495851513
72;72;1449492485;2.1480658054400004;0.805715024471;0.0680982396007;1;True;40;2;173.67241495851513
73;73;1449492485;2.1480653286;0.8057413101199999;0.06813576817509999;1;True;40;2;173.67241495851513
74;74;1449492485;2.14802455902;0.8056856393809999;0.068154245615;1;True;40;2;173.67241495851513
75;75;1449492485;2.14799499512;0.805723369122;0.0680810809135;1;True;40;2;173.67241495851513
76;76;1449492485;2.1480820178999998;0.805738329887;0.0680769532919;1;True;40;2;173.67241495851513
77;77;1449492485;2.14807271957;0.805724680424;0.06808387488130001;1;True;40;2;173.67241495851513
78;78;1449492485;2.1481029987299998;0.805727601051;0.0680732354522;1;True;40;2;173.67241495851513
79;79;1449492485;2.1479864120500003;0.8056018948549999;0.06814948469399999;1;True;40;2;173.67241495851513
80;80;1449492485;2.1480576992;0.8057228922840001;0.0680577680469;1;True;40;2;173.67241495851513
81;81;1449492485;2.14805912971;0.805748343468;0.06811922788619999;1;True;40;2;173.67241495851513
82;82;1449492485;2.1480026245099997;0.805626153946;0.0680985748768;1;True;40;2;173.67241495851513
83;83;1449492485;2.14806675911;0.805720448494;0.0680721029639;1;True;40;2;173.67241495851513
84;84;1449492485;2.14809465408;0.8057717680930001;0.06812259554859999;1;True;40;2;173.67241495851513
85;85;1449492485;2.14808011055;0.805716991425;0.0681193172932;1;True;40;2;173.67241495851513
86;86;1449492485;2.14798808098;0.805596828461;0.0681313946843;1;True;40;2;173.67241495851513
87;87;1449492485;2.14798116684;0.805614233017;0.06814987957480001;1;True;40;2;173.67241495851513
88;88;1449492485;2.14802336693;0.805714309216;0.0680655986071;1;True;40;2;173.67241495851513
89;89;1449492485;2.14808177948;0.8057433366779999;0.0680614411831;1;True;40;2;173.67241495851513
90;90;1449492485;2.1480743885;0.8056963682170001;0.0681337937713;1;True;40;2;173.67241495851513
91;91;1449492485;2.14798998833;0.805610895157;0.0681124925613;1;True;40;2;173.67241495851513
92;92;1449492485;2.14809322357;0.805748999119;0.06807074695830001;1;True;40;2;173.67241495851513
93;93;1449492485;2.1480679512000003;0.8057225346570001;0.0681109577417;1;True;40;2;173.67241495851513
94;94;1449492485;2.1480741500900002;0.8057438731190001;0.06807552278040001;1;True;40;2;173.67241495851513
95;95;1449492485;2.14804911613;0.805657565594;0.0681574493647;1;True;40;2;173.67241495851513
96;96;1449492485;2.14807271957;0.805764853954;0.0680484175682;1;True;40;2;173.67241495851513
97;97;1449492485;2.14807891846;0.805724978447;0.06810858100650001;1;True;40;2;173.67241495851513
98;98;1449492485;2.14805173874;0.805685400963;0.0681406855583;1;True;40;2;173.67241495851513
99;99;1449492485;2.14807248116;0.805720686913;0.0681051909924;1;True;40;2;173.67241495851513
100;100;1449492485;2.14801597595;0.8056487441060001;0.06816060096030001;1;True;40;2;173.67241495851513
101;101;1449492485;2.14804267883;0.8057487606999999;0.0681163966656;1;True;40;2;173.67241495851513
102;102;1449492485;2.14801263809;0.8056417107580001;0.06814333051440001;1;True;40;2;173.67241495851513
103;103;1449492485;2.1480534076700004;0.805759847164;0.06804271787409999;1;True;40;2;173.67241495851513
104;104;1449492485;2.14803266525;0.805674672127;0.0681440979242;1;True;40;2;173.67241495851513
105;105;1449492485;2.14807677269;0.805710077286;0.068109691143;1;True;40;2;173.67241495851513
106;106;1449492485;2.1480851173400004;0.8057468533519999;0.0680699199438;1;True;40;2;173.67241495851513
107;107;1449492485;2.1480453014400003;0.805744111538;0.0681182965636;1;True;40;2;173.67241495851513
108;108;1449492485;2.14802455902;0.805727422237;0.0681265220046;1;True;40;2;173.67241495851513
109;109;1449492485;2.14806485176;0.8057303428650001;0.06806454807519999;1;True;40;2;173.67241495851513
110;110;1449492485;2.1479973793;0.8056221008300001;0.0681113526225;1;True;40;2;173.67241495851513
111;111;1449492485;2.1479794979099998;0.805600166321;0.0681216046214;1;True;40;2;173.67241495851513
112;112;1449492485;2.14806413651;0.805756449699;0.06805539131159999;1;True;40;2;173.67241495851513
113;113;1449492485;2.1479845047;0.805612146854;0.0681110993028;1;True;40;2;173.67241495851513
114;114;1449492485;2.14802026749;0.805697977543;0.0680866092443;1;True;40;2;173.67241495851513
115;115;1449492485;2.14805626869;0.8057378530500001;0.0681307539344;1;True;40;2;173.67241495851513
116;116;1449492485;2.14810204506;0.805721879005;0.068132057786;1;True;40;2;173.67241495851513
117;117;1449492485;2.1480970382700004;0.805682063103;0.0681682005525;1;True;40;2;173.67241495851513
118;118;1449492485;2.14809083939;0.805729389191;0.0680749416351;1;True;40;2;173.67241495851513
119;119;1449492485;2.14801311493;0.805616438389;0.0681732967496;1;True;40;2;173.67241495851513
120;120;1449492485;2.14810013771;0.8057533502580001;0.0680887177587;1;True;40;2;173.67241495851513
121;121;1449492485;2.1480808258099997;0.805705368519;0.0681211277843;1;True;40;2;173.67241495851513
122;122;1449492485;2.1480741500900002;0.805752515793;0.0680657103658;1;True;40;2;173.67241495851513
123;123;1449492485;2.14807844162;0.8057520985600001;0.06814783066510001;1;True;40;2;173.67241495851513
124;124;1449492485;2.1480257511099996;0.805693209171;0.0681036412716;1;True;40;2;173.67241495851513
125;125;1449492485;2.1480650901800002;0.8056718111040001;0.0681541115046;1;True;40;2;173.67241495851513
126;126;1449492485;2.14807391167;0.80573952198;0.0681598186493;1;True;40;2;173.67241495851513
127;127;1449492485;2.14800405502;0.805687248707;0.06811027228830001;1;True;40;2;173.67241495851513
128;128;1449492485;2.14796853065;0.805555999279;0.0681657195091;1;True;40;2;173.67241495851513
129;129;1449492485;2.14806771278;0.8056699037549999;0.06809896230700001;1;True;40;2;173.67241495851513
130;130;1449492485;2.14806485176;0.8057329654690001;0.06808150559659999;1;True;40;2;173.67241495851513
131;131;1449492485;2.1480858326;0.805751025677;0.0680907070637;1;True;40;2;173.67241495851513
132;132;1449492485;2.1479787826499996;0.8055658340449999;0.0681748092175;1;True;40;2;173.67241495851513
133;133;1449492485;2.14805173874;0.805643856525;0.0681186467409;1;True;40;2;173.67241495851513
134;134;1449492485;2.14810991287;0.805718541145;0.0681084766984;1;True;40;2;173.67241495851513
135;135;1449492485;2.1480779647799997;0.805709064007;0.0680890381336;1;True;40;2;173.67241495851513
136;136;1449492485;2.14809131622;0.8057304024699999;0.0681125298142;1;True;40;2;173.67241495851513
137;137;1449492485;2.14810562134;0.805751204491;0.0681684985757;1;True;40;2;173.67241495851513
138;138;1449492485;2.14810991287;0.805682301521;0.0681627988815;1;True;40;2;173.67241495851513
139;139;1449492485;2.14795660973;0.805570662022;0.0681831240654;1;True;40;2;173.67241495851513
140;140;1449492485;2.1480369567900004;0.805713176727;0.068092636764;1;True;40;2;173.67241495851513
141;141;1449492485;2.1480345726;0.80566328764;0.0681688338518;1;True;40;2;173.67241495851513
142;142;1449492485;2.1479742527;0.805594146252;0.068173147738;1;True;40;2;173.67241495851513
143;143;1449492485;2.14805912971;0.805692017078;0.0681033581495;1;True;40;2;173.67241495851513
144;144;1449492485;2.1480889320400003;0.805700302124;0.06810782104730001;1;True;40;2;173.67241495851513
145;145;1449492485;2.1480515003200003;0.805695474148;0.0680894553661;1;True;40;2;173.67241495851513
146;146;1449492485;2.14803814888;0.805661439896;0.0681830197573;1;True;40;2;173.67241495851513
147;147;1449492485;2.14795160294;0.8055529594419999;0.0681864321232;1;True;40;2;173.67241495851513
148;148;1449492485;2.14807081223;0.805678784847;0.0681752935052;1;True;40;2;173.67241495851513
149;149;1449492485;2.14809155464;0.805725157261;0.0681217759848;1;True;40;2;173.67241495851513
150;150;1449492485;2.1480846405;0.805714309216;0.0681082084775;1;True;40;2;173.67241495851513
151;151;1449492485;2.14804697037;0.805622756481;0.0682078450918;1;True;40;2;173.67241495851513
152;152;1449492485;2.1481230258900004;0.805678725243;0.0681945681572;1;True;40;2;173.67241495851513
153;153;1449492485;2.14810180664;0.8057134151459999;0.06814154237509999;1;True;40;2;173.67241495851513
154;154;1449492485;2.14802074432;0.8056561350820001;0.0681197717786;1;True;40;2;173.67241495851513
155;155;1449492485;2.14801716805;0.80566328764;0.0681219920516;1;True;40;2;173.67241495851513
156;156;1449492485;2.1480038166;0.8055631518359999;0.0682111904025;1;True;40;2;173.67241495851513
157;157;1449492485;2.14806556702;0.8056691288950001;0.0681650936604;1;True;40;2;173.67241495851513
158;158;1449492485;2.14812350273;0.8057275414470001;0.0681123882532;1;True;40;2;173.67241495851513
159;159;1449492485;2.148011446;0.805726885796;0.0681053102016;1;True;40;2;173.67241495851513
160;160;1449492485;2.1480987072;0.8057277202609999;0.06811417639259999;1;True;40;2;173.67241495851513
161;161;1449492485;2.14801716805;0.805655181408;0.0681340098381;1;True;40;2;173.67241495851513
162;162;1449492485;2.14810585976;0.8057209253309999;0.0681279450655;1;True;40;2;173.67241495851513
163;163;1449492485;2.14812326431;0.8056983351710001;0.0681600421667;1;True;40;2;173.67241495851513
164;164;1449492485;2.1481268405900003;0.805751681328;0.0681334808469;1;True;40;2;173.67241495851513
165;165;1449492485;2.14810347557;0.805724918842;0.06810852140189999;1;True;40;2;173.67241495851513
166;166;1449492485;2.14811897278;0.8057295084;0.0681185573339;1;True;40;2;173.67241495851513
167;167;1449492485;2.14814448357;0.8057813048360001;0.068137831986;1;True;40;2;173.67241495851513
168;168;1449492485;2.1481115818000003;0.80577892065;0.0681862086058;1;True;40;2;173.67241495851513
169;169;1449492485;2.14811134338;0.805755138397;0.0681042745709;1;True;40;2;173.67241495851513
170;170;1449492485;2.1480369567900004;0.805655658245;0.0681726112962;1;True;40;2;173.67241495851513
171;171;1449492485;2.1480884552;0.8057426214219999;0.0680938512087;1;True;40;2;173.67241495851513
172;172;1449492485;2.1480832099900002;0.805777609348;0.0681196004152;1;True;40;2;173.67241495851513
173;173;1449492485;2.14806485176;0.8056808114049999;0.06815010309219999;1;True;40;2;173.67241495851513
174;174;1449492485;2.1479589939099997;0.805562138557;0.0681658983231;1;True;40;2;173.67241495851513
175;175;1449492485;2.14813017845;0.8057473897930001;0.0681551843882;1;True;40;2;173.67241495851513
176;176;1449492485;2.14810800552;0.805750370026;0.0681413188577;1;True;40;2;173.67241495851513
177;177;1449492485;2.14810967445;0.8057534694670001;0.06811381876469999;1;True;40;2;173.67241495851513
178;178;1449492485;2.14806747437;0.805701434612;0.0680770501494;1;True;40;2;173.67241495851513
179;179;1449492485;2.14800190926;0.805596828461;0.0681926161051;1;True;40;2;173.67241495851513
180;180;1449492485;2.14802241325;0.805599212646;0.0681968927383;1;True;40;2;173.67241495851513
181;181;1449492485;2.14795351028;0.8055709600450001;0.0681701153517;1;True;40;2;173.67241495851513
182;182;1449492485;2.14812207222;0.805800080299;0.0681083798409;1;True;40;2;173.67241495851513
183;183;1449492485;2.14794683456;0.8055514693260001;0.0681864768267;1;True;40;2;173.67241495851513
184;184;1449492485;2.14812088013;0.805769562721;0.06814067065719999;1;True;40;2;173.67241495851513
185;185;1449492485;2.14810228348;0.805769205093;0.06811452656980001;1;True;40;2;173.67241495851513
186;186;1449492485;2.14805626869;0.805714011192;0.0680693238974;1;True;40;2;173.67241495851513
187;187;1449492485;2.1479823589300002;0.805565297604;0.06818359345200001;1;True;40;2;173.67241495851513
188;188;1449492485;2.14811134338;0.805776178837;0.06811273097989999;1;True;40;2;173.67241495851513
189;189;1449492485;2.14806485176;0.8057834506029999;0.0681708678603;1;True;40;2;173.67241495851513
190;190;1449492485;2.14805579185;0.805754721165;0.0681695863605;1;True;40;2;173.67241495851513
191;191;1449492485;2.14808869362;0.805744409561;0.0680733397603;1;True;40;2;173.67241495851513
192;192;1449492485;2.14796686172;0.805606842041;0.0681525617838;1;True;40;2;173.67241495851513
193;193;1449492485;2.14805960655;0.805770635605;0.0681653395295;1;True;40;2;173.67241495851513
194;194;1449492485;2.1480515003200003;0.805766999722;0.0681636333466;1;True;40;2;173.67241495851513
195;195;1449492485;2.14807963371;0.805708169937;0.0681458041072;1;True;40;2;173.67241495851513
196;196;1449492485;2.14796519279;0.805584430695;0.0681677088141;1;True;40;2;173.67241495851513
197;197;1449492485;2.1479630470299997;0.8055742383;0.0681635811925;1;True;40;2;173.67241495851513
198;198;1449492485;2.1479456424700003;0.8055659532549999;0.0681651160121;1;True;40;2;173.67241495851513
199;199;1449492485;2.1479165553999997;0.805553436279;0.06816826760769999;1;True;40;2;173.67241495851513
200;200;1449492485;2.14808154106;0.805764615536;0.06808428466319999;1;True;40;2;173.67241495851513
201;201;1449492485;2.14793920517;0.8055760264399999;0.06816483289;1;True;40;2;173.67241495851513
202;202;1449492485;2.14798283577;0.8056908249860001;0.0680918172002;1;True;40;2;173.67241495851513
203;203;1449492485;2.14795327187;0.805586278439;0.06815699487919999;1;True;40;2;173.67241495851513
204;204;1449492485;2.14806485176;0.805768728256;0.0680795609951;1;True;40;2;173.67241495851513
205;205;1449492485;2.1480588913;0.805771529675;0.0680508092046;1;True;40;2;173.67241495851513
206;206;1449492485;2.1480417251599997;0.805702924728;0.06806091219190001;1;True;40;2;173.67241495851513
207;207;1449492485;2.14806246758;0.805737137794;0.06808765232559999;1;True;40;2;173.67241495851513
208;208;1449492485;2.14804577827;0.8056867718699999;0.06810148805380001;1;True;40;2;173.67241495851513
209;209;1449492485;2.14805269241;0.805746793747;0.0680320858955;1;True;40;2;173.67241495851513
210;210;1449492485;2.14797973633;0.8056235909460001;0.0681496635079;1;True;40;2;173.67241495851513
211;211;1449492485;2.14806056023;0.805745601654;0.0680736452341;1;True;40;2;173.67241495851513
212;212;1449492485;2.14798665047;0.8055951595309999;0.0681132599711;1;True;40;2;173.67241495851513
213;213;1449492485;2.14794492722;0.805588841438;0.06812176853419999;1;True;40;2;173.67241495851513
214;214;1449492485;2.1480221748400004;0.8057317733759999;0.06808520108459999;1;True;40;2;173.67241495851513
215;215;1449492485;2.14797234535;0.805598497391;0.0681000798941;1;True;40;2;173.67241495851513
216;216;1449492485;2.14804816246;0.805725336075;0.06803992390630001;1;True;40;2;173.67241495851513
217;217;1449492485;2.1479344368;0.805568397045;0.06810534000400001;1;True;40;2;173.67241495851513
218;218;1449492485;2.14807200432;0.805719017982;0.0680685192347;1;True;40;2;173.67241495851513
219;219;1449492485;2.14796853065;0.805589079857;0.0681369453669;1;True;40;2;173.67241495851513
220;220;1449492485;2.14804887772;0.805697500706;0.0680951103568;1;True;40;2;173.67241495851513
221;221;1449492485;2.1479487419099996;0.8055852651600001;0.0681096687913;1;True;40;2;173.67241495851513
222;222;1449492485;2.14793038368;0.805578172207;0.06812087446449999;1;True;40;2;173.67241495851513
223;223;1449492485;2.14803528786;0.8057385683059999;0.0680302008986;1;True;40;2;173.67241495851513
224;224;1449492485;2.14794754982;0.8056704401970001;0.06803066283459999;1;True;40;2;173.67241495851513
225;225;1449492485;2.14797925949;0.80567574501;0.0680442154408;1;True;40;2;173.67241495851513
226;226;1449492485;2.14803814888;0.805711388588;0.06809651851649999;1;True;40;2;173.67241495851513
227;227;1449492485;2.14799714088;0.8056629300120001;0.0680660605431;1;True;40;2;173.67241495851513
228;228;1449492485;2.147990942;0.805684506893;0.0681063309312;1;True;40;2;173.67241495851513
229;229;1449492485;2.14786934853;0.8055176138879999;0.0680618062615;1;True;40;2;173.67241495851513
230;230;1449492485;2.1479556560499997;0.805631399155;0.0681302696466;1;True;40;2;173.67241495851513
231;231;1449492485;2.14789772034;0.805566132069;0.0681266263127;1;True;40;2;173.67241495851513
232;232;1449492485;2.14802408218;0.805717408657;0.0680578351021;1;True;40;2;173.67241495851513
233;233;1449492485;2.1479241848;0.8057072758670001;0.0680473670363;1;True;40;2;173.67241495851513
234;234;1449492485;2.14802503586;0.805721998215;0.0680964365602;1;True;40;2;173.67241495851513
235;235;1449492485;2.14798283577;0.805711567402;0.068045809865;1;True;40;2;173.67241495851513
236;236;1449492485;2.14792466164;0.80558103323;0.0681350901723;1;True;40;2;173.67241495851513
237;237;1449492485;2.14805579185;0.805713832378;0.0680651962757;1;True;40;2;173.67241495851513
238;238;1449492485;2.14804387093;0.80571860075;0.06808809936049999;1;True;40;2;173.67241495851513
239;239;1449492485;2.14802932739;0.8057338595389999;0.0680672377348;1;True;40;2;173.67241495851513
240;240;1449492485;2.14804363251;0.8057092428210001;0.068103864789;1;True;40;2;173.67241495851513
241;241;1449492485;2.14796495438;0.8056522011759999;0.06812474131580001;1;True;40;2;173.67241495851513
242;242;1449492485;2.14802622795;0.8056986331939999;0.0681015104055;1;True;40;2;173.67241495851513
243;243;1449492485;2.1480383872999997;0.805706501007;0.068102017045;1;True;40;2;173.67241495851513
244;244;1449492485;2.14807367325;0.805688381195;0.0681409984827;1;True;40;2;173.67241495851513
245;245;1449492485;2.14804816246;0.8057409524920001;0.06808133423330001;1;True;40;2;173.67241495851513
246;246;1449492485;2.1480679512000003;0.8057194352150001;0.06810927391049999;1;True;40;2;173.67241495851513
247;247;1449492486;2.1480593681299998;0.8057338595389999;0.0680917203426;2;True;40;2;173.67241495851513
248;248;1449492486;2.1479980945599997;0.8056089878079999;0.0681835114956;2;True;40;2;173.67241495851513
249;249;1449492486;2.14803338051;0.805703580379;0.0680847913027;2;True;40;2;173.67241495851513
250;250;1449492486;2.14800739288;0.8056249618529999;0.0681817159057;2;True;40;2;173.67241495851513
251;251;1449492486;2.1480560302700002;0.805669426918;0.06817250698800001;2;True;40;2;173.67241495851513
252;252;1449492486;2.14808821678;0.8057135343549999;0.0681283473969;2;True;40;2;173.67241495851513
253;253;1449492486;2.14798378944;0.8055622577670001;0.06820722669359999;2;True;40;2;173.67241495851513
254;254;1449492486;2.1481082439400003;0.80574297905;0.06810750812289999;2;True;40;2;173.67241495851513
255;255;1449492486;2.1480851173400004;0.805744111538;0.06809412688019999;2;True;40;2;173.67241495851513
256;256;1449492486;2.14806294441;0.805667757988;0.06819241493940001;2;True;40;2;173.67241495851513
257;257;1449492486;2.14797925949;0.805570006371;0.0681911110878;2;True;40;2;173.67241495851513
258;258;1449492486;2.1480653286;0.805728316307;0.0680833011866;2;True;40;2;173.67241495851513
259;259;1449492486;2.1479403972599997;0.805528759956;0.0681940019131;2;True;40;2;173.67241495851513
260;260;1449492486;2.14809060097;0.8057078719140001;0.0681277886033;2;True;40;2;173.67241495851513
261;261;1449492486;2.1481289863599997;0.805702030659;0.0681685730815;2;True;40;2;173.67241495851513
262;262;1449492486;2.14806962013;0.805648565292;0.0681496113539;2;True;40;2;173.67241495851513
263;263;1449492486;2.14811635017;0.805744826794;0.0681469962001;2;True;40;2;173.67241495851513
264;264;1449492486;2.14811682701;0.805717229843;0.0681712850928;2;True;40;2;173.67241495851513
265;265;1449492486;2.14807629585;0.805764615536;0.068188264966;2;True;40;2;173.67241495851513
266;266;1449492486;2.1481223106400003;0.80574208498;0.06815244257450001;2;True;40;2;173.67241495851513
267;267;1449492486;2.14812350273;0.8057250380519999;0.0681741759181;2;True;40;2;173.67241495851513
268;268;1449492486;2.14797997475;0.805538058281;0.06822182983160001;2;True;40;2;173.67241495851513
269;269;1449492486;2.1479794979099998;0.805562198162;0.0682328864932;2;True;40;2;173.67241495851513
270;270;1449492486;2.14806985855;0.8057916760439999;0.0681387782097;2;True;40;2;173.67241495851513
271;271;1449492486;2.14806771278;0.8056693077089999;0.0681307911873;2;True;40;2;173.67241495851513
272;272;1449492486;2.14802289009;0.805680572987;0.06816654652359999;2;True;40;2;173.67241495851513
273;273;1449492486;2.1481268405900003;0.805689632893;0.068225376308;2;True;40;2;173.67241495851513
274;274;1449492486;2.1479640007;0.805540680885;0.06822295486930001;2;True;40;2;173.67241495851513
275;275;1449492486;2.14811205864;0.805756986141;0.068203240633;2;True;40;2;173.67241495851513
276;276;1449492486;2.14808607101;0.8057833909990001;0.068182528019;2;True;40;2;173.67241495851513
277;277;1449492486;2.1481142044099997;0.8056998252869999;0.0681964308023;2;True;40;2;173.67241495851513
278;278;1449492486;2.14814352989;0.805800020695;0.068150781095;2;True;40;2;173.67241495851513
279;279;1449492486;2.14810395241;0.805758595467;0.0681288614869;2;True;40;2;173.67241495851513
280;280;1449492486;2.14806032181;0.805716395378;0.06818441301580001;2;True;40;2;173.67241495851513
281;281;1449492486;2.14800071716;0.8057126998899999;0.06813970208169999;2;True;40;2;173.67241495851513
282;282;1449492486;2.1481170654299997;0.805769622326;0.0681983456016;2;True;40;2;173.67241495851513
283;283;1449492486;2.1480910778;0.8057758808140001;0.06821153312919999;2;True;40;2;173.67241495851513
284;284;1449492486;2.1480531692500002;0.805683970451;0.0681183487177;2;True;40;2;173.67241495851513
285;285;1449492486;2.14806365967;0.805748820305;0.0681918859482;2;True;40;2;173.67241495851513
286;286;1449492486;2.14803314209;0.8056860566140001;0.0681969374418;2;True;40;2;173.67241495851513
287;287;1449492486;2.1481194496200002;0.805712997913;0.0681761875749;2;True;40;2;173.67241495851513
288;288;1449492486;2.14808154106;0.805743515491;0.0681141912937;2;True;40;2;173.67241495851513
289;289;1449492486;2.1480269432099997;0.8056030869480001;0.0681963339448;2;True;40;2;173.67241495851513
290;290;1449492486;2.1481294632;0.8058391213420001;0.0681389197707;2;True;40;2;173.67241495851513
291;291;1449492486;2.1480574607799996;0.805659472942;0.0681428909302;2;True;40;2;173.67241495851513
292;292;1449492486;2.14805388451;0.8057334423070001;0.0681490972638;2;True;40;2;173.67241495851513
293;293;1449492486;2.14808011055;0.805750370026;0.06809163093569999;2;True;40;2;173.67241495851513
294;294;1449492486;2.1481227874799997;0.8057576417919999;0.0680991709232;2;True;40;2;173.67241495851513
295;295;1449492486;2.14803934097;0.805754721165;0.0680568367243;2;True;40;2;173.67241495851513
296;296;1449492486;2.14796042442;0.805569112301;0.0681489035487;2;True;40;2;173.67241495851513
297;297;1449492486;2.14808416367;0.805724680424;0.0681156516075;2;True;40;2;173.67241495851513
298;298;1449492486;2.1479575634;0.805621564388;0.0680595561862;2;True;40;2;173.67241495851513
299;299;1449492486;2.1480448246;0.805694103241;0.0681267082691;2;True;40;2;173.67241495851513
300;300;1449492486;2.14807534218;0.8057331442829999;0.0680904835463;2;True;40;2;173.67241495851513
301;301;1449492486;2.14804387093;0.80566072464;0.0681247338653;2;True;40;2;173.67241495851513
302;302;1449492486;2.14806199074;0.805707514286;0.0680749863386;2;True;40;2;173.67241495851513
303;303;1449492486;2.14803886414;0.805737018585;0.0681186839938;2;True;40;2;173.67241495851513
304;304;1449492486;2.1480414867400004;0.805739283562;0.0680498331785;2;True;40;2;173.67241495851513
305;305;1449492486;2.14798951149;0.805711507797;0.0681174322963;2;True;40;2;173.67241495851513
306;306;1449492486;2.1480877399400002;0.805684566498;0.0681721940637;2;True;40;2;173.67241495851513
307;307;1449492486;2.14807629585;0.805716335773;0.06807035952809999;2;True;40;2;173.67241495851513
308;308;1449492486;2.14801764488;0.8056856393809999;0.0681048110127;2;True;40;2;173.67241495851513
309;309;1449492486;2.14805173874;0.805712997913;0.06808829307559999;2;True;40;2;173.67241495851513
310;310;1449492486;2.1479427814500003;0.8056098818780001;0.06804896891119999;2;True;40;2;173.67241495851513
311;311;1449492486;2.14801907539;0.805684626102;0.0681001096964;2;True;40;2;173.67241495851513
312;312;1449492486;2.14805412292;0.805709183216;0.0680902823806;2;True;40;2;173.67241495851513
313;313;1449492486;2.14802026749;0.805705189705;0.0680525898933;2;True;40;2;173.67241495851513
314;314;1449492486;2.14803409576;0.8056772351260001;0.06810630112890001;2;True;40;2;173.67241495851513
315;315;1449492486;2.14797258377;0.8057134151459999;0.06807280331849999;2;True;40;2;173.67241495851513
316;316;1449492486;2.1480441093400002;0.805720567703;0.0680390819907;2;True;40;2;173.67241495851513
317;317;1449492486;2.14802861214;0.8057312369349999;0.068094715476;2;True;40;2;173.67241495851513
318;318;1449492486;2.14799714088;0.805699467659;0.0680297166109;2;True;40;2;173.67241495851513
319;319;1449492486;2.14798974991;0.805689573288;0.0680931508541;2;True;40;2;173.67241495851513
320;320;1449492486;2.1480023860900004;0.8057032227519999;0.06803360581399999;2;True;40;2;173.67241495851513
321;321;1449492486;2.14793324471;0.805587947369;0.0681000351906;2;True;40;2;173.67241495851513
322;322;1449492486;2.14802742004;0.805682063103;0.0680923685431;2;True;40;2;173.67241495851513
323;323;1449492486;2.14797568321;0.805695354939;0.0680353343487;2;True;40;2;173.67241495851513
324;324;1449492486;2.14793729782;0.8055808544159999;0.0681170672178;2;True;40;2;173.67241495851513
325;325;1449492486;2.14802742004;0.805697262287;0.0680955275893;2;True;40;2;173.67241495851513
326;326;1449492486;2.14803528786;0.805708110332;0.0680437758565;2;True;40;2;173.67241495851513
327;327;1449492486;2.14789390564;0.8055508732800001;0.0680956095457;2;True;40;2;173.67241495851513
328;328;1449492486;2.1479744911200003;0.805648267269;0.0680639967322;2;True;40;2;173.67241495851513
329;329;1449492486;2.14801263809;0.8057117462160001;0.0680388212204;2;True;40;2;173.67241495851513
330;330;1449492486;2.1480157375299997;0.805708765984;0.06802473962309999;2;True;40;2;173.67241495851513
331;331;1449492486;2.1480374336200003;0.8057049512860001;0.0680752545595;2;True;40;2;173.67241495851513
332;332;1449492486;2.1479482650799997;0.805698037148;0.0680510476232;2;True;40;2;173.67241495851513
333;333;1449492486;2.14804196358;0.80567419529;0.0681093409657;2;True;40;2;173.67241495851513
334;334;1449492486;2.1479625701900003;0.805677056313;0.0680306553841;2;True;40;2;173.67241495851513
335;335;1449492486;2.1479938030200003;0.8057134151459999;0.0680856108665;2;True;40;2;173.67241495851513
336;336;1449492486;2.14802360535;0.805680036545;0.06805927306409999;2;True;40;2;173.67241495851513
337;337;1449492486;2.1480610370599997;0.8056888580320001;0.06811120361089999;2;True;40;2;173.67241495851513
338;338;1449492486;2.14807200432;0.8057291507719999;0.06806392222640001;2;True;40;2;173.67241495851513
339;339;1449492486;2.1480369567900004;0.8057222366329999;0.0680467709899;2;True;40;2;173.67241495851513
340;340;1449492486;2.14804673195;0.805730819702;0.0681008696556;2;True;40;2;173.67241495851513
341;341;1449492486;2.14801669121;0.805714726448;0.0681000202894;2;True;40;2;173.67241495851513
342;342;1449492486;2.14794611931;0.805565416813;0.0681366398931;2;True;40;2;173.67241495851513
343;343;1449492486;2.14805173874;0.805786788464;0.0680420994759;2;True;40;2;173.67241495851513
344;344;1449492486;2.1480705738099997;0.805730760098;0.0680805966258;2;True;40;2;173.67241495851513
345;345;1449492486;2.14807319641;0.805725157261;0.06807480752469999;2;True;40;2;173.67241495851513
346;346;1449492486;2.14793896675;0.805536925793;0.0681570768356;2;True;40;2;173.67241495851513
347;347;1449492486;2.1480865478499998;0.805687189102;0.0681471079588;2;True;40;2;173.67241495851513
348;348;1449492486;2.14806389809;0.805745780468;0.0680718123913;2;True;40;2;173.67241495851513
349;349;1449492486;2.14798593521;0.8056127429009999;0.0681213289499;2;True;40;2;173.67241495851513
350;350;1449492486;2.1480209827400003;0.805597424507;0.06817997246980001;2;True;40;2;173.67241495851513
351;351;1449492486;2.14797997475;0.805596113205;0.0681321918964;2;True;40;2;173.67241495851513
352;352;1449492486;2.14804768562;0.80575978756;0.06805562973019999;2;True;40;2;173.67241495851513
353;353;1449492486;2.14793801308;0.80559194088;0.0680721700191;2;True;40;2;173.67241495851513
354;354;1449492486;2.14807224274;0.805678427219;0.0681808739901;2;True;40;2;173.67241495851513
355;355;1449492486;2.14812994003;0.805682301521;0.0682080164552;2;True;40;2;173.67241495851513
356;356;1449492486;2.14802742004;0.805612444878;0.06815325468780001;2;True;40;2;173.67241495851513
357;357;1449492486;2.1480078697200002;0.805598318577;0.06816222518680001;2;True;40;2;173.67241495851513
358;358;1449492486;2.14809584618;0.8057445883750001;0.0681295245886;2;True;40;2;173.67241495851513
359;359;1449492486;2.14791417122;0.805516541004;0.0681910663843;2;True;40;2;173.67241495851513
360;360;1449492486;2.14806437492;0.805738031864;0.0681605786085;2;True;40;2;173.67241495851513
361;361;1449492486;2.14811611176;0.805738270283;0.06814434379340001;2;True;40;2;173.67241495851513
362;362;1449492486;2.14810180664;0.8057066202159999;0.06817574054;2;True;40;2;173.67241495851513
363;363;1449492486;2.14806556702;0.805712580681;0.0680991336703;2;True;40;2;173.67241495851513
364;364;1449492486;2.1480016708400003;0.805673718452;0.0681282356381;2;True;40;2;173.67241495851513
365;365;1449492486;2.14808416367;0.805738270283;0.06813815981150001;2;True;40;2;173.67241495851513
366;366;1449492486;2.14799427986;0.805645883083;0.0682103335857;2;True;40;2;173.67241495851513
367;367;1449492486;2.14810776711;0.805732727051;0.06814417243;2;True;40;2;173.67241495851513
368;368;1449492486;2.14802002907;0.8055978417399999;0.06822080910209999;2;True;40;2;173.67241495851513
369;369;1449492486;2.14801716805;0.8055944442749999;0.0682098716497;2;True;40;2;173.67241495851513
370;370;1449492486;2.1480221748400004;0.805585026741;0.0681897997856;2;True;40;2;173.67241495851513
371;371;1449492486;2.14807534218;0.8057379126549999;0.0681769177318;2;True;40;2;173.67241495851513
372;372;1449492486;2.14810156822;0.805755734444;0.06818393617869999;2;True;40;2;173.67241495851513
373;373;1449492486;2.14807152748;0.8057010173800001;0.0681598931551;2;True;40;2;173.67241495851513
374;374;1449492486;2.1480951309200003;0.805783510208;0.0680936947465;2;True;40;2;173.67241495851513
375;375;1449492486;2.14806771278;0.805682182312;0.0680974274874;2;True;40;2;173.67241495851513
376;376;1449492486;2.1479985714;0.8055693507189999;0.0682091340423;2;True;40;2;173.67241495851513
377;377;1449492486;2.14798521996;0.805566608906;0.0682110115886;2;True;40;2;173.67241495851513
378;378;1449492486;2.1480894088699998;0.805681705475;0.0681872293353;2;True;40;2;173.67241495851513
379;379;1449492486;2.14805102348;0.805680036545;0.06816443055869999;2;True;40;2;173.67241495851513
380;380;1449492486;2.14805960655;0.8057366609569999;0.0681667402387;2;True;40;2;173.67241495851513
381;381;1449492486;2.14798998833;0.805559456348;0.0681952014565;2;True;40;2;173.67241495851513
382;382;1449492486;2.14795517921;0.805547177792;0.06820132583380001;2;True;40;2;173.67241495851513
383;383;1449492486;2.14805674553;0.8056296110150001;0.068169362843;2;True;40;2;173.67241495851513
384;384;1449492486;2.14798521996;0.805695593357;0.06812464445830001;2;True;40;2;173.67241495851513
385;385;1449492486;2.14809250832;0.805713295937;0.068120457232;2;True;40;2;173.67241495851513
386;386;1449492486;2.1480474472;0.8056596517560001;0.0681023076177;2;True;40;2;173.67241495851513
387;387;1449492486;2.1480560302700002;0.805700421333;0.06810002774;2;True;40;2;173.67241495851513
388;388;1449492486;2.1480023860900004;0.8056100010870001;0.0681942850351;2;True;40;2;173.67241495851513
389;389;1449492486;2.1480755806;0.8057039380069999;0.0681295990944;2;True;40;2;173.67241495851513
390;390;1449492486;2.14804363251;0.805663943291;0.0681922957301;2;True;40;2;173.67241495851513
391;391;1449492486;2.14807009697;0.805699169636;0.0680871754885;2;True;40;2;173.67241495851513
392;392;1449492486;2.1480498313900003;0.805688202381;0.06808291375640001;2;True;40;2;173.67241495851513
393;393;1449492486;2.14798045158;0.805569410324;0.0681918263435;2;True;40;2;173.67241495851513
394;394;1449492486;2.1480805873900004;0.805729389191;0.068096190691;2;True;40;2;173.67241495851513
395;395;1449492486;2.14796185493;0.805705785751;0.06809446960690001;2;True;40;2;173.67241495851513
396;396;1449492486;2.14799261093;0.8056010603899999;0.0681521445513;2;True;40;2;173.67241495851513
397;397;1449492486;2.14798045158;0.805707812309;0.0681070461869;2;True;40;2;173.67241495851513
398;398;1449492486;2.14805912971;0.8057324290279999;0.0680921599269;2;True;40;2;173.67241495851513
399;399;1449492486;2.1479883194;0.805579066277;0.0681676641107;2;True;40;2;173.67241495851513
400;400;1449492486;2.14808630943;0.8057106137279999;0.068134881556;2;True;40;2;173.67241495851513
401;401;1449492486;2.14803862572;0.805720031261;0.0681382119656;2;True;40;2;173.67241495851513
402;402;1449492486;2.1480574607799996;0.805746912956;0.0681444481015;2;True;40;2;173.67241495851513
403;403;1449492486;2.14805221558;0.8057331442829999;0.0680691227317;2;True;40;2;173.67241495851513
404;404;1449492486;2.14800739288;0.805610954762;0.0681691244245;2;True;40;2;173.67241495851513
405;405;1449492486;2.1480693817099996;0.8057074546809999;0.068141207099;2;True;40;2;173.67241495851513
406;406;1449492486;2.1480343341799997;0.8056635260580001;0.06808901578189999;2;True;40;2;173.67241495851513
407;407;1449492486;2.14805102348;0.8056904077529999;0.0681407377124;2;True;40;2;173.67241495851513
408;408;1449492486;2.1479706764200004;0.8057078719140001;0.0681000873446;2;True;40;2;173.67241495851513
409;409;1449492486;2.14801001549;0.8056595325470001;0.06814511120319999;2;True;40;2;173.67241495851513
410;410;1449492486;2.14806556702;0.805749952793;0.0680765882134;2;True;40;2;173.67241495851513
411;411;1449492486;2.14804887772;0.805669248104;0.0680939108133;2;True;40;2;173.67241495851513
412;412;1449492486;2.14803719521;0.805700302124;0.0680802613497;2;True;40;2;173.67241495851513
413;413;1449492486;2.1480858326;0.805759191513;0.0681423991919;2;True;40;2;173.67241495851513
414;414;1449492486;2.1480038166;0.805670082569;0.0681053102016;2;True;40;2;173.67241495851513
415;415;1449492486;2.14804434776;0.8056908249860001;0.0681265890598;2;True;40;2;173.67241495851513
416;416;1449492486;2.14801383018;0.805653989315;0.06811778992409999;2;True;40;2;173.67241495851513
417;417;1449492486;2.14800214767;0.805693686008;0.068058848381;2;True;40;2;173.67241495851513
418;418;1449492486;2.14804077148;0.8057007193569999;0.0681371316314;2;True;40;2;173.67241495851513
419;419;1449492486;2.14800739288;0.8056997656820001;0.0680664181709;2;True;40;2;173.67241495851513
420;420;1449492486;2.1479308605200003;0.805558383465;0.0681536644697;2;True;40;2;173.67241495851513
421;421;1449492486;2.1479699611700003;0.8055868744850001;0.0681363195181;2;True;40;2;173.67241495851513
422;422;1449492486;2.1480343341799997;0.805734097958;0.06804687529799999;2;True;40;2;173.67241495851513
423;423;1449492486;2.14803624153;0.8056908249860001;0.06816069036719999;2;True;40;2;173.67241495851513
424;424;1449492486;2.14798474312;0.805723726749;0.0681003779173;2;True;40;2;173.67241495851513
425;425;1449492486;2.14804053307;0.8057496547699999;0.0681434050202;2;True;40;2;173.67241495851513
426;426;1449492486;2.1480417251599997;0.80574452877;0.06808450073;2;True;40;2;173.67241495851513
427;427;1449492486;2.14795041084;0.805576980114;0.0681543052197;2;True;40;2;173.67241495851513
428;428;1449492486;2.14805531502;0.8057141304019999;0.0680988132954;2;True;40;2;173.67241495851513
429;429;1449492486;2.14806199074;0.805718541145;0.0681103244424;2;True;40;2;173.67241495851513
430;430;1449492486;2.14805626869;0.805740833282;0.0680661872029;2;True;40;2;173.67241495851513
431;431;1449492486;2.14796090126;0.805598258972;0.0681219771504;2;True;40;2;173.67241495851513
432;432;1449492486;2.1480276584599998;0.80574041605;0.06812052428719999;2;True;40;2;173.67241495851513
433;433;1449492486;2.14804911613;0.8057304620739999;0.0680784210563;2;True;40;2;173.67241495851513
434;434;1449492486;2.14802122116;0.805736780167;0.0681161135435;2;True;40;2;173.67241495851513
435;435;1449492486;2.14804840088;0.8057173490520001;0.06809691339730001;2;True;40;2;173.67241495851513
436;436;1449492486;2.14801168442;0.805671751499;0.0681388676167;2;True;40;2;173.67241495851513
437;437;1449492486;2.14808297157;0.8057362437250001;0.0680737346411;2;True;40;2;173.67241495851513
438;438;1449492486;2.14796662331;0.805709123611;0.0681072250009;2;True;40;2;173.67241495851513
439;439;1449492486;2.1479640007;0.805597305298;0.06816148012880001;2;True;40;2;173.67241495851513
440;440;1449492486;2.1480650901800002;0.805770158768;0.0680710226297;2;True;40;2;173.67241495851513
441;441;1449492486;2.14804458618;0.805700659752;0.06812573224309999;2;True;40;2;173.67241495851513
442;442;1449492486;2.14791321754;0.8055813908580001;0.0680551677942;2;True;40;2;173.67241495851513
443;443;1449492486;2.1480658054400004;0.8057534694670001;0.0681403204799;2;True;40;2;173.67241495851513
444;444;1449492486;2.1480560302700002;0.8057520985600001;0.06805156916380001;2;True;40;2;173.67241495851513
445;445;1449492486;2.14811682701;0.805776834488;0.0680642277002;2;True;40;2;173.67241495851513
446;446;1449492486;2.14802598953;0.805696487427;0.0680904462934;2;True;40;2;173.67241495851513
447;447;1449492486;2.14808249474;0.805740773678;0.0680799111724;2;True;40;2;173.67241495851513
448;448;1449492486;2.1480832099900002;0.805760860443;0.06812973320480001;2;True;40;2;173.67241495851513
449;449;1449492486;2.14804911613;0.805738389492;0.0680379346013;2;True;40;2;173.67241495851513
450;450;1449492486;2.14801335335;0.80561286211;0.0681673288345;2;True;40;2;173.67241495851513
451;451;1449492486;2.14797329903;0.805570304394;0.0681643635035;2;True;40;2;173.67241495851513
452;452;1449492486;2.14806342125;0.805704891682;0.06807241588830001;2;True;40;2;173.67241495851513
453;453;1449492486;2.14802241325;0.805658698082;0.0681155323982;2;True;40;2;173.67241495851513
454;454;1449492486;2.14795398712;0.80555254221;0.068156465888;2;True;40;2;173.67241495851513
455;455;1449492486;2.14797019958;0.805658042431;0.0680795460939;2;True;40;2;173.67241495851513
456;456;1449492486;2.1480143070200004;0.805712938309;0.0680807828903;2;True;40;2;173.67241495851513
457;457;1449492486;2.14807319641;0.805757939816;0.0680693462491;2;True;40;2;173.67241495851513
458;458;1449492486;2.14808249474;0.8057641983030001;0.06814386695619999;2;True;40;2;173.67241495851513
459;459;1449492486;2.14797234535;0.805629134178;0.0680662989616;2;True;40;2;173.67241495851513
460;460;1449492486;2.1480846405;0.805758118629;0.0680775418878;2;True;40;2;173.67241495851513
461;461;1449492486;2.1480858326;0.80576634407;0.0680740699172;2;True;40;2;173.67241495851513
462;462;1449492486;2.14807701111;0.8057570457459999;0.0680747106671;2;True;40;2;173.67241495851513
463;463;1449492486;2.14808964729;0.805714726448;0.0681186020374;2;True;40;2;173.67241495851513
464;464;1449492486;2.14794778824;0.8055623769760001;0.0681564509869;2;True;40;2;173.67241495851513
465;465;1449492486;2.14804339409;0.8057082295419999;0.0680567398667;2;True;40;2;173.67241495851513
466;466;1449492486;2.14807152748;0.805723249912;0.06809254735709999;2;True;40;2;173.67241495851513
467;467;1449492486;2.1479749679599998;0.8055983781810001;0.0681697651744;2;True;40;2;173.67241495851513
468;468;1449492486;2.14805412292;0.805705070496;0.0681298449636;2;True;40;2;173.67241495851513
469;469;1449492486;2.1480853557599997;0.805751144886;0.0680781304836;2;True;40;2;173.67241495851513
470;470;1449492486;2.14802241325;0.805677890778;0.0681033432484;2;True;40;2;173.67241495851513
471;471;1449492486;2.1479482650799997;0.805560827255;0.0681739598513;2;True;40;2;173.67241495851513
472;472;1449492486;2.14806628227;0.8056940436360001;0.068152397871;2;True;40;2;173.67241495851513
473;473;1449492486;2.14804887772;0.805704295635;0.0680936127901;2;True;40;2;173.67241495851513
474;474;1449492486;2.14797329903;0.8055806756020001;0.0681677982211;2;True;40;2;173.67241495851513
475;475;1449492486;2.14805388451;0.8056939244269999;0.0681497007608;2;True;40;2;173.67241495851513
476;476;1449492486;2.14809036255;0.8057187795640001;0.0680821239948;2;True;40;2;173.67241495851513
477;477;1449492486;2.14807009697;0.8056922554970001;0.0681022331119;2;True;40;2;173.67241495851513
478;478;1449492486;2.1480779647799997;0.8057074546809999;0.0681292042136;2;True;40;2;173.67241495851513
479;479;1449492486;2.14793682098;0.805537819862;0.0681645870209;2;True;40;2;173.67241495851513
480;480;1449492486;2.14807534218;0.8057291507719999;0.0680868625641;2;True;40;2;173.67241495851513
481;481;1449492486;2.1480498313900003;0.8057100176809999;0.0680789574981;2;True;40;2;173.67241495851513
482;482;1449492486;2.14808416367;0.805714488029;0.0681222081184;2;True;40;2;173.67241495851513
483;483;1449492486;2.14803314209;0.805694699287;0.068111024797;2;True;40;2;173.67241495851513
484;484;1449492486;2.14802265167;0.8057141304019999;0.0681468620896;2;True;40;2;173.67241495851513
485;485;1449492486;2.14805102348;0.805671155453;0.068091660738;2;True;40;2;173.67241495851513
486;486;1449492487;2.14802908897;0.805647552013;0.06818450987340001;3;True;40;2;173.67241495851513
487;487;1449492487;2.1480576992;0.80571860075;0.06810002774;3;True;40;2;173.67241495851513
488;488;1449492487;2.14806628227;0.805724680424;0.0680992677808;3;True;40;2;173.67241495851513
489;489;1449492487;2.14812588692;0.805798172951;0.0681225061417;3;True;40;2;173.67241495851513
490;490;1449492487;2.1480314731599996;0.805726826191;0.06816530227659999;3;True;40;2;173.67241495851513
491;491;1449492487;2.14799261093;0.8056595921520001;0.0681095868349;3;True;40;2;173.67241495851513
492;492;1449492487;2.1479496955900004;0.805593311787;0.0681013911963;3;True;40;2;173.67241495851513
493;493;1449492487;2.14808630943;0.8057443499570001;0.0681034475565;3;True;40;2;173.67241495851513
494;494;1449492487;2.14810037613;0.805736303329;0.0680852681398;3;True;40;2;173.67241495851513
495;495;1449492487;2.1480343341799997;0.8057243227959999;0.0680621117353;3;True;40;2;173.67241495851513
496;496;1449492487;2.1480462551099997;0.805660068989;0.0681577324867;3;True;40;2;173.67241495851513
497;497;1449492487;2.14798521996;0.80556678772;0.0681962072849;3;True;40;2;173.67241495851513
498;498;1449492487;2.14810681343;0.805779755116;0.0681310147047;3;True;40;2;173.67241495851513
499;499;1449492487;2.14792323112;0.8055221438410001;0.06818643957380001;3;True;40;2;173.67241495851513
500;500;1449492487;2.1480062007900003;0.805653750896;0.068140052259;3;True;40;2;173.67241495851513
501;501;1449492487;2.14806056023;0.805678486824;0.06815219670530001;3;True;40;2;173.67241495851513
502;502;1449492487;2.14804315567;0.805670201778;0.06816352158780001;3;True;40;2;173.67241495851513
503;503;1449492487;2.1480858326;0.8057051301;0.0681354925036;3;True;40;2;173.67241495851513
504;504;1449492487;2.1480588913;0.8057260513310001;0.06813190132380001;3;True;40;2;173.67241495851513
505;505;1449492487;2.14811635017;0.805800616741;0.0681271925569;3;True;40;2;173.67241495851513
506;506;1449492487;2.1480658054400004;0.805765450001;0.06817805022000001;3;True;40;2;173.67241495851513
507;507;1449492487;2.14806723595;0.8057024478910001;0.0681006088853;3;True;40;2;173.67241495851513
508;508;1449492487;2.14806079865;0.805734097958;0.0680910944939;3;True;40;2;173.67241495851513
509;509;1449492487;2.14801621437;0.805665135384;0.0681273341179;3;True;40;2;173.67241495851513
510;510;1449492487;2.14796900749;0.805567741394;0.0681517347693;3;True;40;2;173.67241495851513
511;511;1449492487;2.1479473114;0.8055465221410001;0.0681742727757;3;True;40;2;173.67241495851513
512;512;1449492487;2.14804840088;0.805692672729;0.06809262186290001;3;True;40;2;173.67241495851513
513;513;1449492487;2.14809250832;0.8057011961939999;0.0681525617838;3;True;40;2;173.67241495851513
514;514;1449492487;2.14808416367;0.8056923151019999;0.0681557953358;3;True;40;2;173.67241495851513
515;515;1449492487;2.14808154106;0.8056976795199999;0.06808724999429999;3;True;40;2;173.67241495851513
516;516;1449492487;2.1480734348299997;0.805724740028;0.0681298002601;3;True;40;2;173.67241495851513
517;517;1449492487;2.14792156219;0.8055896162989999;0.06808476150039999;3;True;40;2;173.67241495851513
518;518;1449492487;2.14804506302;0.805684864521;0.0681249946356;3;True;40;2;173.67241495851513
519;519;1449492487;2.14801931381;0.805709064007;0.0681381449103;3;True;40;2;173.67241495851513
520;520;1449492487;2.14799427986;0.805657982826;0.0680853277445;3;True;40;2;173.67241495851513
521;521;1449492487;2.14794611931;0.805638372898;0.0681065693498;3;True;40;2;173.67241495851513
522;522;1449492487;2.1480281353;0.805668830872;0.06813190132380001;3;True;40;2;173.67241495851513
523;523;1449492487;2.14804458618;0.805736780167;0.06806638091799999;3;True;40;2;173.67241495851513
524;524;1449492487;2.14801692963;0.805712461472;0.0681086033583;3;True;40;2;173.67241495851513
525;525;1449492487;2.14803385735;0.8057316541670001;0.0681277289987;3;True;40;2;173.67241495851513
526;526;1449492487;2.14802670479;0.8056781291959999;0.06805790215730001;3;True;40;2;173.67241495851513
527;527;1449492487;2.14808154106;0.80573117733;0.0680752843618;3;True;40;2;173.67241495851513
528;528;1449492487;2.1480894088699998;0.805686235428;0.06815533339980001;3;True;40;2;173.67241495851513
529;529;1449492487;2.1480515003200003;0.805752575397;0.06805775314569999;3;True;40;2;173.67241495851513
530;530;1449492487;2.1480462551099997;0.805738985538;0.06814174354079999;3;True;40;2;173.67241495851513
531;531;1449492487;2.14802384377;0.805687367916;0.0681261941791;3;True;40;2;173.67241495851513
532;532;1449492487;2.1480512619;0.8057494163510001;0.0680607408285;3;True;40;2;173.67241495851513
533;533;1449492487;2.14802718163;0.805734395981;0.0681330785155;3;True;40;2;173.67241495851513
534;534;1449492487;2.14806294441;0.805734574795;0.0680660232902;3;True;40;2;173.67241495851513
535;535;1449492487;2.14794325829;0.805553913116;0.0681583657861;3;True;40;2;173.67241495851513
536;536;1449492487;2.14811515808;0.8058003783230001;0.0680927336216;3;True;40;2;173.67241495851513
537;537;1449492487;2.1480455398599996;0.8056866526600001;0.06812958419319999;3;True;40;2;173.67241495851513
538;538;1449492487;2.14795470238;0.8055637478829999;0.0681483522058;3;True;40;2;173.67241495851513
539;539;1449492487;2.1480221748400004;0.805689573288;0.0681394413114;3;True;40;2;173.67241495851513
540;540;1449492487;2.14806318283;0.8057208657260001;0.06805942952630001;3;True;40;2;173.67241495851513
541;541;1449492487;2.1480343341799997;0.805716574192;0.068048030138;3;True;40;2;173.67241495851513
542;542;1449492487;2.1480119228400003;0.805688500404;0.0681176111102;3;True;40;2;173.67241495851513
543;543;1449492487;2.1480395793900002;0.80566316843;0.06807826459409999;3;True;40;2;173.67241495851513
544;544;1449492487;2.14805960655;0.8057059049609999;0.06812998652459999;3;True;40;2;173.67241495851513
545;545;1449492487;2.14803671837;0.805737793446;0.0681327357888;3;True;40;2;173.67241495851513
546;546;1449492487;2.14796590805;0.805579960346;0.068161174655;3;True;40;2;173.67241495851513
547;547;1449492487;2.14803576469;0.805730700493;0.0680571645498;3;True;40;2;173.67241495851513
548;548;1449492487;2.1480462551099997;0.805725216866;0.06805659830569999;3;True;40;2;173.67241495851513
549;549;1449492487;2.1480565071099997;0.8056940436360001;0.0680554658175;3;True;40;2;173.67241495851513
550;550;1449492487;2.14801335335;0.805672824383;0.0681176409125;3;True;40;2;173.67241495851513
551;551;1449492487;2.14805793762;0.805735886097;0.0680589005351;3;True;40;2;173.67241495851513
552;552;1449492487;2.14810633659;0.805721759796;0.06812094897030001;3;True;40;2;173.67241495851513
553;553;1449492487;2.147990942;0.80560952425;0.0681498721242;3;True;40;2;173.67241495851513
554;554;1449492487;2.1480808258099997;0.8057396411900001;0.0680734887719;3;True;40;2;173.67241495851513
555;555;1449492487;2.14807581902;0.805730104446;0.0680750533938;3;True;40;2;173.67241495851513
556;556;1449492487;2.14805054665;0.805727362633;0.0680663883686;3;True;40;2;173.67241495851513
557;557;1449492487;2.14795923233;0.805720984936;0.0680851489305;3;True;40;2;173.67241495851513
558;558;1449492487;2.14804244041;0.8056704998019999;0.0680769383907;3;True;40;2;173.67241495851513
559;559;1449492487;2.1480658054400004;0.805742263794;0.0680663958192;3;True;40;2;173.67241495851513
560;560;1449492487;2.14807701111;0.8057045340539999;0.06812360137699999;3;True;40;2;173.67241495851513
561;561;1449492487;2.1480576992;0.805726885796;0.0680642947555;3;True;40;2;173.67241495851513
562;562;1449492487;2.14807462692;0.805737376213;0.068084448576;3;True;40;2;173.67241495851513
563;563;1449492487;2.14806365967;0.805753827095;0.0680587738752;3;True;40;2;173.67241495851513
564;564;1449492487;2.14802265167;0.8057316541670001;0.0681203305721;3;True;40;2;173.67241495851513
565;565;1449492487;2.14791870117;0.805592477322;0.0680563747883;3;True;40;2;173.67241495851513
566;566;1449492487;2.14800858498;0.8056514859199999;0.0681664273143;3;True;40;2;173.67241495851513
567;567;1449492487;2.14804363251;0.805699169636;0.0681409165263;3;True;40;2;173.67241495851513
568;568;1449492487;2.14796948433;0.8055812716480001;0.0681632012129;3;True;40;2;173.67241495851513
569;569;1449492487;2.14800477028;0.805617451668;0.0681416988373;3;True;40;2;173.67241495851513
570;570;1449492487;2.14806771278;0.8056940436360001;0.0681479051709;3;True;40;2;173.67241495851513
571;571;1449492487;2.1479778289800002;0.805658876896;0.06808827817440001;3;True;40;2;173.67241495851513
572;572;1449492487;2.14799284935;0.805603325367;0.0681715011597;3;True;40;2;173.67241495851513
573;573;1449492487;2.1480615138999997;0.8057582378389999;0.068139500916;3;True;40;2;173.67241495851513
574;574;1449492487;2.14805173874;0.8057397603990001;0.0681441649795;3;True;40;2;173.67241495851513
575;575;1449492487;2.1479833126099996;0.80569678545;0.06811568140980001;3;True;40;2;173.67241495851513
576;576;1449492487;2.14799261093;0.805611729622;0.0681763514876;3;True;40;2;173.67241495851513
577;577;1449492487;2.14807701111;0.805743396282;0.068085283041;3;True;40;2;173.67241495851513
578;578;1449492487;2.14797401428;0.805676281452;0.0680930316448;3;True;40;2;173.67241495851513
579;579;1449492487;2.1480576992;0.805675566196;0.0681557878852;3;True;40;2;173.67241495851513
580;580;1449492487;2.1480765342700003;0.805703818798;0.0681331381202;3;True;40;2;173.67241495851513
581;581;1449492487;2.14806723595;0.805691242218;0.0681417360902;3;True;40;2;173.67241495851513
582;582;1449492487;2.14807248116;0.8057438731190001;0.0681196153164;3;True;40;2;173.67241495851513
583;583;1449492487;2.1479010582;0.8055170178409999;0.0681703910232;3;True;40;2;173.67241495851513
584;584;1449492487;2.14806079865;0.805677592754;0.0681494995952;3;True;40;2;173.67241495851513
585;585;1449492487;2.1480185985599998;0.8055961728100001;0.0682008042932;3;True;40;2;173.67241495851513
586;586;1449492487;2.1479749679599998;0.80557513237;0.06818138062950001;3;True;40;2;173.67241495851513
587;587;1449492487;2.14803195;0.80571860075;0.0681615844369;3;True;40;2;173.67241495851513
588;588;1449492487;2.1480572223700003;0.805695950985;0.0681014582515;3;True;40;2;173.67241495851513
589;589;1449492487;2.14794802666;0.805659472942;0.0681313574314;3;True;40;2;173.67241495851513
590;590;1449492487;2.14806199074;0.805725395679;0.06812455505130001;3;True;40;2;173.67241495851513
591;591;1449492487;2.14807462692;0.805734992027;0.068100579083;3;True;40;2;173.67241495851513
592;592;1449492487;2.14803385735;0.805676937103;0.0681310743093;3;True;40;2;173.67241495851513
593;593;1449492487;2.14808273315;0.805725693703;0.0681156665087;3;True;40;2;173.67241495851513
594;594;1449492487;2.14809036255;0.8057037591930001;0.0681223198771;3;True;40;2;173.67241495851513
595;595;1449492487;2.14805436134;0.8056908249860001;0.06811377406119999;3;True;40;2;173.67241495851513
596;596;1449492487;2.14804792404;0.8056439161300001;0.06817250698800001;3;True;40;2;173.67241495851513
597;597;1449492487;2.14806890488;0.8056999444959999;0.0681212618947;3;True;40;2;173.67241495851513
598;598;1449492487;2.14809989929;0.8056759834289999;0.0681658238173;3;True;40;2;173.67241495851513
599;599;1449492487;2.1480307579;0.805681169033;0.0680936574936;3;True;40;2;173.67241495851513
600;600;1449492487;2.14808630943;0.805732905865;0.0681170225143;3;True;40;2;173.67241495851513
601;601;1449492487;2.1480152607;0.805686712265;0.0680982992053;3;True;40;2;173.67241495851513
602;602;1449492487;2.14805436134;0.8057317733759999;0.0681777074933;3;True;40;2;173.67241495851513
603;603;1449492487;2.1480693817099996;0.805751800537;0.06812131404880001;3;True;40;2;173.67241495851513
