;Unnamed: 0;header_stamp_secs;pose_position_x;pose_position_y;pose_position_z;seconds;drop_values;flight_number;label;dtw
0;0;1449493865;2.13825511932;0.804470777512;0.0678766220808;0;True;45;2;173.9848090410377
1;1;1449493865;2.1382753849;0.8044995069499999;0.0678062587976;0;True;45;2;173.9848090410377
2;2;1449493865;2.1382830143000002;0.8044951558110001;0.0679130256176;0;True;45;2;173.9848090410377
3;3;1449493865;2.13824129105;0.8044553995129999;0.06790116429330001;0;True;45;2;173.9848090410377
4;4;1449493865;2.1381652355200003;0.80443662405;0.0678750500083;0;True;45;2;173.9848090410377
5;5;1449493865;2.1381580829599995;0.804420351982;0.06787508726119999;0;True;45;2;173.9848090410377
6;6;1449493865;2.1382761001599997;0.804474651814;0.0678885653615;0;True;45;2;173.9848090410377
7;7;1449493865;2.1382837295500003;0.8045397400859999;0.0677774399519;0;True;45;2;173.9848090410377
8;8;1449493865;2.13827085495;0.804463684559;0.0678349807858;0;True;45;2;173.9848090410377
9;9;1449493865;2.1382904052700002;0.804511368275;0.067790672183;0;True;45;2;173.9848090410377
10;10;1449493865;2.1382727622999997;0.8045546412469999;0.0677728354931;0;True;45;2;173.9848090410377
11;11;1449493865;2.1382761001599997;0.80446434021;0.0678665786982;0;True;45;2;173.9848090410377
12;12;1449493865;2.1382484436;0.804456174374;0.06789436191319999;0;True;45;2;173.9848090410377
13;13;1449493865;2.1382758617400004;0.804506182671;0.0677917301655;0;True;45;2;173.9848090410377
14;14;1449493865;2.13813376427;0.8044009804729999;0.0678677633405;0;True;45;2;173.9848090410377
15;15;1449493865;2.1382651329;0.804465830326;0.0678924843669;0;True;45;2;173.9848090410377
16;16;1449493865;2.1382803916900004;0.8044963479039999;0.0678245574236;0;True;45;2;173.9848090410377
17;17;1449493865;2.13826227188;0.804495573044;0.0678935647011;0;True;45;2;173.9848090410377
18;18;1449493865;2.13829874992;0.804488360882;0.06789920479059999;0;True;45;2;173.9848090410377
19;19;1449493865;2.1381494998900004;0.804427683353;0.0677701458335;0;True;45;2;173.9848090410377
20;20;1449493865;2.1382565498400004;0.804503500462;0.0678241103888;0;True;45;2;173.9848090410377
21;21;1449493865;2.1382753849;0.804483175278;0.0678640529513;0;True;45;2;173.9848090410377
22;22;1449493865;2.13826060295;0.804464161396;0.0678354427218;0;True;45;2;173.9848090410377
23;23;1449493865;2.1381046772;0.8043786883349999;0.0677791908383;0;True;45;2;173.9848090410377
24;24;1449493865;2.13826322556;0.80457264185;0.0677791163325;0;True;45;2;173.9848090410377
25;25;1449493865;2.1382796764400003;0.804490745068;0.0678899735212;0;True;45;2;173.9848090410377
26;26;1449493865;2.13827633858;0.804493308067;0.06780273467299999;0;True;45;2;173.9848090410377
27;27;1449493865;2.13827753067;0.8045178055760001;0.06778292357919999;0;True;45;2;173.9848090410377
28;28;1449493865;2.13829803467;0.8045117259029999;0.067813590169;0;True;45;2;173.9848090410377
29;29;1449493865;2.13814282417;0.8044285178180001;0.0678068995476;0;True;45;2;173.9848090410377
30;30;1449493865;2.13828277588;0.804538607597;0.0677857771516;0;True;45;2;173.9848090410377
31;31;1449493865;2.13822007179;0.804461658001;0.067811049521;0;True;45;2;173.9848090410377
32;32;1449493865;2.1382784843400002;0.804512381554;0.0678063780069;0;True;45;2;173.9848090410377
33;33;1449493865;2.13829112053;0.804509282112;0.0678033158183;0;True;45;2;173.9848090410377
34;34;1449493865;2.13835906982;0.8045536875720001;0.06783412396909999;0;True;45;2;173.9848090410377
35;35;1449493865;2.1381652355200003;0.804447412491;0.0678827762604;0;True;45;2;173.9848090410377
36;36;1449493865;2.1382405757900003;0.804460048676;0.06788215041159999;0;True;45;2;173.9848090410377
37;37;1449493865;2.13825941086;0.804523050785;0.067810587585;0;True;45;2;173.9848090410377
38;38;1449493865;2.1383535862;0.80456507206;0.0678211078048;0;True;45;2;173.9848090410377
39;39;1449493865;2.1382625103;0.804496407509;0.067897580564;0;True;45;2;173.9848090410377
40;40;1449493865;2.13829660416;0.804556965828;0.0677952319384;0;True;45;2;173.9848090410377
41;41;1449493865;2.1382875442500002;0.804530203342;0.0678165480494;0;True;45;2;173.9848090410377
42;42;1449493865;2.13828229904;0.8045050501819999;0.0678634271026;0;True;45;2;173.9848090410377
43;43;1449493865;2.13811683655;0.804378211498;0.0677914470434;0;True;45;2;173.9848090410377
44;44;1449493865;2.13830685616;0.804528772831;0.0678757950664;0;True;45;2;173.9848090410377
45;45;1449493865;2.13825821877;0.8045015335079999;0.0678934156895;0;True;45;2;173.9848090410377
46;46;1449493865;2.1382727622999997;0.8044674396510001;0.0678542032838;0;True;45;2;173.9848090410377
47;47;1449493865;2.1382863521599997;0.8045157790180001;0.0678087323904;0;True;45;2;173.9848090410377
48;48;1449493865;2.13815069199;0.80441480875;0.06789293885230001;0;True;45;2;173.9848090410377
49;49;1449493865;2.13827371597;0.804520070553;0.0677982419729;0;True;45;2;173.9848090410377
50;50;1449493865;2.1382784843400002;0.80449616909;0.067811742425;0;True;45;2;173.9848090410377
51;51;1449493865;2.13814854622;0.804395854473;0.06775406003;0;True;45;2;173.9848090410377
52;52;1449493865;2.1382060051;0.8044804930689999;0.0678358376026;0;True;45;2;173.9848090410377
53;53;1449493865;2.13827419281;0.804516613483;0.067799679935;0;True;45;2;173.9848090410377
54;54;1449493865;2.1383037567099996;0.8045218586920001;0.0678698793054;0;True;45;2;173.9848090410377
55;55;1449493865;2.13827466965;0.804568469524;0.06779558956619999;0;True;45;2;173.9848090410377
56;56;1449493865;2.13829302788;0.8045219182969999;0.0678499117494;0;True;45;2;173.9848090410377
57;57;1449493865;2.13829493523;0.8044885993;0.0678633078933;0;True;45;2;173.9848090410377
58;58;1449493865;2.13828969002;0.804504036903;0.0679218843579;0;True;45;2;173.9848090410377
59;59;1449493865;2.1383202076;0.804515182972;0.0678448155522;0;True;45;2;173.9848090410377
60;60;1449493865;2.13818621635;0.804449558258;0.0678836256266;0;True;45;2;173.9848090410377
61;61;1449493865;2.13829064369;0.8044742345810001;0.0679137781262;0;True;45;2;173.9848090410377
62;62;1449493865;2.13829493523;0.804532587528;0.0678725391626;0;True;45;2;173.9848090410377
63;63;1449493865;2.1382846832299998;0.804516077042;0.0678126066923;0;True;45;2;173.9848090410377
64;64;1449493865;2.13826322556;0.8044987916949999;0.06790566444400001;0;True;45;2;173.9848090410377
65;65;1449493865;2.13827204704;0.8044755458830001;0.0678384229541;0;True;45;2;173.9848090410377
66;66;1449493865;2.13838458061;0.8045653104780001;0.06785693764690001;0;True;45;2;173.9848090410377
67;67;1449493865;2.13834524155;0.804573357105;0.0678684934974;0;True;45;2;173.9848090410377
68;68;1449493865;2.13817620277;0.804444372654;0.0678808093071;0;True;45;2;173.9848090410377
69;69;1449493865;2.13827943802;0.804512143135;0.0678548514843;0;True;45;2;173.9848090410377
70;70;1449493865;2.13831400871;0.804518699646;0.0678807795048;0;True;45;2;173.9848090410377
71;71;1449493865;2.1382455825799997;0.804487347603;0.0678158253431;0;True;45;2;173.9848090410377
72;72;1449493865;2.13829064369;0.80450463295;0.067816875875;0;True;45;2;173.9848090410377
73;73;1449493865;2.13829350471;0.804493606091;0.0678791180253;0;True;45;2;173.9848090410377
74;74;1449493865;2.13833427429;0.80455416441;0.0678729340434;0;True;45;2;173.9848090410377
75;75;1449493865;2.13817930222;0.8044527173039999;0.0678797662258;0;True;45;2;173.9848090410377
76;76;1449493865;2.13829350471;0.804504513741;0.0678155124187;0;True;45;2;173.9848090410377
77;77;1449493865;2.13814258575;0.804420053959;0.0678127631545;0;True;45;2;173.9848090410377
78;78;1449493865;2.1382918357799996;0.804490506649;0.0678650587797;0;True;45;2;173.9848090410377
79;79;1449493865;2.13815975189;0.804433226585;0.06781617552040001;0;True;45;2;173.9848090410377
80;80;1449493865;2.1382176876099996;0.8044714331630001;0.0678342729807;0;True;45;2;173.9848090410377
81;81;1449493865;2.13831281662;0.804487705231;0.067913480103;0;True;45;2;173.9848090410377
82;82;1449493865;2.13828539848;0.804500877857;0.067914031446;0;True;45;2;173.9848090410377
83;83;1449493865;2.13813233376;0.804406583309;0.0678010284901;0;True;45;2;173.9848090410377
84;84;1449493865;2.1382739543900002;0.804477274418;0.0678816735744;0;True;45;2;173.9848090410377
85;85;1449493865;2.13827943802;0.804482698441;0.0679160431027;0;True;45;2;173.9848090410377
86;86;1449493865;2.13827681541;0.8044791221619999;0.0678906366229;0;True;45;2;173.9848090410377
87;87;1449493865;2.13832187653;0.804500102997;0.0678185746074;0;True;45;2;173.9848090410377
88;88;1449493865;2.13822674751;0.804479420185;0.0678057298064;0;True;45;2;173.9848090410377
89;89;1449493865;2.13817334175;0.804449141026;0.0678155273199;0;True;45;2;173.9848090410377
90;90;1449493865;2.13826560974;0.8044927120209999;0.0678080618382;0;True;45;2;173.9848090410377
91;91;1449493865;2.1383469104799997;0.8045809865000001;0.0678303986788;0;True;45;2;173.9848090410377
92;92;1449493865;2.13827347755;0.804515004158;0.0677945911884;0;True;45;2;173.9848090410377
93;93;1449493865;2.13827943802;0.804556131363;0.067785911262;0;True;45;2;173.9848090410377
94;94;1449493865;2.13828492165;0.80452221632;0.0677915662527;0;True;45;2;173.9848090410377
95;95;1449493865;2.13829493523;0.804522514343;0.0678611621261;0;True;45;2;173.9848090410377
96;96;1449493865;2.1382842063900003;0.804542958736;0.0677933171391;0;True;45;2;173.9848090410377
97;97;1449493865;2.1382830143000002;0.8045169711110001;0.0677916035056;0;True;45;2;173.9848090410377
98;98;1449493865;2.1382899284400003;0.804554879665;0.06779281795020001;0;True;45;2;173.9848090410377
99;99;1449493865;2.13827252388;0.804486691952;0.0679216012359;0;True;45;2;173.9848090410377
100;100;1449493865;2.1382994651800002;0.8045363426209999;0.0678828284144;0;True;45;2;173.9848090410377
101;101;1449493865;2.1382803916900004;0.804497182369;0.06781830638650001;0;True;45;2;173.9848090410377
102;102;1449493865;2.13829565048;0.804554343224;0.0678476989269;0;True;45;2;173.9848090410377
103;103;1449493865;2.13822007179;0.804426848888;0.0678190886974;0;True;45;2;173.9848090410377
104;104;1449493865;2.1382796764400003;0.804461061954;0.0678540840745;0;True;45;2;173.9848090410377
105;105;1449493865;2.13832402229;0.804518818855;0.0678462013602;0;True;45;2;173.9848090410377
106;106;1449493865;2.1382625103;0.804493784904;0.0679218918085;0;True;45;2;173.9848090410377
107;107;1449493865;2.1382796764400003;0.804504573345;0.0678105279803;0;True;45;2;173.9848090410377
108;108;1449493865;2.13826489449;0.8044955134389999;0.0678084939718;0;True;45;2;173.9848090410377
109;109;1449493866;2.13826823235;0.8044878840449999;0.0678143426776;1;True;45;2;173.9848090410377
110;110;1449493866;2.13827872276;0.8045253753659999;0.0678817033768;1;True;45;2;173.9848090410377
111;111;1449493866;2.13824439049;0.804540038109;0.0677880719304;1;True;45;2;173.9848090410377
112;112;1449493866;2.13813567162;0.8044078946109999;0.0678784102201;1;True;45;2;173.9848090410377
113;113;1449493866;2.1382694244400002;0.804536998272;0.0677912905812;1;True;45;2;173.9848090410377
114;114;1449493866;2.13815879822;0.8044390082359999;0.067791134119;1;True;45;2;173.9848090410377
115;115;1449493866;2.138245821;0.8044905662540001;0.06783082336190001;1;True;45;2;173.9848090410377
116;116;1449493866;2.13827896118;0.804479897022;0.0678829997778;1;True;45;2;173.9848090410377
117;117;1449493866;2.1383280754099996;0.804548799992;0.0678803995252;1;True;45;2;173.9848090410377
118;118;1449493866;2.13826966286;0.804475128651;0.06790485978130001;1;True;45;2;173.9848090410377
119;119;1449493866;2.13825941086;0.8044768571850001;0.0678927004337;1;True;45;2;173.9848090410377
120;120;1449493866;2.13828253746;0.8045019507410001;0.06782160699369999;1;True;45;2;173.9848090410377
121;121;1449493866;2.13813185692;0.8044111728669999;0.0677985846996;1;True;45;2;173.9848090410377
122;122;1449493866;2.13811969757;0.804383397102;0.0678038150072;1;True;45;2;173.9848090410377
123;123;1449493866;2.13822865486;0.804485976696;0.0678153708577;1;True;45;2;173.9848090410377
124;124;1449493866;2.13813996315;0.804411113262;0.0678773745894;1;True;45;2;173.9848090410377
125;125;1449493866;2.13824701309;0.8044587969779999;0.06785462051630001;1;True;45;2;173.9848090410377
126;126;1449493866;2.13816165924;0.8044471144679999;0.06783077120780001;1;True;45;2;173.9848090410377
127;127;1449493866;2.13827419281;0.8045146465299999;0.06782075017690001;1;True;45;2;173.9848090410377
128;128;1449493866;2.1382575035099998;0.804499745369;0.0679145976901;1;True;45;2;173.9848090410377
129;129;1449493866;2.13826847076;0.804509103298;0.0679196417332;1;True;45;2;173.9848090410377
130;130;1449493866;2.1382954120599997;0.8044905662540001;0.0679276436567;1;True;45;2;173.9848090410377
131;131;1449493866;2.13821959496;0.804442107677;0.06788479536770001;1;True;45;2;173.9848090410377
132;132;1449493866;2.13812971115;0.804420053959;0.0677933245897;1;True;45;2;173.9848090410377
133;133;1449493866;2.13810825348;0.804377436638;0.0678068473935;1;True;45;2;173.9848090410377
134;134;1449493866;2.13826847076;0.804504811764;0.06781397759909999;1;True;45;2;173.9848090410377
135;135;1449493866;2.13828086853;0.804506480694;0.067804120481;1;True;45;2;173.9848090410377
136;136;1449493866;2.13827085495;0.804540812969;0.0678019374609;1;True;45;2;173.9848090410377
137;137;1449493866;2.13825774193;0.8045088648800001;0.0678464919329;1;True;45;2;173.9848090410377
138;138;1449493866;2.1382598877000003;0.8044758439059999;0.0679048299789;1;True;45;2;173.9848090410377
139;139;1449493866;2.1382529735599998;0.804468929768;0.06785419583319999;1;True;45;2;173.9848090410377
140;140;1449493866;2.13829779625;0.804495215416;0.0679088905454;1;True;45;2;173.9848090410377
141;141;1449493866;2.13827800751;0.8044804334639999;0.0679136365652;1;True;45;2;173.9848090410377
142;142;1449493866;2.13829517365;0.804534733295;0.0678683742881;1;True;45;2;173.9848090410377
143;143;1449493866;2.13828396797;0.804518401623;0.06781382113699999;1;True;45;2;173.9848090410377
144;144;1449493866;2.13821911812;0.804489791393;0.0678030848503;1;True;45;2;173.9848090410377
145;145;1449493866;2.1382641792299997;0.804547786713;0.06779069453480001;1;True;45;2;173.9848090410377
146;146;1449493866;2.13813972473;0.804418027401;0.06778764724729999;1;True;45;2;173.9848090410377
147;147;1449493866;2.1382856369;0.8044836521150001;0.06784150004390001;1;True;45;2;173.9848090410377
148;148;1449493866;2.13829135895;0.804486393929;0.0678076967597;1;True;45;2;173.9848090410377
149;149;1449493866;2.13828492165;0.804535329342;0.06778475642199999;1;True;45;2;173.9848090410377
150;150;1449493866;2.1382818222;0.804519951344;0.06779747456310001;1;True;45;2;173.9848090410377
151;151;1449493866;2.1382758617400004;0.804525971413;0.0677905753255;1;True;45;2;173.9848090410377
152;152;1449493866;2.13815379143;0.8044331073759999;0.067877933383;1;True;45;2;173.9848090410377
153;153;1449493866;2.13830971718;0.804539322853;0.0678722113371;1;True;45;2;173.9848090410377
154;154;1449493866;2.13816046715;0.8044422268870001;0.0678798928857;1;True;45;2;173.9848090410377
155;155;1449493866;2.13826322556;0.804510295391;0.0677961483598;1;True;45;2;173.9848090410377
156;156;1449493866;2.13823509216;0.80447769165;0.0677962005138;1;True;45;2;173.9848090410377
157;157;1449493866;2.13823270798;0.8044911623000001;0.0678709372878;1;True;45;2;173.9848090410377
158;158;1449493866;2.13827466965;0.804538488388;0.0678031891584;1;True;45;2;173.9848090410377
159;159;1449493866;2.1382761001599997;0.8045084476469999;0.0677901282907;1;True;45;2;173.9848090410377
160;160;1449493866;2.13827466965;0.804499030113;0.0679134353995;1;True;45;2;173.9848090410377
161;161;1449493866;2.1382918357799996;0.8044893145559999;0.0679046809673;1;True;45;2;173.9848090410377
162;162;1449493866;2.13827085495;0.8045377731319999;0.06780277937649999;1;True;45;2;173.9848090410377
163;163;1449493866;2.138276577;0.804480671883;0.0678911060095;1;True;45;2;173.9848090410377
164;164;1449493866;2.13827776909;0.804491877556;0.067814014852;1;True;45;2;173.9848090410377
165;165;1449493866;2.13826823235;0.804470658302;0.0678368732333;1;True;45;2;173.9848090410377
166;166;1449493866;2.1382405757900003;0.8044561147689999;0.0678681880236;1;True;45;2;173.9848090410377
167;167;1449493866;2.13823771477;0.8044880032539999;0.06781011074780001;1;True;45;2;173.9848090410377
168;168;1449493866;2.13814902306;0.804420650005;0.0678706169128;1;True;45;2;173.9848090410377
169;169;1449493866;2.1381046772;0.8043846487999999;0.0677913352847;1;True;45;2;173.9848090410377
170;170;1449493866;2.13829421997;0.8045206069949999;0.067812345922;1;True;45;2;173.9848090410377
171;171;1449493866;2.13829612732;0.804507434368;0.0678716003895;1;True;45;2;173.9848090410377
172;172;1449493866;2.13825964928;0.804573535919;0.0677850171924;1;True;45;2;173.9848090410377
173;173;1449493866;2.1382753849;0.804468631744;0.06786449253560001;1;True;45;2;173.9848090410377
174;174;1449493866;2.1383202076;0.8045162558560001;0.0678357481956;1;True;45;2;173.9848090410377
175;175;1449493866;2.13826656342;0.804470002651;0.06783473491669999;1;True;45;2;173.9848090410377
176;176;1449493866;2.13828158379;0.8044984340670001;0.06785994023080001;1;True;45;2;173.9848090410377
177;177;1449493866;2.13827252388;0.804514944553;0.0677954033017;1;True;45;2;173.9848090410377
178;178;1449493866;2.13830637932;0.804509282112;0.0678840428591;1;True;45;2;173.9848090410377
179;179;1449493866;2.13830518723;0.804544568062;0.0678714811802;1;True;45;2;173.9848090410377
180;180;1449493866;2.13813710213;0.8044340014460001;0.067882552743;1;True;45;2;173.9848090410377
181;181;1449493866;2.138266325;0.8044962883;0.0678998604417;1;True;45;2;173.9848090410377
182;182;1449493866;2.13825845718;0.8045013546940001;0.0677987486124;1;True;45;2;173.9848090410377
183;183;1449493866;2.13827419281;0.804497122765;0.0678118169308;1;True;45;2;173.9848090410377
184;184;1449493866;2.13829064369;0.804526388645;0.0678504556417;1;True;45;2;173.9848090410377
185;185;1449493866;2.13829231262;0.804489195347;0.0679101645947;1;True;45;2;173.9848090410377
186;186;1449493866;2.13820695877;0.80447769165;0.0678334534168;1;True;45;2;173.9848090410377
187;187;1449493866;2.13827371597;0.804553449154;0.0677793249488;1;True;45;2;173.9848090410377
188;188;1449493866;2.13826370239;0.804471671581;0.0678857043386;1;True;45;2;173.9848090410377
189;189;1449493866;2.1382830143000002;0.804465830326;0.0678957402706;1;True;45;2;173.9848090410377
190;190;1449493866;2.13827681541;0.8044711351389999;0.0679113343358;1;True;45;2;173.9848090410377
191;191;1449493866;2.1383109092700003;0.8045415878300001;0.0678210183978;1;True;45;2;173.9848090410377
192;192;1449493866;2.1382932663;0.8045323491099999;0.0678706094623;1;True;45;2;173.9848090410377
193;193;1449493866;2.13822245598;0.804452836514;0.06783219426869999;1;True;45;2;173.9848090410377
194;194;1449493866;2.13826560974;0.804545879364;0.0678070783615;1;True;45;2;173.9848090410377
195;195;1449493866;2.13827013969;0.80450296402;0.06790509819980001;1;True;45;2;173.9848090410377
196;196;1449493866;2.13825678825;0.804464876652;0.067919254303;1;True;45;2;173.9848090410377
197;197;1449493866;2.13824748993;0.804532706738;0.0678016990423;1;True;45;2;173.9848090410377
198;198;1449493866;2.13827800751;0.804508924484;0.0678288042545;1;True;45;2;173.9848090410377
199;199;1449493866;2.1383521556900003;0.804551124573;0.06784509867430001;1;True;45;2;173.9848090410377
200;200;1449493866;2.1382944583900003;0.804478108883;0.0678931325674;1;True;45;2;173.9848090410377
201;201;1449493866;2.1382462978400003;0.804475784302;0.06782796978950001;1;True;45;2;173.9848090410377
202;202;1449493866;2.1382772922499997;0.804485797882;0.06788821518419999;1;True;45;2;173.9848090410377
203;203;1449493866;2.13826799393;0.8044608235359999;0.06786540150640001;1;True;45;2;173.9848090410377
204;204;1449493866;2.13827466965;0.8044900298119999;0.067831248045;1;True;45;2;173.9848090410377
205;205;1449493866;2.13827443123;0.8044695258140001;0.0678488612175;1;True;45;2;173.9848090410377
206;206;1449493866;2.13818836212;0.804459273815;0.06782865524290001;1;True;45;2;173.9848090410377
207;207;1449493866;2.13829398155;0.804477155209;0.0678964927793;1;True;45;2;173.9848090410377
208;208;1449493866;2.13815593719;0.8044219017030001;0.0678853914142;1;True;45;2;173.9848090410377
209;209;1449493866;2.1382758617400004;0.8045029044149999;0.0678104236722;1;True;45;2;173.9848090410377
210;210;1449493866;2.13823485374;0.804436087608;0.0679009258747;1;True;45;2;173.9848090410377
211;211;1449493866;2.13830280304;0.804523229599;0.06787158548830001;1;True;45;2;173.9848090410377
212;212;1449493866;2.13810634613;0.804371416569;0.0677979141474;1;True;45;2;173.9848090410377
213;213;1449493866;2.13826084137;0.804467141628;0.0678397491574;1;True;45;2;173.9848090410377
214;214;1449493866;2.13813972473;0.804413318634;0.0678820833564;1;True;45;2;173.9848090410377
215;215;1449493866;2.13822317123;0.8045400977130001;0.06779415160419999;1;True;45;2;173.9848090410377
216;216;1449493866;2.1382522583;0.804542660713;0.06781032681469999;1;True;45;2;173.9848090410377
217;217;1449493866;2.13814997673;0.8044176101680001;0.0678821131587;1;True;45;2;173.9848090410377
218;218;1449493866;2.13826227188;0.804532289505;0.0678185746074;1;True;45;2;173.9848090410377
219;219;1449493866;2.13827633858;0.8044629096979999;0.0678479373455;1;True;45;2;173.9848090410377
220;220;1449493866;2.1382761001599997;0.804522812366;0.067790158093;1;True;45;2;173.9848090410377
221;221;1449493866;2.13826656342;0.8045000433920001;0.067904561758;1;True;45;2;173.9848090410377
222;222;1449493866;2.13821196556;0.804461479187;0.0677889883518;1;True;45;2;173.9848090410377
223;223;1449493866;2.13815140724;0.8044275045389999;0.0678728595376;1;True;45;2;173.9848090410377
224;224;1449493866;2.13820004463;0.804466485977;0.0678264051676;1;True;45;2;173.9848090410377
225;225;1449493866;2.13827157021;0.804503142834;0.06780358403919999;1;True;45;2;173.9848090410377
226;226;1449493866;2.13828015327;0.804488778114;0.0678149238229;1;True;45;2;173.9848090410377
227;227;1449493866;2.13826346397;0.804482698441;0.0679149851203;1;True;45;2;173.9848090410377
228;228;1449493866;2.13826918602;0.804496526718;0.0678083151579;1;True;45;2;173.9848090410377
229;229;1449493866;2.13825178146;0.804443955421;0.06786482781169999;1;True;45;2;173.9848090410377
230;230;1449493866;2.13824295998;0.8044571280480001;0.06791808456180001;1;True;45;2;173.9848090410377
231;231;1449493866;2.13826656342;0.804497003555;0.06780722737309999;1;True;45;2;173.9848090410377
232;232;1449493866;2.1382837295500003;0.804504275322;0.06780556589369999;1;True;45;2;173.9848090410377
233;233;1449493866;2.1382694244400002;0.8044698238369999;0.0678790956736;1;True;45;2;173.9848090410377
234;234;1449493866;2.13832592964;0.8045238852500001;0.06781361252069999;1;True;45;2;173.9848090410377
235;235;1449493866;2.1381611824;0.804441273212;0.06786697357890001;1;True;45;2;173.9848090410377
236;236;1449493866;2.13826799393;0.804483950138;0.0679115653038;1;True;45;2;173.9848090410377
237;237;1449493866;2.13826322556;0.804466962814;0.0678584426641;1;True;45;2;173.9848090410377
238;238;1449493866;2.13816261292;0.8044403195379999;0.0678814649582;1;True;45;2;173.9848090410377
239;239;1449493866;2.1382651329;0.804560244083;0.0678032115102;1;True;45;2;173.9848090410377
240;240;1449493866;2.13815450668;0.8044138550759999;0.067764185369;1;True;45;2;173.9848090410377
241;241;1449493866;2.13828873634;0.804522871971;0.06779328733680001;1;True;45;2;173.9848090410377
242;242;1449493866;2.1381654739400004;0.804411590099;0.0677676945925;1;True;45;2;173.9848090410377
243;243;1449493866;2.13825058937;0.804476678371;0.0678994134068;1;True;45;2;173.9848090410377
244;244;1449493866;2.13830757141;0.8045470714569999;0.0678699091077;1;True;45;2;173.9848090410377
245;245;1449493866;2.1382915973700003;0.8044921159739999;0.06780835986139999;1;True;45;2;173.9848090410377
246;246;1449493866;2.13828396797;0.8044899106029999;0.0678360164165;1;True;45;2;173.9848090410377
247;247;1449493866;2.13830471039;0.804507255554;0.06792685389519999;1;True;45;2;173.9848090410377
248;248;1449493866;2.13826656342;0.804500699043;0.0679096952081;1;True;45;2;173.9848090410377
249;249;1449493866;2.1382856369;0.8045240640639999;0.0678062289953;1;True;45;2;173.9848090410377
250;250;1449493866;2.1383209228499998;0.804514110088;0.06783973425630001;1;True;45;2;173.9848090410377
251;251;1449493866;2.13827419281;0.804495632648;0.0678575113416;1;True;45;2;173.9848090410377
252;252;1449493866;2.1382846832299998;0.8044779300689999;0.06786489486689999;1;True;45;2;173.9848090410377
253;253;1449493866;2.13826608658;0.804540038109;0.0678104758263;1;True;45;2;173.9848090410377
254;254;1449493866;2.13818883896;0.804422914982;0.0678310245275;1;True;45;2;173.9848090410377
255;255;1449493866;2.13834762573;0.804527342319;0.0678278878331;1;True;45;2;173.9848090410377
256;256;1449493866;2.1381349563599996;0.804418861866;0.0678741708398;1;True;45;2;173.9848090410377
257;257;1449493866;2.13824510574;0.8044661879539999;0.06792059540749999;1;True;45;2;173.9848090410377
258;258;1449493866;2.13824486732;0.8044736981389999;0.0679129511118;1;True;45;2;173.9848090410377
259;259;1449493866;2.13831448555;0.804505705833;0.0678918808699;1;True;45;2;173.9848090410377
260;260;1449493866;2.1382846832299998;0.8044791221619999;0.0678610578179;1;True;45;2;173.9848090410377
261;261;1449493866;2.13829112053;0.804482161999;0.0678626224399;1;True;45;2;173.9848090410377
262;262;1449493866;2.13823509216;0.804514110088;0.0678808614612;1;True;45;2;173.9848090410377
263;263;1449493866;2.13831067085;0.804492294788;0.0679197981954;1;True;45;2;173.9848090410377
264;264;1449493866;2.13825798035;0.804476082325;0.0678862854838;1;True;45;2;173.9848090410377
265;265;1449493866;2.13827419281;0.804455697536;0.0678957924247;1;True;45;2;173.9848090410377
266;266;1449493866;2.13825058937;0.804464876652;0.06792444735770001;1;True;45;2;173.9848090410377
267;267;1449493866;2.13828659058;0.804537117481;0.0678174197674;1;True;45;2;173.9848090410377
268;268;1449493866;2.1383566856400003;0.804579377174;0.0678248554468;1;True;45;2;173.9848090410377
269;269;1449493866;2.13825345039;0.8044660091399999;0.06791688501830001;1;True;45;2;173.9848090410377
270;270;1449493866;2.13826799393;0.804462611675;0.0678541734815;1;True;45;2;173.9848090410377
271;271;1449493866;2.13827252388;0.8045070171359999;0.06782688945530001;1;True;45;2;173.9848090410377
272;272;1449493866;2.13825440407;0.8044732213019999;0.0678872168064;1;True;45;2;173.9848090410377
273;273;1449493866;2.13829851151;0.804522335529;0.0678740143776;1;True;45;2;173.9848090410377
274;274;1449493866;2.13830089569;0.804497778416;0.0678083300591;1;True;45;2;173.9848090410377
275;275;1449493866;2.13813781738;0.804430425167;0.0678820386529;1;True;45;2;173.9848090410377
276;276;1449493866;2.13826274872;0.804483294487;0.0678900405765;1;True;45;2;173.9848090410377
277;277;1449493866;2.1382954120599997;0.804591655731;0.0677958577871;1;True;45;2;173.9848090410377
278;278;1449493866;2.13816618919;0.8044375181199999;0.0678878873587;1;True;45;2;173.9848090410377
279;279;1449493866;2.1382875442500002;0.804495036602;0.0679263845086;1;True;45;2;173.9848090410377
280;280;1449493866;2.13825106621;0.804499268532;0.0678349584341;1;True;45;2;173.9848090410377
281;281;1449493866;2.13815975189;0.8044387102130001;0.0677841380239;1;True;45;2;173.9848090410377
282;282;1449493866;2.13825345039;0.8045080304150001;0.067897349596;1;True;45;2;173.9848090410377
283;283;1449493866;2.13827347755;0.804490804672;0.06786557286980001;1;True;45;2;173.9848090410377
284;284;1449493866;2.1382718086200003;0.804508984089;0.067803889513;1;True;45;2;173.9848090410377
285;285;1449493866;2.13832497597;0.8045302629469999;0.0678243562579;1;True;45;2;173.9848090410377
286;286;1449493866;2.138266325;0.804526090622;0.0677904337645;1;True;45;2;173.9848090410377
287;287;1449493866;2.13826704025;0.804528594017;0.0678682178259;1;True;45;2;173.9848090410377
288;288;1449493866;2.13826537132;0.8045128583910001;0.0677947774529;1;True;45;2;173.9848090410377
289;289;1449493866;2.1383340358700003;0.8045293688770001;0.0678280293941;1;True;45;2;173.9848090410377
290;290;1449493866;2.13824772835;0.8045053482060001;0.0678384006023;1;True;45;2;173.9848090410377
291;291;1449493866;2.1382894516;0.804490983486;0.0679143592715;1;True;45;2;173.9848090410377
292;292;1449493866;2.13827443123;0.8045205473899999;0.0678017511964;1;True;45;2;173.9848090410377
293;293;1449493866;2.13826656342;0.8044891357420001;0.06781638413669999;1;True;45;2;173.9848090410377
294;294;1449493866;2.13815522194;0.8044301867489999;0.0678829699755;1;True;45;2;173.9848090410377
295;295;1449493866;2.13810825348;0.8043804764749999;0.0677919983864;1;True;45;2;173.9848090410377
296;296;1449493866;2.13825511932;0.8045504093170001;0.0678013116121;1;True;45;2;173.9848090410377
297;297;1449493866;2.13825178146;0.8044803142550001;0.0678742229939;1;True;45;2;173.9848090410377
298;298;1449493866;2.1381990909599997;0.8044804930689999;0.0678662210703;1;True;45;2;173.9848090410377
299;299;1449493866;2.13827037811;0.804473996162;0.06783932447430001;1;True;45;2;173.9848090410377
300;300;1449493866;2.13814687729;0.804442584515;0.0678113773465;1;True;45;2;173.9848090410377
301;301;1449493866;2.13825511932;0.804456949234;0.0679109990597;1;True;45;2;173.9848090410377
302;302;1449493866;2.13811969757;0.804400742054;0.0678703635931;1;True;45;2;173.9848090410377
303;303;1449493866;2.13815569878;0.8044047951700001;0.0677654892206;1;True;45;2;173.9848090410377
304;304;1449493866;2.13829135895;0.804530322552;0.0678689703345;1;True;45;2;173.9848090410377
305;305;1449493866;2.1382625103;0.8044546246529999;0.0678450241685;1;True;45;2;173.9848090410377
306;306;1449493866;2.13828253746;0.804499387741;0.067810498178;1;True;45;2;173.9848090410377
307;307;1449493866;2.13821029663;0.804455041885;0.0678780525923;1;True;45;2;173.9848090410377
308;308;1449493866;2.1382639408099995;0.804553627968;0.06779430061580001;1;True;45;2;173.9848090410377
309;309;1449493866;2.13812828064;0.804410815239;0.0678105950356;1;True;45;2;173.9848090410377
310;310;1449493866;2.13818240166;0.804442167282;0.0678763017058;1;True;45;2;173.9848090410377
311;311;1449493866;2.1381752491;0.804444074631;0.06782071292399999;1;True;45;2;173.9848090410377
312;312;1449493866;2.13827514648;0.804502665997;0.067811511457;1;True;45;2;173.9848090410377
313;313;1449493866;2.13816666603;0.804431736469;0.0678853616118;1;True;45;2;173.9848090410377
314;314;1449493866;2.1382830143000002;0.804525613785;0.0678571537137;1;True;45;2;173.9848090410377
315;315;1449493866;2.13827013969;0.8045021295550001;0.0678036734462;1;True;45;2;173.9848090410377
316;316;1449493866;2.1382796764400003;0.804499745369;0.0679226517677;1;True;45;2;173.9848090410377
317;317;1449493866;2.13824915886;0.804442703724;0.06787195056680001;1;True;45;2;173.9848090410377
318;318;1449493866;2.13826036453;0.8044607043269999;0.0678561627865;1;True;45;2;173.9848090410377
319;319;1449493866;2.13826084137;0.80447614193;0.0679035410285;1;True;45;2;173.9848090410377
320;320;1449493866;2.13814735413;0.8044212460519999;0.0678135454655;1;True;45;2;173.9848090410377
321;321;1449493866;2.13827157021;0.804528534412;0.0678056403995;1;True;45;2;173.9848090410377
322;322;1449493866;2.13813710213;0.804432749748;0.0677813217044;1;True;45;2;173.9848090410377
323;323;1449493866;2.13827371597;0.804483413696;0.06787735968830001;1;True;45;2;173.9848090410377
324;324;1449493866;2.13825702667;0.8045470118520001;0.0677972659469;1;True;45;2;173.9848090410377
325;325;1449493866;2.1382601261099996;0.804510593414;0.0679133087397;1;True;45;2;173.9848090410377
326;326;1449493866;2.13831138611;0.804556190968;0.06781494617459999;1;True;45;2;173.9848090410377
327;327;1449493866;2.1381857395200004;0.8044763207439999;0.0678872391582;1;True;45;2;173.9848090410377
328;328;1449493866;2.13826179504;0.8045666813850001;0.0678047314286;1;True;45;2;173.9848090410377
329;329;1449493866;2.13820695877;0.8044913411139999;0.0678136646748;1;True;45;2;173.9848090410377
330;330;1449493866;2.13823533058;0.804484307766;0.06791135668750001;1;True;45;2;173.9848090410377
331;331;1449493866;2.13827466965;0.80452889204;0.0678146332502;1;True;45;2;173.9848090410377
332;332;1449493866;2.1382753849;0.804488480091;0.0678508728743;1;True;45;2;173.9848090410377
333;333;1449493866;2.13825154305;0.804589748383;0.0677966177464;1;True;45;2;173.9848090410377
334;334;1449493866;2.1382718086200003;0.8045062422750001;0.06783019006249999;1;True;45;2;173.9848090410377
335;335;1449493866;2.13818383217;0.804478108883;0.0678878575563;1;True;45;2;173.9848090410377
336;336;1449493866;2.13826489449;0.8045399189;0.0678038671613;1;True;45;2;173.9848090410377
337;337;1449493866;2.13818025589;0.8044354319570001;0.0677772462368;1;True;45;2;173.9848090410377
338;338;1449493866;2.1382522583;0.804556787014;0.0678136274219;1;True;45;2;173.9848090410377
339;339;1449493866;2.13829350471;0.804533779621;0.0678915083408;1;True;45;2;173.9848090410377
340;340;1449493866;2.13828659058;0.804503321648;0.0679272040725;1;True;45;2;173.9848090410377
341;341;1449493866;2.1382501125299997;0.804517447948;0.0679151192307;1;True;45;2;173.9848090410377
342;342;1449493866;2.13828396797;0.804535388947;0.067820161581;1;True;45;2;173.9848090410377
343;343;1449493866;2.1382672786700003;0.8044975399969999;0.0678820833564;1;True;45;2;173.9848090410377
344;344;1449493866;2.13828015327;0.8044945597650001;0.0678536966443;1;True;45;2;173.9848090410377
345;345;1449493866;2.13828110695;0.804524183273;0.0678270757198;1;True;45;2;173.9848090410377
346;346;1449493866;2.13826656342;0.804501116276;0.0678940936923;1;True;45;2;173.9848090410377
347;347;1449493867;2.1383328437799998;0.804562926292;0.0678512752056;2;True;45;2;173.9848090410377
348;348;1449493867;2.13828229904;0.8045450448989999;0.0678138285875;2;True;45;2;173.9848090410377
349;349;1449493867;2.13817572594;0.8044708371160001;0.0678962022066;2;True;45;2;173.9848090410377
350;350;1449493867;2.13832235336;0.804546654224;0.067841514945;2;True;45;2;173.9848090410377
351;351;1449493867;2.13830208778;0.80454993248;0.0678362026811;2;True;45;2;173.9848090410377
352;352;1449493867;2.1382799148599996;0.804521501064;0.0678745061159;2;True;45;2;173.9848090410377
353;353;1449493867;2.13828015327;0.804507374763;0.06784993410109999;2;True;45;2;173.9848090410377
354;354;1449493867;2.13830089569;0.804578244686;0.0678036436439;2;True;45;2;173.9848090410377
355;355;1449493867;2.13825941086;0.804520130157;0.0678960159421;2;True;45;2;173.9848090410377
356;356;1449493867;2.13829708099;0.8044968247409999;0.0679089054465;2;True;45;2;173.9848090410377
357;357;1449493867;2.13825631142;0.804519116879;0.0679170414805;2;True;45;2;173.9848090410377
358;358;1449493867;2.13826918602;0.8045165538789999;0.0678374022245;2;True;45;2;173.9848090410377
359;359;1449493867;2.13826084137;0.804464995861;0.06787384301419999;2;True;45;2;173.9848090410377
360;360;1449493867;2.13828206062;0.804520070553;0.0678231045604;2;True;45;2;173.9848090410377
361;361;1449493867;2.13825893402;0.804530799389;0.0678214579821;2;True;45;2;173.9848090410377
362;362;1449493867;2.13831710815;0.804555654526;0.0678851008415;2;True;45;2;173.9848090410377
363;363;1449493867;2.13826084137;0.8045109510420001;0.0678205490112;2;True;45;2;173.9848090410377
364;364;1449493867;2.13823437691;0.804475009441;0.0678432509303;2;True;45;2;173.9848090410377
365;365;1449493867;2.1383574008900004;0.804587721825;0.0678683593869;2;True;45;2;173.9848090410377
366;366;1449493867;2.13829278946;0.804494380951;0.0678212270141;2;True;45;2;173.9848090410377
367;367;1449493867;2.13825631142;0.8045184612270001;0.0678381100297;2;True;45;2;173.9848090410377
368;368;1449493867;2.13827943802;0.8045314550399999;0.0678092986345;2;True;45;2;173.9848090410377
369;369;1449493867;2.1382892131799998;0.804480195045;0.0679131820798;2;True;45;2;173.9848090410377
370;370;1449493867;2.1382846832299998;0.804531693459;0.0678079128265;2;True;45;2;173.9848090410377
371;371;1449493867;2.13818216324;0.804467737675;0.0678401738405;2;True;45;2;173.9848090410377
372;372;1449493867;2.13827061653;0.804520964622;0.0678065642715;2;True;45;2;173.9848090410377
373;373;1449493867;2.13828539848;0.804513692856;0.0678242370486;2;True;45;2;173.9848090410377
374;374;1449493867;2.13826656342;0.804552912712;0.0678035020828;2;True;45;2;173.9848090410377
375;375;1449493867;2.13826537132;0.804550290108;0.0678099691868;2;True;45;2;173.9848090410377
376;376;1449493867;2.13826322556;0.8044571280480001;0.06787525117399999;2;True;45;2;173.9848090410377
377;377;1449493867;2.1382997036;0.8045559525489999;0.0677967891097;2;True;45;2;173.9848090410377
378;378;1449493867;2.1382803916900004;0.804491579533;0.0679089576006;2;True;45;2;173.9848090410377
379;379;1449493867;2.13829755783;0.804548084736;0.0678152218461;2;True;45;2;173.9848090410377
380;380;1449493867;2.13827157021;0.8044714331630001;0.06784226745369999;2;True;45;2;173.9848090410377
381;381;1449493867;2.13828206062;0.8045422434810001;0.0677896291018;2;True;45;2;173.9848090410377
382;382;1449493867;2.13829517365;0.804533600807;0.0678823888302;2;True;45;2;173.9848090410377
383;383;1449493867;2.13814067841;0.8044171929359999;0.0678118318319;2;True;45;2;173.9848090410377
384;384;1449493867;2.138245821;0.804470360279;0.06790471076969999;2;True;45;2;173.9848090410377
385;385;1449493867;2.13825392723;0.8044406175609999;0.06791421025989999;2;True;45;2;173.9848090410377
386;386;1449493867;2.13834571838;0.8045523762700001;0.0678361579776;2;True;45;2;173.9848090410377
387;387;1449493867;2.13826060295;0.8044586181640001;0.067918382585;2;True;45;2;173.9848090410377
388;388;1449493867;2.1382846832299998;0.8045743107800001;0.0677844062448;2;True;45;2;173.9848090410377
389;389;1449493867;2.138266325;0.8044741153720001;0.0679025650024;2;True;45;2;173.9848090410377
390;390;1449493867;2.1383197307599997;0.8044945597650001;0.06781625747680001;2;True;45;2;173.9848090410377
391;391;1449493867;2.13813185692;0.8044191002850001;0.06779959797860001;2;True;45;2;173.9848090410377
392;392;1449493867;2.13826799393;0.8044758439059999;0.0678974539042;2;True;45;2;173.9848090410377
393;393;1449493867;2.138266325;0.804452240467;0.0678578689694;2;True;45;2;173.9848090410377
394;394;1449493867;2.13831067085;0.804546773434;0.06786549836400001;2;True;45;2;173.9848090410377
395;395;1449493867;2.13816475868;0.80443495512;0.0678743720055;2;True;45;2;173.9848090410377
396;396;1449493867;2.13815975189;0.8044375181199999;0.0677912458777;2;True;45;2;173.9848090410377
397;397;1449493867;2.13829755783;0.804516792297;0.0678531304002;2;True;45;2;173.9848090410377
398;398;1449493867;2.13829708099;0.804548084736;0.0677935853601;2;True;45;2;173.9848090410377
399;399;1449493867;2.13813376427;0.804406046867;0.0677946582437;2;True;45;2;173.9848090410377
400;400;1449493867;2.13827109337;0.804478108883;0.0678865909576;2;True;45;2;173.9848090410377
401;401;1449493867;2.13827872276;0.804456174374;0.0678678303957;2;True;45;2;173.9848090410377
402;402;1449493867;2.1382420063;0.804495692253;0.0678004026413;2;True;45;2;173.9848090410377
403;403;1449493867;2.13828086853;0.8044928312299999;0.0678080394864;2;True;45;2;173.9848090410377
404;404;1449493867;2.13829779625;0.8045056462289999;0.0678170025349;2;True;45;2;173.9848090410377
405;405;1449493867;2.13826704025;0.804499149323;0.0679093003273;2;True;45;2;173.9848090410377
406;406;1449493867;2.1382858753200003;0.804473459721;0.0678367316723;2;True;45;2;173.9848090410377
407;407;1449493867;2.1383023262000003;0.804529130459;0.06779662519690001;2;True;45;2;173.9848090410377
408;408;1449493867;2.13828110695;0.804497122765;0.0678094103932;2;True;45;2;173.9848090410377
409;409;1449493867;2.1383109092700003;0.804489552975;0.0678912326694;2;True;45;2;173.9848090410377
410;410;1449493867;2.1381251812;0.804377615452;0.06777589023109999;2;True;45;2;173.9848090410377
411;411;1449493867;2.1382875442500002;0.804518699646;0.0677996724844;2;True;45;2;173.9848090410377
412;412;1449493867;2.13829398155;0.804458081722;0.06789457798;2;True;45;2;173.9848090410377
413;413;1449493867;2.13829708099;0.8044905662540001;0.067893691361;2;True;45;2;173.9848090410377
414;414;1449493867;2.13836026192;0.8045578002930001;0.0678533390164;2;True;45;2;173.9848090410377
415;415;1449493867;2.13828110695;0.8044803142550001;0.067838691175;2;True;45;2;173.9848090410377
416;416;1449493867;2.13828802109;0.804514884949;0.06787031143899999;2;True;45;2;173.9848090410377
417;417;1449493867;2.13832163811;0.8045220375059999;0.0678879246116;2;True;45;2;173.9848090410377
418;418;1449493867;2.1381347179400003;0.80439054966;0.0678082108498;2;True;45;2;173.9848090410377
419;419;1449493867;2.13818645477;0.804465830326;0.0678240731359;2;True;45;2;173.9848090410377
420;420;1449493867;2.13829731941;0.8045340776440001;0.0678774118423;2;True;45;2;173.9848090410377
421;421;1449493867;2.1381785869599996;0.8044464588169999;0.06778415292500001;2;True;45;2;173.9848090410377
422;422;1449493867;2.13829350471;0.804530799389;0.0677968338132;2;True;45;2;173.9848090410377
423;423;1449493867;2.13818192482;0.804419457912;0.0677532702684;2;True;45;2;173.9848090410377
424;424;1449493867;2.13832163811;0.804505109787;0.06790068745609999;2;True;45;2;173.9848090410377
425;425;1449493867;2.13813972473;0.8044083714489999;0.0677935630083;2;True;45;2;173.9848090410377
426;426;1449493867;2.1382784843400002;0.804494261742;0.067841924727;2;True;45;2;173.9848090410377
427;427;1449493867;2.13830471039;0.804546535015;0.0678040981293;2;True;45;2;173.9848090410377
428;428;1449493867;2.13828873634;0.804526627064;0.06781365722419999;2;True;45;2;173.9848090410377
429;429;1449493867;2.13829255104;0.804505884647;0.06785293668510001;2;True;45;2;173.9848090410377
430;430;1449493867;2.1383233070400003;0.8044912815090001;0.0679164305329;2;True;45;2;173.9848090410377
431;431;1449493867;2.13829421997;0.8045038580889999;0.0678743049502;2;True;45;2;173.9848090410377
432;432;1449493867;2.1383521556900003;0.8045662641529999;0.0679080486298;2;True;45;2;173.9848090410377
433;433;1449493867;2.1383087635;0.8044974207879999;0.0678272545338;2;True;45;2;173.9848090410377
434;434;1449493867;2.1382799148599996;0.8045728802680001;0.0677982792258;2;True;45;2;173.9848090410377
435;435;1449493867;2.13829517365;0.804518163204;0.0678185224533;2;True;45;2;173.9848090410377
436;436;1449493867;2.13829517365;0.8044928312299999;0.06790286302569999;2;True;45;2;173.9848090410377
437;437;1449493867;2.1382360458400003;0.804441928864;0.0679005309939;2;True;45;2;173.9848090410377
438;438;1449493867;2.13819384575;0.804490089417;0.0678214654326;2;True;45;2;173.9848090410377
439;439;1449493867;2.1383130550400002;0.80452477932;0.0678795948625;2;True;45;2;173.9848090410377
440;440;1449493867;2.13827800751;0.804564237595;0.06780827045440001;2;True;45;2;173.9848090410377
441;441;1449493867;2.13828611374;0.804559409618;0.06780455261469999;2;True;45;2;173.9848090410377
442;442;1449493867;2.13829636574;0.8045395016670001;0.0678010284901;2;True;45;2;173.9848090410377
443;443;1449493867;2.13830184937;0.804532706738;0.0678148344159;2;True;45;2;173.9848090410377
444;444;1449493867;2.1381349563599996;0.8043878078460001;0.0678033530712;2;True;45;2;173.9848090410377
445;445;1449493867;2.13829994202;0.804527103901;0.0678090080619;2;True;45;2;173.9848090410377
446;446;1449493867;2.13815879822;0.804435074329;0.06778909266;2;True;45;2;173.9848090410377
447;447;1449493867;2.1382937431299998;0.80451720953;0.0678186640143;2;True;45;2;173.9848090410377
448;448;1449493867;2.138266325;0.80448448658;0.067905202508;2;True;45;2;173.9848090410377
449;449;1449493867;2.13827753067;0.804484367371;0.0679095461965;2;True;45;2;173.9848090410377
450;450;1449493867;2.1382958888999997;0.804513096809;0.0678181573749;2;True;45;2;173.9848090410377
451;451;1449493867;2.13818502426;0.8044559359550001;0.0678928419948;2;True;45;2;173.9848090410377
452;452;1449493867;2.13816785812;0.804405868053;0.0677557885647;2;True;45;2;173.9848090410377
453;453;1449493867;2.13826680183;0.804568052292;0.06779422611000001;2;True;45;2;173.9848090410377
454;454;1449493867;2.13827204704;0.804590165615;0.0677903667092;2;True;45;2;173.9848090410377
455;455;1449493867;2.1382689476;0.804502546787;0.0679139196873;2;True;45;2;173.9848090410377
456;456;1449493867;2.13835287094;0.804562926292;0.067817427218;2;True;45;2;173.9848090410377
457;457;1449493867;2.1382892131799998;0.804510116577;0.0678021907806;2;True;45;2;173.9848090410377
458;458;1449493867;2.13814043999;0.804423332214;0.0677753165364;2;True;45;2;173.9848090410377
459;459;1449493867;2.13829398155;0.804504036903;0.06791600584980001;2;True;45;2;173.9848090410377
460;460;1449493867;2.13812875748;0.804381728172;0.0677886158228;2;True;45;2;173.9848090410377
461;461;1449493867;2.13814997673;0.8043879866600001;0.0677411556244;2;True;45;2;173.9848090410377
462;462;1449493867;2.1382918357799996;0.8045340180399999;0.0677866563201;2;True;45;2;173.9848090410377
463;463;1449493867;2.13825058937;0.804469883442;0.0679057687521;2;True;45;2;173.9848090410377
464;464;1449493867;2.1382899284400003;0.8045531511310001;0.0678724572062;2;True;45;2;173.9848090410377
465;465;1449493867;2.13830137253;0.8044927120209999;0.06781191378830001;2;True;45;2;173.9848090410377
466;466;1449493867;2.13827633858;0.804495692253;0.06786236166950001;2;True;45;2;173.9848090410377
467;467;1449493867;2.13823342323;0.804463982582;0.0679055973887;2;True;45;2;173.9848090410377
468;468;1449493867;2.13827347755;0.804498016834;0.0678023025393;2;True;45;2;173.9848090410377
469;469;1449493867;2.1382527351400005;0.804491102695;0.0677896514535;2;True;45;2;173.9848090410377
470;470;1449493867;2.13835954666;0.804547727108;0.0678324773908;2;True;45;2;173.9848090410377
471;471;1449493867;2.1382558345800002;0.8044877648350001;0.0679085850716;2;True;45;2;173.9848090410377
472;472;1449493867;2.1383357048;0.8045311570170001;0.0678158998489;2;True;45;2;173.9848090410377
473;473;1449493867;2.13830804825;0.80451798439;0.0678638070822;2;True;45;2;173.9848090410377
474;474;1449493867;2.1382915973700003;0.804522871971;0.06778562814;2;True;45;2;173.9848090410377
475;475;1449493867;2.1383471489;0.804551899433;0.0678281113505;2;True;45;2;173.9848090410377
476;476;1449493867;2.13812279701;0.804405808449;0.0677806064487;2;True;45;2;173.9848090410377
477;477;1449493867;2.13812708855;0.804378211498;0.0677869915962;2;True;45;2;173.9848090410377
478;478;1449493867;2.13825178146;0.8045484423639999;0.0677848383784;2;True;45;2;173.9848090410377
479;479;1449493867;2.13825678825;0.8045653104780001;0.0677824467421;2;True;45;2;173.9848090410377
480;480;1449493867;2.1381900310499997;0.8044593930239999;0.0678761079907;2;True;45;2;173.9848090410377
481;481;1449493867;2.13826704025;0.80450129509;0.0679037868977;2;True;45;2;173.9848090410377
482;482;1449493867;2.13827085495;0.8045084476469999;0.0678016245365;2;True;45;2;173.9848090410377
483;483;1449493867;2.13827347755;0.8045137524600001;0.0677928104997;2;True;45;2;173.9848090410377
484;484;1449493867;2.13827872276;0.8045062422750001;0.0677992999554;2;True;45;2;173.9848090410377
485;485;1449493867;2.13827323914;0.804512917995;0.06780771166090001;2;True;45;2;173.9848090410377
486;486;1449493867;2.13828110695;0.8045403361319999;0.06778406351800001;2;True;45;2;173.9848090410377
487;487;1449493867;2.1382830143000002;0.804553747177;0.0677794739604;2;True;45;2;173.9848090410377
488;488;1449493867;2.1382894516;0.804491460323;0.0679021254182;2;True;45;2;173.9848090410377
489;489;1449493867;2.13828325272;0.8045457601549999;0.0677873343229;2;True;45;2;173.9848090410377
490;490;1449493867;2.1383235454599996;0.804512143135;0.0678077563643;2;True;45;2;173.9848090410377
491;491;1449493867;2.1383109092700003;0.80453902483;0.06787617504599999;2;True;45;2;173.9848090410377
492;492;1449493867;2.138276577;0.804502725601;0.0678026899695;2;True;45;2;173.9848090410377
493;493;1449493867;2.13812208176;0.804402410984;0.0677896514535;2;True;45;2;173.9848090410377
494;494;1449493867;2.13827753067;0.804499924183;0.0679068937898;2;True;45;2;173.9848090410377
495;495;1449493867;2.13832235336;0.804499924183;0.0679219663143;2;True;45;2;173.9848090410377
496;496;1449493867;2.13814377785;0.804419875145;0.0677824467421;2;True;45;2;173.9848090410377
497;497;1449493867;2.13813090324;0.8044130206110001;0.0677842125297;2;True;45;2;173.9848090410377
498;498;1449493867;2.1382718086200003;0.804559767246;0.0678020045161;2;True;45;2;173.9848090410377
499;499;1449493867;2.13827896118;0.8044754266740001;0.0679127797484;2;True;45;2;173.9848090410377
500;500;1449493867;2.13827681541;0.804463982582;0.0678548812866;2;True;45;2;173.9848090410377
501;501;1449493867;2.13813996315;0.804415524006;0.0678017884493;2;True;45;2;173.9848090410377
502;502;1449493867;2.13827896118;0.804510831833;0.0678032785654;2;True;45;2;173.9848090410377
503;503;1449493867;2.13830065727;0.804490923882;0.0678626000881;2;True;45;2;173.9848090410377
504;504;1449493867;2.13831019402;0.804502606392;0.06785506010060001;2;True;45;2;173.9848090410377
505;505;1449493867;2.13827490807;0.804475069046;0.0678705349565;2;True;45;2;173.9848090410377
506;506;1449493867;2.13826155663;0.804491817951;0.0679204538465;2;True;45;2;173.9848090410377
507;507;1449493867;2.13823914528;0.804486036301;0.067813962698;2;True;45;2;173.9848090410377
508;508;1449493867;2.1382689476;0.804504513741;0.0679305270314;2;True;45;2;173.9848090410377
509;509;1449493867;2.13829565048;0.804558515549;0.0677954182029;2;True;45;2;173.9848090410377
510;510;1449493867;2.13828611374;0.804528594017;0.0677926316857;2;True;45;2;173.9848090410377
511;511;1449493867;2.13825702667;0.804494857788;0.0678900331259;2;True;45;2;173.9848090410377
512;512;1449493867;2.13817667961;0.804459869862;0.06788218021390001;2;True;45;2;173.9848090410377
513;513;1449493867;2.13813734055;0.804409325123;0.0678088888526;2;True;45;2;173.9848090410377
514;514;1449493867;2.13834547997;0.804495275021;0.0678450167179;2;True;45;2;173.9848090410377
515;515;1449493867;2.1382479667700003;0.80451631546;0.0678671821952;2;True;45;2;173.9848090410377
516;516;1449493867;2.1381692886400003;0.8044404983519999;0.067883297801;2;True;45;2;173.9848090410377
517;517;1449493867;2.13830518723;0.8045104146;0.06787677854299999;2;True;45;2;173.9848090410377
518;518;1449493867;2.13817453384;0.8044369816779999;0.0678898394108;2;True;45;2;173.9848090410377
519;519;1449493867;2.1383497715;0.8045578002930001;0.0678582191467;2;True;45;2;173.9848090410377
520;520;1449493867;2.1382639408099995;0.8044661283490001;0.06790187209840001;2;True;45;2;173.9848090410377
521;521;1449493867;2.13828611374;0.804489612579;0.0678316578269;2;True;45;2;173.9848090410377
522;522;1449493867;2.13828730583;0.804517328739;0.06780321896080001;2;True;45;2;173.9848090410377
523;523;1449493867;2.13814783096;0.804423034191;0.0678135678172;2;True;45;2;173.9848090410377
524;524;1449493867;2.13826346397;0.804561018944;0.0678079128265;2;True;45;2;173.9848090410377
525;525;1449493867;2.1382806301099997;0.8045159578319999;0.0678007006645;2;True;45;2;173.9848090410377
526;526;1449493867;2.13827896118;0.804527819157;0.0677996501327;2;True;45;2;173.9848090410377
527;527;1449493867;2.1382625103;0.80455571413;0.0678000971675;2;True;45;2;173.9848090410377
528;528;1449493867;2.13823986053;0.804440736771;0.0679023340344;2;True;45;2;173.9848090410377
529;529;1449493867;2.13825178146;0.804463267326;0.06791131943459999;2;True;45;2;173.9848090410377
530;530;1449493867;2.1382761001599997;0.804517686367;0.06779816746709999;2;True;45;2;173.9848090410377
531;531;1449493867;2.1382689476;0.804540932178;0.0678048804402;2;True;45;2;173.9848090410377
532;532;1449493867;2.13825392723;0.804460763931;0.06784619390959999;2;True;45;2;173.9848090410377
533;533;1449493867;2.1382713317900004;0.804527461529;0.06779584288599999;2;True;45;2;173.9848090410377
534;534;1449493867;2.1381347179400003;0.8044139146799999;0.067882552743;2;True;45;2;173.9848090410377
535;535;1449493867;2.1382856369;0.804533183575;0.06778274476530001;2;True;45;2;173.9848090410377
536;536;1449493867;2.1382997036;0.804535806179;0.0678665190935;2;True;45;2;173.9848090410377
537;537;1449493867;2.13831067085;0.804522514343;0.0678563043475;2;True;45;2;173.9848090410377
538;538;1449493867;2.13828253746;0.804508686066;0.0678101181984;2;True;45;2;173.9848090410377
539;539;1449493867;2.1382915973700003;0.80452722311;0.0677863359451;2;True;45;2;173.9848090410377
540;540;1449493867;2.13834571838;0.804586172104;0.0678675696254;2;True;45;2;173.9848090410377
541;541;1449493867;2.13814425468;0.804416239262;0.06787525862459999;2;True;45;2;173.9848090410377
542;542;1449493867;2.1382830143000002;0.804498374462;0.0678049698472;2;True;45;2;173.9848090410377
543;543;1449493867;2.13827252388;0.80446523428;0.06783605366949999;2;True;45;2;173.9848090410377
544;544;1449493867;2.1382842063900003;0.804499804974;0.06780914217230001;2;True;45;2;173.9848090410377
545;545;1449493867;2.13827872276;0.804539084435;0.067783460021;2;True;45;2;173.9848090410377
546;546;1449493867;2.13827013969;0.804538905621;0.0677940696478;2;True;45;2;173.9848090410377
547;547;1449493867;2.13826608658;0.8044733405110001;0.06788316369059999;2;True;45;2;173.9848090410377
548;548;1449493867;2.13829278946;0.804527699947;0.0677819475532;2;True;45;2;173.9848090410377
549;549;1449493867;2.13812422752;0.804396033287;0.067773245275;2;True;45;2;173.9848090410377
550;550;1449493867;2.13827228546;0.8044960498810001;0.06790252774950001;2;True;45;2;173.9848090410377
551;551;1449493867;2.1382753849;0.8045021891590001;0.0677895024419;2;True;45;2;173.9848090410377
552;552;1449493867;2.13826179504;0.804512381554;0.0677910968661;2;True;45;2;173.9848090410377
553;553;1449493867;2.1381335258500003;0.80440735817;0.06780045479539999;2;True;45;2;173.9848090410377
554;554;1449493867;2.1381649971;0.8044313192370001;0.0678081214428;2;True;45;2;173.9848090410377
555;555;1449493867;2.13827109337;0.804520964622;0.0677922293544;2;True;45;2;173.9848090410377
556;556;1449493867;2.1382601261099996;0.804440796375;0.0678460747004;2;True;45;2;173.9848090410377
557;557;1449493867;2.13815927505;0.804426729679;0.0677946582437;2;True;45;2;173.9848090410377
558;558;1449493867;2.1382529735599998;0.8044661879539999;0.0678920224309;2;True;45;2;173.9848090410377
559;559;1449493867;2.1383357048;0.804561078548;0.06786782294509999;2;True;45;2;173.9848090410377
560;560;1449493867;2.13825941086;0.804446280003;0.0678535178304;2;True;45;2;173.9848090410377
561;561;1449493867;2.13827443123;0.804495811462;0.0679046884179;2;True;45;2;173.9848090410377
562;562;1449493867;2.13814663887;0.804386138916;0.0677432790399;2;True;45;2;173.9848090410377
563;563;1449493867;2.1381635665900003;0.804435968399;0.0678053721786;2;True;45;2;173.9848090410377
564;564;1449493867;2.13837003708;0.804561078548;0.0678355172276;2;True;45;2;173.9848090410377
565;565;1449493867;2.13826823235;0.804504573345;0.0678079277277;2;True;45;2;173.9848090410377
566;566;1449493867;2.1382858753200003;0.8045008182529999;0.06790538132190001;2;True;45;2;173.9848090410377
567;567;1449493867;2.13816595078;0.804441869259;0.0677706077695;2;True;45;2;173.9848090410377
568;568;1449493867;2.1381421089200003;0.804419636726;0.0678084567189;2;True;45;2;173.9848090410377
569;569;1449493867;2.13818240166;0.8044518828389999;0.0678825974464;2;True;45;2;173.9848090410377
570;570;1449493867;2.1382598877000003;0.8044900298119999;0.067801438272;2;True;45;2;173.9848090410377
571;571;1449493867;2.13815665245;0.8044282794;0.0678638666868;2;True;45;2;173.9848090410377
572;572;1449493867;2.1383426189400003;0.8045035600660001;0.0679154768586;2;True;45;2;173.9848090410377
573;573;1449493867;2.1382462978400003;0.804503917694;0.0678330659866;2;True;45;2;173.9848090410377
574;574;1449493867;2.13825178146;0.804525792599;0.0677959546447;2;True;45;2;173.9848090410377
575;575;1449493867;2.1382713317900004;0.80450296402;0.06780061125760001;2;True;45;2;173.9848090410377
576;576;1449493867;2.1382758617400004;0.804515600204;0.0677826106548;2;True;45;2;173.9848090410377
577;577;1449493867;2.13828277588;0.804519295692;0.0677911490202;2;True;45;2;173.9848090410377
578;578;1449493867;2.13826704025;0.8045243620870001;0.0677880123258;2;True;45;2;173.9848090410377
579;579;1449493867;2.13810896873;0.804408729076;0.06778327375649999;2;True;45;2;173.9848090410377
580;580;1449493867;2.13817191124;0.8044607043269999;0.0678223222494;2;True;45;2;173.9848090410377
581;581;1449493867;2.13817811012;0.804448544979;0.0678814351559;2;True;45;2;173.9848090410377
582;582;1449493867;2.1382844448099996;0.804525732994;0.0678100883961;2;True;45;2;173.9848090410377
583;583;1449493867;2.13825201988;0.804491460323;0.06790614873169999;2;True;45;2;173.9848090410377
584;584;1449493867;2.13810348511;0.8043810725210001;0.06777269393209999;2;True;45;2;173.9848090410377
585;585;1449493867;2.13825631142;0.804464161396;0.0678489431739;2;True;45;2;173.9848090410377
586;586;1449493868;2.13834905624;0.804539322853;0.0678303614259;3;True;45;2;173.9848090410377
587;587;1449493868;2.13825964928;0.804454147816;0.0678621530533;3;True;45;2;173.9848090410377
588;588;1449493868;2.13829135895;0.8045573830600001;0.0677918493748;3;True;45;2;173.9848090410377
589;589;1449493868;2.13833975792;0.80450719595;0.06783043593169999;3;True;45;2;173.9848090410377
590;590;1449493868;2.13828158379;0.8045041561130001;0.0678344219923;3;True;45;2;173.9848090410377
591;591;1449493868;2.1381554603599997;0.8044342994689999;0.0677827075124;3;True;45;2;173.9848090410377
592;592;1449493868;2.13827776909;0.804499328136;0.067828990519;3;True;45;2;173.9848090410377
593;593;1449493868;2.1382381916;0.8045035600660001;0.06785902380940001;3;True;45;2;173.9848090410377
594;594;1449493868;2.1383001804400004;0.804557740688;0.0678074061871;3;True;45;2;173.9848090410377
595;595;1449493868;2.13828015327;0.804481565952;0.067835085094;3;True;45;2;173.9848090410377
596;596;1449493868;2.13827681541;0.8045015335079999;0.06780556589369999;3;True;45;2;173.9848090410377
597;597;1449493868;2.13826322556;0.804513394833;0.0678434148431;3;True;45;2;173.9848090410377
598;598;1449493868;2.1382699012799997;0.8044805526729999;0.067882142961;3;True;45;2;173.9848090410377
599;599;1449493868;2.1382932663;0.8045626878740001;0.0677864328027;3;True;45;2;173.9848090410377
600;600;1449493868;2.1382894516;0.804527938366;0.0678882077336;3;True;45;2;173.9848090410377
601;601;1449493868;2.13828277588;0.804497182369;0.0678424686193;3;True;45;2;173.9848090410377
602;602;1449493868;2.13827943802;0.804474771023;0.0678528770804;3;True;45;2;173.9848090410377
603;603;1449493868;2.13828682899;0.804495453835;0.06780744343999999;3;True;45;2;173.9848090410377
604;604;1449493868;2.13827347755;0.804515719414;0.0677985027432;3;True;45;2;173.9848090410377
605;605;1449493868;2.13829421997;0.804548859596;0.06778973340990001;3;True;45;2;173.9848090410377
606;606;1449493868;2.1382875442500002;0.8044962883;0.06787364929909999;3;True;45;2;173.9848090410377
607;607;1449493868;2.1382019519799997;0.804459631443;0.0678182244301;3;True;45;2;173.9848090410377
608;608;1449493868;2.13826441765;0.804502785206;0.0678342878819;3;True;45;2;173.9848090410377
609;609;1449493868;2.13827323914;0.804508805275;0.0679053217173;3;True;45;2;173.9848090410377
610;610;1449493868;2.13821029663;0.804518699646;0.0677619501948;3;True;45;2;173.9848090410377
611;611;1449493868;2.13826704025;0.8044512271879999;0.0678507834673;3;True;45;2;173.9848090410377
612;612;1449493868;2.13836836815;0.804550111294;0.06781657785180001;3;True;45;2;173.9848090410377
