;Unnamed: 0;header_stamp_secs;pose_position_x;pose_position_y;pose_position_z;seconds;drop_values;flight_number;label;dtw
0;0;1449493996;2.12809562683;0.737176239491;0.06870213150980001;0;True;46;1;21.486150383955003
1;1;1449493996;2.12807583809;0.737189114094;0.0686606243253;0;True;46;1;21.486150383955003
2;2;1449493996;2.12811207771;0.737172424793;0.0686889439821;0;True;46;1;21.486150383955003
3;3;1449493996;2.12816524506;0.7371990680689999;0.0686513260007;0;True;46;1;21.486150383955003
4;4;1449493996;2.1281349659;0.737186312675;0.0686827972531;0;True;46;1;21.486150383955003
5;5;1449493996;2.12816905975;0.7372030019760001;0.06869406253100001;0;True;46;1;21.486150383955003
6;6;1449493996;2.12810230255;0.737148523331;0.0686969012022;0;True;46;1;21.486150383955003
7;7;1449493996;2.12816357613;0.7371894717219999;0.0686725750566;0;True;46;1;21.486150383955003
8;8;1449493996;2.12815451622;0.73718982935;0.0687691569328;0;True;46;1;21.486150383955003
9;9;1449493996;2.1281418800400003;0.7371732592579999;0.0687626078725;0;True;46;1;21.486150383955003
10;10;1449493996;2.12806797028;0.737121582031;0.0687249824405;0;True;46;1;21.486150383955003
11;11;1449493996;2.12818312645;0.737189114094;0.068682089448;0;True;46;1;21.486150383955003
12;12;1449493996;2.12803912163;0.737106204033;0.06872928887610001;0;True;46;1;21.486150383955003
13;13;1449493996;2.1281807422599996;0.737217187881;0.06872820109130001;0;True;46;1;21.486150383955003
14;14;1449493996;2.12819242477;0.7371885776520001;0.06877584755419999;0;True;46;1;21.486150383955003
15;15;1449493996;2.12814927101;0.7371804714200001;0.06873779743910001;0;True;46;1;21.486150383955003
16;16;1449493996;2.1280415058099997;0.737112164497;0.06876745820050001;0;True;46;1;21.486150383955003
17;17;1449493996;2.12818145752;0.7372044920919999;0.06874045729639999;0;True;46;1;21.486150383955003
18;18;1449493996;2.12818646431;0.737201273441;0.0687753856182;0;True;46;1;21.486150383955003
19;19;1449493996;2.1282017231;0.737233817577;0.0687940493226;0;True;46;1;21.486150383955003
20;20;1449493996;2.12814664841;0.7372260689740001;0.0687482133508;0;True;46;1;21.486150383955003
21;21;1449493996;2.12820315361;0.737206280231;0.0687814801931;0;True;46;1;21.486150383955003
22;22;1449493996;2.12818646431;0.7372106909749999;0.0687319040298;0;True;46;1;21.486150383955003
23;23;1449493996;2.12816667557;0.737221002579;0.068737603724;0;True;46;1;21.486150383955003
24;24;1449493996;2.1281785965;0.7371994853020001;0.0687440782785;0;True;46;1;21.486150383955003
25;25;1449493996;2.12822031975;0.737221717834;0.06879510730499999;0;True;46;1;21.486150383955003
26;26;1449493996;2.1282839775099998;0.737293601036;0.06874101608989999;0;True;46;1;21.486150383955003
27;27;1449493996;2.12819552422;0.73720985651;0.0687189549208;0;True;46;1;21.486150383955003
28;28;1449493996;2.1281168460799997;0.737135350704;0.0688081756234;0;True;46;1;21.486150383955003
29;29;1449493996;2.1281900405900003;0.737214207649;0.0687066689134;0;True;46;1;21.486150383955003
30;30;1449493996;2.12814211845;0.7371595501899999;0.0688259005547;0;True;46;1;21.486150383955003
31;31;1449493996;2.12814450264;0.7372111082080001;0.0687396153808;0;True;46;1;21.486150383955003
32;32;1449493996;2.1280364990200002;0.737095355988;0.06873530149460001;0;True;46;1;21.486150383955003
33;33;1449493996;2.1280939579;0.737151384354;0.06873749941589999;0;True;46;1;21.486150383955003
34;34;1449493996;2.12819480896;0.737219572067;0.0687371715903;0;True;46;1;21.486150383955003
35;35;1449493996;2.12814307213;0.737195134163;0.0687356442213;0;True;46;1;21.486150383955003
36;36;1449493996;2.12821865082;0.7372688055040001;0.0686597302556;0;True;46;1;21.486150383955003
37;37;1449493996;2.12808299065;0.7371679544449999;0.068698219955;0;True;46;1;21.486150383955003
38;38;1449493996;2.12816405296;0.7372133731839999;0.06872683763500001;0;True;46;1;21.486150383955003
39;39;1449493996;2.1280837059;0.737187325954;0.068699143827;0;True;46;1;21.486150383955003
40;40;1449493996;2.1281247138999997;0.737180709839;0.068711489439;0;True;46;1;21.486150383955003
41;41;1449493996;2.12810397148;0.73718303442;0.0686926990747;0;True;46;1;21.486150383955003
42;42;1449493996;2.12814164162;0.737191259861;0.06871756911280001;0;True;46;1;21.486150383955003
43;43;1449493996;2.12815141678;0.73716801405;0.0686803460121;0;True;46;1;21.486150383955003
44;44;1449493996;2.12804102898;0.737112641335;0.068725913763;0;True;46;1;21.486150383955003
45;45;1449493996;2.12815976143;0.737208008766;0.0687041729689;0;True;46;1;21.486150383955003
46;46;1449493996;2.12817335129;0.7372065782549999;0.0686419606209;0;True;46;1;21.486150383955003
47;47;1449493996;2.1281478405;0.7371785044670001;0.0687246918678;0;True;46;1;21.486150383955003
48;48;1449493996;2.12814545631;0.7371663451189999;0.0686629340053;0;True;46;1;21.486150383955003
49;49;1449493996;2.1281621456099997;0.73722577095;0.0686947032809;0;True;46;1;21.486150383955003
50;50;1449493996;2.12814617157;0.737204015255;0.0686163976789;0;True;46;1;21.486150383955003
51;51;1449493996;2.12806034088;0.737142920494;0.0687020048499;0;True;46;1;21.486150383955003
52;52;1449493997;2.12807512283;0.737171053886;0.06866537779569999;1;True;46;1;21.486150383955003
53;53;1449493997;2.12810015678;0.737153828144;0.0687065124512;1;True;46;1;21.486150383955003
54;54;1449493997;2.12814736366;0.737199902534;0.0686800330877;1;True;46;1;21.486150383955003
55;55;1449493997;2.12809038162;0.7371692657469999;0.06867182254790001;1;True;46;1;21.486150383955003
56;56;1449493997;2.12809920311;0.7371501326559999;0.0687179639935;1;True;46;1;21.486150383955003
57;57;1449493997;2.12813806534;0.737185001373;0.0686231553555;1;True;46;1;21.486150383955003
58;58;1449493997;2.12811803818;0.7371791005130001;0.0687003806233;1;True;46;1;21.486150383955003
59;59;1449493997;2.12815237045;0.737186551094;0.0686825141311;1;True;46;1;21.486150383955003
60;60;1449493997;2.12804102898;0.737152993679;0.0686287358403;1;True;46;1;21.486150383955003
61;61;1449493997;2.12798643112;0.737058222294;0.0686679929495;1;True;46;1;21.486150383955003
62;62;1449493997;2.1281003952;0.73716121912;0.06866569072010001;1;True;46;1;21.486150383955003
63;63;1449493997;2.1281049251599997;0.7371569275859999;0.06869386136530001;1;True;46;1;21.486150383955003
64;64;1449493997;2.1280400753;0.737098634243;0.06867472082380001;1;True;46;1;21.486150383955003
65;65;1449493997;2.12796092033;0.737099051476;0.0686781778932;1;True;46;1;21.486150383955003
66;66;1449493997;2.1281242370599998;0.737142205238;0.0687019899487;1;True;46;1;21.486150383955003
67;67;1449493997;2.12811350822;0.7371628880500001;0.0686211138964;1;True;46;1;21.486150383955003
68;68;1449493997;2.12796592712;0.737089157104;0.068673402071;1;True;46;1;21.486150383955003
69;69;1449493997;2.12797737122;0.737072885036;0.0686527565122;1;True;46;1;21.486150383955003
70;70;1449493997;2.12807583809;0.737162470818;0.06859322637319999;1;True;46;1;21.486150383955003
71;71;1449493997;2.12812542915;0.737176954746;0.0686814039946;1;True;46;1;21.486150383955003
72;72;1449493997;2.12812399864;0.737174034119;0.0686126202345;1;True;46;1;21.486150383955003
73;73;1449493997;2.1281068325;0.737174332142;0.0686536952853;1;True;46;1;21.486150383955003
74;74;1449493997;2.12815237045;0.737177491188;0.0686239078641;1;True;46;1;21.486150383955003
75;75;1449493997;2.12810111046;0.737183272839;0.0686593726277;1;True;46;1;21.486150383955003
76;76;1449493997;2.12810587883;0.737163126469;0.068627089262;1;True;46;1;21.486150383955003
77;77;1449493997;2.12799358368;0.737120449543;0.06867256760599999;1;True;46;1;21.486150383955003
78;78;1449493997;2.12810111046;0.7371533513070001;0.0686976164579;1;True;46;1;21.486150383955003
79;79;1449493997;2.1279871463799997;0.7370696067810001;0.0686580911279;1;True;46;1;21.486150383955003
80;80;1449493997;2.12809896469;0.737191796303;0.06866078823800001;1;True;46;1;21.486150383955003
81;81;1449493997;2.12809872627;0.737163066864;0.0686946064234;1;True;46;1;21.486150383955003
82;82;1449493997;2.12810707092;0.737185418606;0.0686208680272;1;True;46;1;21.486150383955003
83;83;1449493997;2.12803721428;0.7371485829350001;0.0686815977097;1;True;46;1;21.486150383955003
84;84;1449493997;2.12808680534;0.737187922001;0.06861139833930001;1;True;46;1;21.486150383955003
85;85;1449493997;2.12814092636;0.737189233303;0.068627089262;1;True;46;1;21.486150383955003
86;86;1449493997;2.12811732292;0.7371798753740001;0.0686379745603;1;True;46;1;21.486150383955003
87;87;1449493997;2.12799954414;0.737099170685;0.0686708167195;1;True;46;1;21.486150383955003
88;88;1449493997;2.12807011604;0.7371896505359999;0.0686365440488;1;True;46;1;21.486150383955003
89;89;1449493997;2.12804865837;0.737191796303;0.068635776639;1;True;46;1;21.486150383955003
90;90;1449493997;2.12810397148;0.737197875977;0.0687141418457;1;True;46;1;21.486150383955003
91;91;1449493997;2.12808322906;0.737195551395;0.0686500892043;1;True;46;1;21.486150383955003
92;92;1449493997;2.1281027793900003;0.737200438976;0.068679638207;1;True;46;1;21.486150383955003
93;93;1449493997;2.12802624702;0.737145423889;0.06868416816;1;True;46;1;21.486150383955003
94;94;1449493997;2.1281323432900003;0.737186610699;0.0686513856053;1;True;46;1;21.486150383955003
95;95;1449493997;2.1280591487900002;0.737155079842;0.0686730220914;1;True;46;1;21.486150383955003
96;96;1449493997;2.1281580925;0.737235963345;0.0686814785004;1;True;46;1;21.486150383955003
97;97;1449493997;2.1281168460799997;0.737197816372;0.068619556725;1;True;46;1;21.486150383955003
98;98;1449493997;2.12808060646;0.7371875643729999;0.06866945326330001;1;True;46;1;21.486150383955003
99;99;1449493997;2.12803339958;0.737127900124;0.0686869099736;1;True;46;1;21.486150383955003
100;100;1449493997;2.1280789375299998;0.7371949553489999;0.068670488894;1;True;46;1;21.486150383955003
101;101;1449493997;2.12813520432;0.7371921539309999;0.0687001794577;1;True;46;1;21.486150383955003
102;102;1449493997;2.12804079056;0.737136602402;0.0687189176679;1;True;46;1;21.486150383955003
103;103;1449493997;2.1281530857099997;0.7372328042980001;0.0686865448952;1;True;46;1;21.486150383955003
104;104;1449493997;2.1280605793;0.7371579408650001;0.068713478744;1;True;46;1;21.486150383955003
105;105;1449493997;2.12811350822;0.737184405327;0.0686863809824;1;True;46;1;21.486150383955003
106;106;1449493997;2.1280539035799997;0.737114369869;0.0687585622072;1;True;46;1;21.486150383955003
107;107;1449493997;2.12810635567;0.737197101116;0.0686812102795;1;True;46;1;21.486150383955003
108;108;1449493997;2.12815332413;0.7371785044670001;0.06864394247530001;1;True;46;1;21.486150383955003
109;109;1449493997;2.12814903259;0.737181961536;0.0686701759696;1;True;46;1;21.486150383955003
110;110;1449493997;2.1280837059;0.737165927887;0.06872369349;1;True;46;1;21.486150383955003
111;111;1449493997;2.1281530857099997;0.7371789813040001;0.0686585232615;1;True;46;1;21.486150383955003
112;112;1449493997;2.12814927101;0.737181425095;0.0686629340053;1;True;46;1;21.486150383955003
113;113;1449493997;2.12804722786;0.737130880356;0.06871914118530001;1;True;46;1;21.486150383955003
114;114;1449493997;2.1281411647799997;0.7371806502339999;0.0687175318599;1;True;46;1;21.486150383955003
115;115;1449493997;2.12804698944;0.737135767937;0.0687196776271;1;True;46;1;21.486150383955003
116;116;1449493997;2.1280682086900002;0.737154901028;0.0687129124999;1;True;46;1;21.486150383955003
117;117;1449493997;2.1280934810599996;0.7371960878370001;0.0686885863543;1;True;46;1;21.486150383955003
118;118;1449493997;2.12817263603;0.737166643143;0.06872893869880001;1;True;46;1;21.486150383955003
119;119;1449493997;2.12807774544;0.7371508479119999;0.06871723383669999;1;True;46;1;21.486150383955003
120;120;1449493997;2.12815213203;0.737180352211;0.0686669275165;1;True;46;1;21.486150383955003
121;121;1449493997;2.1280846595800003;0.7371330261229999;0.0687178447843;1;True;46;1;21.486150383955003
122;122;1449493997;2.1281411647799997;0.737167537212;0.0687173977494;1;True;46;1;21.486150383955003
123;123;1449493997;2.12805366516;0.73712182045;0.068703815341;1;True;46;1;21.486150383955003
124;124;1449493997;2.1280741691599996;0.7371780872339999;0.06866814941169999;1;True;46;1;21.486150383955003
125;125;1449493997;2.12812185287;0.7371715903280001;0.0687057450414;1;True;46;1;21.486150383955003
126;126;1449493997;2.12815928459;0.7371785640719999;0.0686908885837;1;True;46;1;21.486150383955003
127;127;1449493997;2.12807536125;0.737175881863;0.068695962429;1;True;46;1;21.486150383955003
128;128;1449493997;2.12815642357;0.737140238285;0.0686507672071;1;True;46;1;21.486150383955003
129;129;1449493997;2.12809228897;0.7371743917470001;0.06871665269140001;1;True;46;1;21.486150383955003
130;130;1449493997;2.12812590599;0.7371805906300001;0.06868218630549999;1;True;46;1;21.486150383955003
131;131;1449493997;2.1281061172499998;0.7371715903280001;0.06873412430289999;1;True;46;1;21.486150383955003
132;132;1449493997;2.12813353539;0.7371600866320001;0.06865920126439999;1;True;46;1;21.486150383955003
133;133;1449493997;2.1281478405;0.7371708750720001;0.0686533525586;1;True;46;1;21.486150383955003
134;134;1449493997;2.12815856934;0.7371688485150001;0.0687122419477;1;True;46;1;21.486150383955003
135;135;1449493997;2.1281483173400004;0.737151563168;0.0687219500542;1;True;46;1;21.486150383955003
136;136;1449493997;2.1281435489700002;0.737163841724;0.0686596855521;1;True;46;1;21.486150383955003
137;137;1449493997;2.12815022469;0.737191140652;0.0686525404453;1;True;46;1;21.486150383955003
138;138;1449493997;2.12808990479;0.737173736095;0.0686865597963;1;True;46;1;21.486150383955003
139;139;1449493997;2.12814688683;0.737215042114;0.0686944574118;1;True;46;1;21.486150383955003
140;140;1449493997;2.12810015678;0.737186193466;0.0686791390181;1;True;46;1;21.486150383955003
141;141;1449493997;2.1281273365;0.7371545434000001;0.0686745792627;1;True;46;1;21.486150383955003
142;142;1449493997;2.12815523148;0.737164616585;0.06866598129269999;1;True;46;1;21.486150383955003
143;143;1449493997;2.12812757492;0.737163007259;0.0687524974346;1;True;46;1;21.486150383955003
144;144;1449493997;2.1280615329700003;0.73708575964;0.06874357908960001;1;True;46;1;21.486150383955003
145;145;1449493997;2.12806534767;0.737125992775;0.0687106251717;1;True;46;1;21.486150383955003
146;146;1449493997;2.12813138962;0.737189948559;0.06869755685330001;1;True;46;1;21.486150383955003
147;147;1449493997;2.12815237045;0.737166464329;0.0686674267054;1;True;46;1;21.486150383955003
148;148;1449493997;2.1281061172499998;0.737147271633;0.0687418729067;1;True;46;1;21.486150383955003
149;149;1449493997;2.1281580925;0.737191617489;0.0686450749636;1;True;46;1;21.486150383955003
150;150;1449493997;2.12807202339;0.737107396126;0.0687193647027;1;True;46;1;21.486150383955003
151;151;1449493997;2.12815117836;0.737145721912;0.06868021935219999;1;True;46;1;21.486150383955003
152;152;1449493997;2.1280889511099996;0.737130761147;0.0687211826444;1;True;46;1;21.486150383955003
153;153;1449493997;2.12809538841;0.737167358398;0.0686591714621;1;True;46;1;21.486150383955003
154;154;1449493997;2.1281147003200003;0.737164855003;0.068674467504;1;True;46;1;21.486150383955003
155;155;1449493997;2.12814998627;0.737152397633;0.0686833411455;1;True;46;1;21.486150383955003
156;156;1449493997;2.12808609009;0.737123668194;0.0687149316072;1;True;46;1;21.486150383955003
157;157;1449493997;2.12815070152;0.737174451351;0.0686999484897;1;True;46;1;21.486150383955003
158;158;1449493997;2.1281619072;0.737191677094;0.068665958941;1;True;46;1;21.486150383955003
159;159;1449493997;2.12820529938;0.737180769444;0.0686817616224;1;True;46;1;21.486150383955003
160;160;1449493997;2.1281754970599995;0.737171173096;0.06866963207719999;1;True;46;1;21.486150383955003
161;161;1449493997;2.12816548347;0.737168908119;0.0686744377017;1;True;46;1;21.486150383955003
162;162;1449493997;2.12817120552;0.737157583237;0.06867910921569999;1;True;46;1;21.486150383955003
163;163;1449493997;2.12813925743;0.737170934677;0.06869857758280001;1;True;46;1;21.486150383955003
164;164;1449493997;2.1280896663699997;0.737110853195;0.0687239319086;1;True;46;1;21.486150383955003
165;165;1449493997;2.12810373306;0.737170517445;0.0686878710985;1;True;46;1;21.486150383955003
166;166;1449493997;2.1280555725099997;0.737088561058;0.0687000975013;1;True;46;1;21.486150383955003
167;167;1449493997;2.12812805176;0.737196564674;0.0687000751495;1;True;46;1;21.486150383955003
168;168;1449493997;2.12815213203;0.737187087536;0.0687494874001;1;True;46;1;21.486150383955003
169;169;1449493997;2.1281435489700002;0.737182319164;0.0686997398734;1;True;46;1;21.486150383955003
170;170;1449493997;2.12815928459;0.737180769444;0.0687461048365;1;True;46;1;21.486150383955003
171;171;1449493997;2.12815642357;0.737173318863;0.0686820968986;1;True;46;1;21.486150383955003
172;172;1449493997;2.12812113762;0.737191915512;0.0686925798655;1;True;46;1;21.486150383955003
173;173;1449493997;2.12816476822;0.7371763587000001;0.0686804056168;1;True;46;1;21.486150383955003
174;174;1449493997;2.1281118392900003;0.7371862530709999;0.0686822757125;1;True;46;1;21.486150383955003
175;175;1449493997;2.12815928459;0.737198650837;0.0687029957771;1;True;46;1;21.486150383955003
176;176;1449493997;2.12808728218;0.737134754658;0.06871508806940001;1;True;46;1;21.486150383955003
177;177;1449493997;2.1281683444999997;0.7371813654899999;0.06873075664039999;1;True;46;1;21.486150383955003
178;178;1449493997;2.1281397342700004;0.7371872663500001;0.06870346516369999;1;True;46;1;21.486150383955003
179;179;1449493997;2.1281068325;0.7371996045110001;0.0686841830611;1;True;46;1;21.486150383955003
180;180;1449493997;2.12815403938;0.737186431885;0.0686674639583;1;True;46;1;21.486150383955003
181;181;1449493997;2.1281237602200003;0.7371913790700001;0.0686973631382;1;True;46;1;21.486150383955003
182;182;1449493997;2.12818622589;0.737242758274;0.06870631128549999;1;True;46;1;21.486150383955003
183;183;1449493997;2.1280503273;0.7371650338169999;0.0687086954713;1;True;46;1;21.486150383955003
184;184;1449493997;2.12814021111;0.737187325954;0.06867796927690001;1;True;46;1;21.486150383955003
185;185;1449493997;2.12814927101;0.737191259861;0.0686467140913;1;True;46;1;21.486150383955003
186;186;1449493997;2.12810182571;0.7371926903720001;0.0686492398381;1;True;46;1;21.486150383955003
187;187;1449493997;2.12814688683;0.737198650837;0.0686481744051;1;True;46;1;21.486150383955003
188;188;1449493997;2.12811279297;0.737189233303;0.06867798417809999;1;True;46;1;21.486150383955003
189;189;1449493997;2.1281356811500003;0.7371799349779999;0.0686860978603;1;True;46;1;21.486150383955003
190;190;1449493997;2.1281323432900003;0.73719805479;0.0686819925904;1;True;46;1;21.486150383955003
191;191;1449493997;2.12813353539;0.737184107304;0.0686580091715;1;True;46;1;21.486150383955003
192;192;1449493997;2.12803673744;0.737097978592;0.0687004476786;1;True;46;1;21.486150383955003
193;193;1449493997;2.1281478405;0.737231612206;0.06867551803590001;1;True;46;1;21.486150383955003
194;194;1449493997;2.1281464099900003;0.737184464931;0.06863808631900001;1;True;46;1;21.486150383955003
195;195;1449493997;2.12811088562;0.737181544304;0.06864623725409999;1;True;46;1;21.486150383955003
196;196;1449493997;2.12811994553;0.7371921539309999;0.0686689093709;1;True;46;1;21.486150383955003
197;197;1449493997;2.12807130814;0.737192630768;0.06863252818580001;1;True;46;1;21.486150383955003
198;198;1449493997;2.12811875343;0.737192749977;0.0686642229557;1;True;46;1;21.486150383955003
199;199;1449493997;2.1281130313900003;0.737186908722;0.0686965957284;1;True;46;1;21.486150383955003
200;200;1449493997;2.12816143036;0.7372090816500001;0.0686623230577;1;True;46;1;21.486150383955003
201;201;1449493997;2.12815713882;0.737189531326;0.068719252944;1;True;46;1;21.486150383955003
202;202;1449493997;2.12814211845;0.737201809883;0.068680755794;1;True;46;1;21.486150383955003
203;203;1449493997;2.1281237602200003;0.737200260162;0.068670772016;1;True;46;1;21.486150383955003
204;204;1449493997;2.12812185287;0.7372092604639999;0.0686648488045;1;True;46;1;21.486150383955003
205;205;1449493997;2.12815141678;0.737191617489;0.0686194300652;1;True;46;1;21.486150383955003
206;206;1449493997;2.12809181213;0.737201213837;0.0686526224017;1;True;46;1;21.486150383955003
207;207;1449493997;2.12812709808;0.7372009754180001;0.0686649903655;1;True;46;1;21.486150383955003
208;208;1449493997;2.1280939579;0.737195193768;0.06863917410369999;1;True;46;1;21.486150383955003
209;209;1449493997;2.12800312042;0.737086176872;0.0686668381095;1;True;46;1;21.486150383955003
210;210;1449493997;2.1280059814500003;0.737089693546;0.068658657372;1;True;46;1;21.486150383955003
211;211;1449493997;2.1280002594;0.737078249454;0.06866810470819999;1;True;46;1;21.486150383955003
212;212;1449493997;2.1281278133400003;0.737176060677;0.0686126351357;1;True;46;1;21.486150383955003
213;213;1449493997;2.12807798386;0.737188994884;0.0686380043626;1;True;46;1;21.486150383955003
214;214;1449493997;2.12815451622;0.737185537815;0.0686193704605;1;True;46;1;21.486150383955003
215;215;1449493997;2.12812590599;0.737165272236;0.0686731860042;1;True;46;1;21.486150383955003
216;216;1449493997;2.12812447548;0.7371755838390001;0.0687022134662;1;True;46;1;21.486150383955003
217;217;1449493997;2.12812805176;0.737179517746;0.0686382204294;1;True;46;1;21.486150383955003
218;218;1449493997;2.1280975341799997;0.737165331841;0.0686867386103;1;True;46;1;21.486150383955003
219;219;1449493997;2.1281094551099997;0.7371704578399999;0.0686132535338;1;True;46;1;21.486150383955003
220;220;1449493997;2.1281232833900003;0.737204670906;0.06866043806080001;1;True;46;1;21.486150383955003
221;221;1449493997;2.1281034946400004;0.7371860146520001;0.06870476901530001;1;True;46;1;21.486150383955003
222;222;1449493997;2.1281163692500003;0.7371753454209999;0.0686178281903;1;True;46;1;21.486150383955003
223;223;1449493997;2.1281094551099997;0.7371582388879999;0.0686317384243;1;True;46;1;21.486150383955003
224;224;1449493997;2.12806534767;0.7371853590009999;0.0686424225569;1;True;46;1;21.486150383955003
225;225;1449493997;2.1281397342700004;0.737187325954;0.0686605423689;1;True;46;1;21.486150383955003
226;226;1449493997;2.12806415558;0.7371301651000001;0.0686757937074;1;True;46;1;21.486150383955003
227;227;1449493997;2.12797951698;0.737081646919;0.06867131590839999;1;True;46;1;21.486150383955003
228;228;1449493997;2.12811422348;0.737170100212;0.0686348974705;1;True;46;1;21.486150383955003
229;229;1449493997;2.12810087204;0.7371797561650001;0.06866123527290001;1;True;46;1;21.486150383955003
230;230;1449493997;2.12809419632;0.737176239491;0.0686623007059;1;True;46;1;21.486150383955003
231;231;1449493997;2.12812900543;0.737191736698;0.0686969012022;1;True;46;1;21.486150383955003
232;232;1449493997;2.12806344032;0.7371857762340001;0.0686579719186;1;True;46;1;21.486150383955003
233;233;1449493997;2.12811160088;0.737207889557;0.0686716362834;1;True;46;1;21.486150383955003
234;234;1449493997;2.1280846595800003;0.737200081348;0.0686620473862;1;True;46;1;21.486150383955003
235;235;1449493997;2.12805485725;0.737106144428;0.0687469393015;1;True;46;1;21.486150383955003
236;236;1449493997;2.12799835205;0.7370938062669999;0.0686928480864;1;True;46;1;21.486150383955003
237;237;1449493997;2.1280066967;0.737103223801;0.0687063261867;1;True;46;1;21.486150383955003
238;238;1449493997;2.12808299065;0.7371499538420001;0.068709589541;1;True;46;1;21.486150383955003
239;239;1449493997;2.12814998627;0.737208068371;0.0686942189932;1;True;46;1;21.486150383955003
240;240;1449493997;2.12820625305;0.7372118234630001;0.068681396544;1;True;46;1;21.486150383955003
241;241;1449493997;2.12813997269;0.737214624882;0.0687171518803;1;True;46;1;21.486150383955003
242;242;1449493997;2.12817001343;0.7372174263;0.0686652734876;1;True;46;1;21.486150383955003
243;243;1449493997;2.12814259529;0.737186431885;0.0686893761158;1;True;46;1;21.486150383955003
244;244;1449493997;2.1280813217200003;0.737139880657;0.0687350332737;1;True;46;1;21.486150383955003
245;245;1449493997;2.12814211845;0.737200737;0.06875502318139999;1;True;46;1;21.486150383955003
246;246;1449493997;2.12815499306;0.737186193466;0.06874993443489999;1;True;46;1;21.486150383955003
247;247;1449493997;2.12816548347;0.737200260162;0.06870348751540001;1;True;46;1;21.486150383955003
248;248;1449493997;2.12816381454;0.7372177839280001;0.0687279999256;1;True;46;1;21.486150383955003
249;249;1449493997;2.1281371116599996;0.737211167812;0.06871290504930001;1;True;46;1;21.486150383955003
250;250;1449493997;2.12817835808;0.737212657928;0.06874804943799999;1;True;46;1;21.486150383955003
251;251;1449493997;2.1281774044;0.7372385859489999;0.068743750453;1;True;46;1;21.486150383955003
252;252;1449493997;2.12815475464;0.7372124791150001;0.0687364041805;1;True;46;1;21.486150383955003
253;253;1449493997;2.12817001343;0.737203299999;0.06871364265680001;1;True;46;1;21.486150383955003
254;254;1449493997;2.1281800270099995;0.7371900677680001;0.0687418803573;1;True;46;1;21.486150383955003
255;255;1449493997;2.1281278133400003;0.7371643185619999;0.0687581300735;1;True;46;1;21.486150383955003
256;256;1449493997;2.12819385529;0.7372416853899999;0.06879136711360001;1;True;46;1;21.486150383955003
257;257;1449493997;2.12820887566;0.737243235111;0.068762563169;1;True;46;1;21.486150383955003
258;258;1449493997;2.1281516552;0.737217545509;0.0687285959721;1;True;46;1;21.486150383955003
259;259;1449493997;2.12820744514;0.7372081875800001;0.0687094852328;1;True;46;1;21.486150383955003
260;260;1449493997;2.1281554698900003;0.7372214794159999;0.0687376111746;1;True;46;1;21.486150383955003
261;261;1449493997;2.12813854218;0.737159609795;0.06876136362549999;1;True;46;1;21.486150383955003
262;262;1449493997;2.12822651863;0.737235724926;0.0687346756458;1;True;46;1;21.486150383955003
263;263;1449493997;2.1281945705400003;0.737212359905;0.068736076355;1;True;46;1;21.486150383955003
264;264;1449493997;2.12818694115;0.737192511559;0.0687175616622;1;True;46;1;21.486150383955003
265;265;1449493997;2.12815332413;0.73720395565;0.0687227323651;1;True;46;1;21.486150383955003
266;266;1449493997;2.1281332969699998;0.737163484097;0.06875698268410001;1;True;46;1;21.486150383955003
267;267;1449493997;2.1281237602200003;0.737143456936;0.0687420368195;1;True;46;1;21.486150383955003
268;268;1449493997;2.12813210487;0.737197756767;0.0687185972929;1;True;46;1;21.486150383955003
269;269;1449493997;2.12814378738;0.7372077107430001;0.0687162131071;1;True;46;1;21.486150383955003
270;270;1449493997;2.12828040123;0.7372514009479999;0.0687145218253;1;True;46;1;21.486150383955003
271;271;1449493997;2.12806749344;0.737106561661;0.0687310770154;1;True;46;1;21.486150383955003
272;272;1449493997;2.1281752586400002;0.737176299095;0.06870681792500001;1;True;46;1;21.486150383955003
273;273;1449493997;2.12801098824;0.737077176571;0.0686516687274;1;True;46;1;21.486150383955003
274;274;1449493997;2.12817001343;0.7372105717659999;0.06872342526910001;1;True;46;1;21.486150383955003
275;275;1449493997;2.1281337738;0.7371777892110001;0.0687496364117;1;True;46;1;21.486150383955003
276;276;1449493997;2.12817001343;0.737209200859;0.0686742067337;1;True;46;1;21.486150383955003
277;277;1449493997;2.12809514999;0.737140417099;0.0687219947577;1;True;46;1;21.486150383955003
278;278;1449493997;2.12816667557;0.7371732592579999;0.0686692595482;1;True;46;1;21.486150383955003
279;279;1449493997;2.12816262245;0.737178266048;0.06866176426409999;1;True;46;1;21.486150383955003
280;280;1449493997;2.1281497478499998;0.737182796001;0.06869224458930001;1;True;46;1;21.486150383955003
281;281;1449493997;2.12813878059;0.7371764779090001;0.0686910003424;1;True;46;1;21.486150383955003
282;282;1449493997;2.12816643715;0.737202227116;0.06870541721580001;1;True;46;1;21.486150383955003
283;283;1449493997;2.1281132698099996;0.7371620535850001;0.0686917603016;1;True;46;1;21.486150383955003
284;284;1449493997;2.1281363964099995;0.7371668815610001;0.0686620771885;1;True;46;1;21.486150383955003
285;285;1449493997;2.12814331055;0.7371892929080001;0.0686992257833;1;True;46;1;21.486150383955003
286;286;1449493997;2.1281607151;0.737213909626;0.0686185061932;1;True;46;1;21.486150383955003
287;287;1449493997;2.12813425064;0.737178862095;0.0686647295952;1;True;46;1;21.486150383955003
288;288;1449493997;2.1281206607799996;0.737158000469;0.06869862228630001;1;True;46;1;21.486150383955003
289;289;1449493997;2.12812519073;0.737162709236;0.068627089262;1;True;46;1;21.486150383955003
290;290;1449493997;2.1280655860900004;0.7371121048929999;0.0687014386058;1;True;46;1;21.486150383955003
291;291;1449493998;2.12807655334;0.737099766731;0.0687158256769;2;True;46;1;21.486150383955003
292;292;1449493998;2.1281888485;0.73721241951;0.06864791363480001;2;True;46;1;21.486150383955003
293;293;1449493998;2.12809634209;0.7371701598170001;0.0686491429806;2;True;46;1;21.486150383955003
294;294;1449493998;2.1280419826499997;0.737090349197;0.0687131807208;2;True;46;1;21.486150383955003
295;295;1449493998;2.1281144619;0.737173199654;0.0686638355255;2;True;46;1;21.486150383955003
296;296;1449493998;2.12810969353;0.7371810674670001;0.0686491653323;2;True;46;1;21.486150383955003
297;297;1449493998;2.12798452377;0.7371009588240001;0.0686613023281;2;True;46;1;21.486150383955003
298;298;1449493998;2.12815499306;0.737176597118;0.0686149373651;2;True;46;1;21.486150383955003
299;299;1449493998;2.12815332413;0.737219631672;0.0686605870724;2;True;46;1;21.486150383955003
300;300;1449493998;2.12809801102;0.7371679544449999;0.068648763001;2;True;46;1;21.486150383955003
301;301;1449493998;2.12810778618;0.737165093422;0.0686453506351;2;True;46;1;21.486150383955003
302;302;1449493998;2.1281147003200003;0.7371689677240001;0.0686106905341;2;True;46;1;21.486150383955003
303;303;1449493998;2.12806415558;0.7371772527689999;0.0686241313815;2;True;46;1;21.486150383955003
304;304;1449493998;2.12811255455;0.7371650338169999;0.0686311423779;2;True;46;1;21.486150383955003
305;305;1449493998;2.12810993195;0.7371691465379999;0.0686231404543;2;True;46;1;21.486150383955003
306;306;1449493998;2.1281576156599997;0.737206935883;0.06864659488199999;2;True;46;1;21.486150383955003
307;307;1449493998;2.12815356255;0.737154245377;0.0686107650399;2;True;46;1;21.486150383955003
308;308;1449493998;2.12806510925;0.737193763256;0.0686368271708;2;True;46;1;21.486150383955003
309;309;1449493998;2.12802481651;0.7370975017550001;0.06869350373739999;2;True;46;1;21.486150383955003
310;310;1449493998;2.12807130814;0.7371898889540001;0.06863222271200001;2;True;46;1;21.486150383955003
311;311;1449493998;2.12812161446;0.737178862095;0.0686196386814;2;True;46;1;21.486150383955003
312;312;1449493998;2.12809658051;0.7371799349779999;0.0686932727695;2;True;46;1;21.486150383955003
313;313;1449493998;2.12810564041;0.737184464931;0.0686501860619;2;True;46;1;21.486150383955003
314;314;1449493998;2.12814164162;0.73720985651;0.0686305463314;2;True;46;1;21.486150383955003
315;315;1449493998;2.12798810005;0.7371109128;0.0686755031347;2;True;46;1;21.486150383955003
316;316;1449493998;2.12809848785;0.7371730208399999;0.0686930790544;2;True;46;1;21.486150383955003
317;317;1449493998;2.12811374664;0.7372044920919999;0.0687082409859;2;True;46;1;21.486150383955003
318;318;1449493998;2.12810182571;0.737169325352;0.068642064929;2;True;46;1;21.486150383955003
319;319;1449493998;2.1281027793900003;0.737187325954;0.068630553782;2;True;46;1;21.486150383955003
320;320;1449493998;2.12810254097;0.737176179886;0.0686826407909;2;True;46;1;21.486150383955003
321;321;1449493998;2.12809634209;0.737197697163;0.0686651617289;2;True;46;1;21.486150383955003
322;322;1449493998;2.1281042099;0.737191140652;0.0687194019556;2;True;46;1;21.486150383955003
323;323;1449493998;2.12810134888;0.737200260162;0.0686643645167;2;True;46;1;21.486150383955003
324;324;1449493998;2.12812161446;0.737186789513;0.068637214601;2;True;46;1;21.486150383955003
325;325;1449493998;2.12809085846;0.73717802763;0.0686848089099;2;True;46;1;21.486150383955003
326;326;1449493998;2.12811756134;0.737230479717;0.06861392408610001;2;True;46;1;21.486150383955003
327;327;1449493998;2.12807774544;0.7371993660930001;0.068665124476;2;True;46;1;21.486150383955003
328;328;1449493998;2.12805747986;0.737162590027;0.0686859041452;2;True;46;1;21.486150383955003
329;329;1449493998;2.1280939579;0.737192809582;0.0687189027667;2;True;46;1;21.486150383955003
330;330;1449493998;2.12799811363;0.737146377563;0.0686977282166;2;True;46;1;21.486150383955003
331;331;1449493998;2.12801170349;0.737143397331;0.0686897188425;2;True;46;1;21.486150383955003
332;332;1449493998;2.12808704376;0.73718470335;0.0686687231064;2;True;46;1;21.486150383955003
333;333;1449493998;2.1280789375299998;0.7371833324429999;0.068676687777;2;True;46;1;21.486150383955003
334;334;1449493998;2.12812161446;0.737207233906;0.06870193779469999;2;True;46;1;21.486150383955003
335;335;1449493998;2.12809324265;0.7371851801870001;0.0686701387167;2;True;46;1;21.486150383955003
336;336;1449493998;2.1280207634;0.7371111512180001;0.0687121525407;2;True;46;1;21.486150383955003
337;337;1449493998;2.1281027793900003;0.7371970415119999;0.0686282813549;2;True;46;1;21.486150383955003
338;338;1449493998;2.12809538841;0.7371776700020001;0.068654038012;2;True;46;1;21.486150383955003
339;339;1449493998;2.1280727386500002;0.737199544907;0.0686729028821;2;True;46;1;21.486150383955003
340;340;1449493998;2.12811279297;0.737192392349;0.0686724111438;2;True;46;1;21.486150383955003
341;341;1449493998;2.12809252739;0.737189114094;0.0686901211739;2;True;46;1;21.486150383955003
342;342;1449493998;2.12802267075;0.737155437469;0.06870795041319999;2;True;46;1;21.486150383955003
343;343;1449493998;2.1280760765099997;0.737202048302;0.0686589106917;2;True;46;1;21.486150383955003
344;344;1449493998;2.1281607151;0.7371956706049999;0.0686592981219;2;True;46;1;21.486150383955003
345;345;1449493998;2.12799572945;0.737115383148;0.06869070976969999;2;True;46;1;21.486150383955003
346;346;1449493998;2.12813735008;0.7372311949729999;0.0686875209212;2;True;46;1;21.486150383955003
347;347;1449493998;2.1281371116599996;0.737222075462;0.06868760287759999;2;True;46;1;21.486150383955003
348;348;1449493998;2.1281316280400002;0.7371730208399999;0.0686558410525;2;True;46;1;21.486150383955003
349;349;1449493998;2.12813901901;0.7372258901600001;0.0687010809779;2;True;46;1;21.486150383955003
350;350;1449493998;2.1281049251599997;0.7371791601180001;0.0686776712537;2;True;46;1;21.486150383955003
351;351;1449493998;2.12812018394;0.737173318863;0.0687405616045;2;True;46;1;21.486150383955003
352;352;1449493998;2.12797951698;0.7371004223819999;0.0686980336905;2;True;46;1;21.486150383955003
353;353;1449493998;2.12810754776;0.7371827363969999;0.0686844959855;2;True;46;1;21.486150383955003
354;354;1449493998;2.12810587883;0.737174868584;0.068686529994;2;True;46;1;21.486150383955003
355;355;1449493998;2.12814378738;0.7371752262119999;0.06866171956059999;2;True;46;1;21.486150383955003
356;356;1449493998;2.1281349659;0.7372035980220001;0.0686946809292;2;True;46;1;21.486150383955003
357;357;1449493998;2.12812042236;0.737165808678;0.0686561465263;2;True;46;1;21.486150383955003
358;358;1449493998;2.1281530857099997;0.7371780872339999;0.068649455905;2;True;46;1;21.486150383955003
359;359;1449493998;2.1280901432;0.7371888756749999;0.0686793252826;2;True;46;1;21.486150383955003
360;360;1449493998;2.12815380096;0.737196624279;0.0686450600624;2;True;46;1;21.486150383955003
361;361;1449493998;2.1281366348299997;0.737171888351;0.06866505742069999;2;True;46;1;21.486150383955003
362;362;1449493998;2.12814879417;0.737170517445;0.068673402071;2;True;46;1;21.486150383955003
363;363;1449493998;2.1281208992;0.737177312374;0.068678997457;2;True;46;1;21.486150383955003
364;364;1449493998;2.12815332413;0.73717212677;0.0686574429274;2;True;46;1;21.486150383955003
365;365;1449493998;2.12814545631;0.7371730208399999;0.0686729997396;2;True;46;1;21.486150383955003
366;366;1449493998;2.1281247138999997;0.737165808678;0.06872624158860001;2;True;46;1;21.486150383955003
367;367;1449493998;2.1281337738;0.7371641397480001;0.0686656683683;2;True;46;1;21.486150383955003
368;368;1449493998;2.12802052498;0.737117111683;0.0687170103192;2;True;46;1;21.486150383955003
369;369;1449493998;2.12809181213;0.737181425095;0.0686715990305;2;True;46;1;21.486150383955003
370;370;1449493998;2.1281278133400003;0.737184464931;0.0686960220337;2;True;46;1;21.486150383955003
371;371;1449493998;2.12810635567;0.7371956706049999;0.0686754137278;2;True;46;1;21.486150383955003
372;372;1449493998;2.1281032562299997;0.7371908426279999;0.06867485493419999;2;True;46;1;21.486150383955003
373;373;1449493998;2.12812972069;0.737172245979;0.0686830729246;2;True;46;1;21.486150383955003
374;374;1449493998;2.12811613083;0.737157821655;0.06866858154540001;2;True;46;1;21.486150383955003
375;375;1449493998;2.1281576156599997;0.737205028534;0.06869325786830001;2;True;46;1;21.486150383955003
376;376;1449493998;2.12815189362;0.737168490887;0.0686587095261;2;True;46;1;21.486150383955003
377;377;1449493998;2.12813305855;0.737184107304;0.0686953365803;2;True;46;1;21.486150383955003
378;378;1449493998;2.12804389;0.7371376752850001;0.0687077715993;2;True;46;1;21.486150383955003
379;379;1449493998;2.12811756134;0.737167000771;0.0687402635813;2;True;46;1;21.486150383955003
380;380;1449493998;2.1280934810599996;0.737198114395;0.0686788484454;2;True;46;1;21.486150383955003
381;381;1449493998;2.1280977726;0.7371758222579999;0.0686842054129;2;True;46;1;21.486150383955003
382;382;1449493998;2.1281106472;0.737172722816;0.0687004625797;2;True;46;1;21.486150383955003
383;383;1449493998;2.1281414032;0.7371730208399999;0.0686798021197;2;True;46;1;21.486150383955003
384;384;1449493998;2.1281456947299997;0.7371764779090001;0.06865687668319999;2;True;46;1;21.486150383955003
385;385;1449493998;2.12814259529;0.7371717095379999;0.0686656758189;2;True;46;1;21.486150383955003
386;386;1449493998;2.1280887126900003;0.737143814564;0.0687151476741;2;True;46;1;21.486150383955003
387;387;1449493998;2.1281311512;0.737168669701;0.0687067508698;2;True;46;1;21.486150383955003
388;388;1449493998;2.12815666199;0.737191081047;0.0686633437872;2;True;46;1;21.486150383955003
389;389;1449493998;2.1280376911200003;0.7371049523350001;0.0687222406268;2;True;46;1;21.486150383955003
390;390;1449493998;2.12814950943;0.7371973991390001;0.0686995014548;2;True;46;1;21.486150383955003
391;391;1449493998;2.1281645298;0.7371885776520001;0.0686683654785;2;True;46;1;21.486150383955003
392;392;1449493998;2.1281754970599995;0.737195014954;0.0686689913273;2;True;46;1;21.486150383955003
393;393;1449493998;2.12816023827;0.737192630768;0.0686614438891;2;True;46;1;21.486150383955003
394;394;1449493998;2.12814283371;0.737192511559;0.06875983625649999;2;True;46;1;21.486150383955003
395;395;1449493998;2.1281130313900003;0.737195730209;0.06869719922539999;2;True;46;1;21.486150383955003
396;396;1449493998;2.12810134888;0.7371731400489999;0.0687297582626;2;True;46;1;21.486150383955003
397;397;1449493998;2.1281619072;0.7372042536740001;0.0687625706196;2;True;46;1;21.486150383955003
398;398;1449493998;2.12814950943;0.737204968929;0.06871022284030001;2;True;46;1;21.486150383955003
399;399;1449493998;2.12815380096;0.737196445465;0.0687004476786;2;True;46;1;21.486150383955003
400;400;1449493998;2.1280961036700003;0.737119734287;0.0687412023544;2;True;46;1;21.486150383955003
401;401;1449493998;2.1280875206;0.737139582634;0.0687235891819;2;True;46;1;21.486150383955003
402;402;1449493998;2.12812018394;0.737209796906;0.0687003955245;2;True;46;1;21.486150383955003
403;403;1449493998;2.1281759738900003;0.7372167706489999;0.06865710765119999;2;True;46;1;21.486150383955003
404;404;1449493998;2.12812256813;0.7372103929520001;0.0686932876706;2;True;46;1;21.486150383955003
405;405;1449493998;2.12809181213;0.737174630165;0.06873562932010001;2;True;46;1;21.486150383955003
406;406;1449493998;2.12816667557;0.7371968030930001;0.0686829313636;2;True;46;1;21.486150383955003
407;407;1449493998;2.12825775146;0.7372748255730001;0.0687232464552;2;True;46;1;21.486150383955003
408;408;1449493998;2.12818837166;0.737244009972;0.0686669200659;2;True;46;1;21.486150383955003
409;409;1449493998;2.12815189362;0.737196624279;0.0686694160104;2;True;46;1;21.486150383955003
410;410;1449493998;2.1281847953799997;0.7372018694879999;0.0686836019158;2;True;46;1;21.486150383955003
411;411;1449493998;2.12813949585;0.737220346928;0.0687032341957;2;True;46;1;21.486150383955003
412;412;1449493998;2.1281027793900003;0.737200438976;0.068650148809;2;True;46;1;21.486150383955003
413;413;1449493998;2.12816977501;0.737195134163;0.0686709433794;2;True;46;1;21.486150383955003
414;414;1449493998;2.12810254097;0.7372002005580001;0.0686868727207;2;True;46;1;21.486150383955003
415;415;1449493998;2.1280913353;0.7372056841850001;0.0686655640602;2;True;46;1;21.486150383955003
416;416;1449493998;2.12801909447;0.737132608891;0.0687262043357;2;True;46;1;21.486150383955003
417;417;1449493998;2.1281366348299997;0.737183511257;0.0686846077442;2;True;46;1;21.486150383955003
418;418;1449493998;2.1280353069299998;0.737140417099;0.0687247663736;2;True;46;1;21.486150383955003
419;419;1449493998;2.12811946869;0.737208902836;0.0686899647117;2;True;46;1;21.486150383955003
420;420;1449493998;2.12814235687;0.737195432186;0.0686582103372;2;True;46;1;21.486150383955003
421;421;1449493998;2.1281504631;0.737243235111;0.0686935856938;2;True;46;1;21.486150383955003
422;422;1449493998;2.12808704376;0.7372035980220001;0.0686625242233;2;True;46;1;21.486150383955003
423;423;1449493998;2.12802362442;0.737138450146;0.06870806217190001;2;True;46;1;21.486150383955003
424;424;1449493998;2.1281032562299997;0.737189590931;0.0687233880162;2;True;46;1;21.486150383955003
425;425;1449493998;2.12810254097;0.737206161022;0.0686690658331;2;True;46;1;21.486150383955003
426;426;1449493998;2.1281080246;0.737200260162;0.0686737149954;2;True;46;1;21.486150383955003
427;427;1449493998;2.1281168460799997;0.737197756767;0.0686340555549;2;True;46;1;21.486150383955003
428;428;1449493998;2.1280655860900004;0.737206280231;0.068648211658;2;True;46;1;21.486150383955003
429;429;1449493998;2.1281177997599996;0.737185835838;0.0687010288239;2;True;46;1;21.486150383955003
430;430;1449493998;2.12812542915;0.737202048302;0.068628795445;2;True;46;1;21.486150383955003
431;431;1449493998;2.12799024582;0.73713105917;0.0686956569552;2;True;46;1;21.486150383955003
432;432;1449493998;2.1281144619;0.7371997833249999;0.068695768714;2;True;46;1;21.486150383955003
433;433;1449493998;2.12812280655;0.7371845841410001;0.0686467960477;2;True;46;1;21.486150383955003
434;434;1449493998;2.1280579566999998;0.737183690071;0.0686439946294;2;True;46;1;21.486150383955003
435;435;1449493998;2.12809848785;0.7372042536740001;0.06869731843469999;2;True;46;1;21.486150383955003
436;436;1449493998;2.12804460526;0.737166702747;0.0686853900552;2;True;46;1;21.486150383955003
437;437;1449493998;2.12807846069;0.737202227116;0.0686450824142;2;True;46;1;21.486150383955003
438;438;1449493998;2.1281089782700002;0.737180352211;0.0686816498637;2;True;46;1;21.486150383955003
439;439;1449493998;2.1281073093400003;0.737193048;0.0686527267098;2;True;46;1;21.486150383955003
440;440;1449493998;2.12817192078;0.737211346626;0.0686437562108;2;True;46;1;21.486150383955003
441;441;1449493998;2.12811088562;0.737182438374;0.0686818137765;2;True;46;1;21.486150383955003
442;442;1449493998;2.1281027793900003;0.7371737957;0.06867334991690001;2;True;46;1;21.486150383955003
443;443;1449493998;2.12799954414;0.737126708031;0.0686893537641;2;True;46;1;21.486150383955003
444;444;1449493998;2.1280708313;0.737150371075;0.0686571374536;2;True;46;1;21.486150383955003
445;445;1449493998;2.12806081772;0.7371352314949999;0.06866614520549999;2;True;46;1;21.486150383955003
446;446;1449493998;2.1280896663699997;0.737169981003;0.068648070097;2;True;46;1;21.486150383955003
447;447;1449493998;2.1281332969699998;0.737177431583;0.0686208307743;2;True;46;1;21.486150383955003
448;448;1449493998;2.12810993195;0.737184882164;0.0686686784029;2;True;46;1;21.486150383955003
449;449;1449493998;2.12806653976;0.737187802792;0.0686086639762;2;True;46;1;21.486150383955003
450;450;1449493998;2.1281034946400004;0.7371949553489999;0.0686402991414;2;True;46;1;21.486150383955003
451;451;1449493998;2.12806630135;0.737193703651;0.0686243250966;2;True;46;1;21.486150383955003
452;452;1449493998;2.12809681892;0.7371609807009999;0.0686154216528;2;True;46;1;21.486150383955003
453;453;1449493998;2.1280977726;0.737176001072;0.068650431931;2;True;46;1;21.486150383955003
454;454;1449493998;2.12813138962;0.737173736095;0.0686330199242;2;True;46;1;21.486150383955003
455;455;1449493998;2.12797188759;0.7370697259899999;0.0686588138342;2;True;46;1;21.486150383955003
456;456;1449493998;2.12811660767;0.737174212933;0.0686194896698;2;True;46;1;21.486150383955003
457;457;1449493998;2.1280450820900003;0.7371723651890001;0.068618863821;2;True;46;1;21.486150383955003
458;458;1449493998;2.12798404694;0.7370853424070001;0.06868956238030001;2;True;46;1;21.486150383955003
459;459;1449493998;2.12810659409;0.737169981003;0.068695679307;2;True;46;1;21.486150383955003
460;460;1449493998;2.12809586525;0.73717969656;0.06868125498290001;2;True;46;1;21.486150383955003
461;461;1449493998;2.12813425064;0.737202823162;0.0686291232705;2;True;46;1;21.486150383955003
462;462;1449493998;2.12807011604;0.7371732592579999;0.0686313509941;2;True;46;1;21.486150383955003
463;463;1449493998;2.12809634209;0.7371704578399999;0.0686919614673;2;True;46;1;21.486150383955003
464;464;1449493998;2.12799048424;0.7371470332150001;0.0686931312084;2;True;46;1;21.486150383955003
465;465;1449493998;2.12810754776;0.7371920943260001;0.06873414665460001;2;True;46;1;21.486150383955003
466;466;1449493998;2.1281006336200003;0.737163305283;0.0687328055501;2;True;46;1;21.486150383955003
467;467;1449493998;2.12801575661;0.7371013164519999;0.0687074735761;2;True;46;1;21.486150383955003
468;468;1449493998;2.12813901901;0.7372079491619999;0.0686889663339;2;True;46;1;21.486150383955003
469;469;1449493998;2.12805581093;0.7371303439139999;0.0686904937029;2;True;46;1;21.486150383955003
470;470;1449493998;2.12807655334;0.73718559742;0.0686470493674;2;True;46;1;21.486150383955003
471;471;1449493998;2.1280813217200003;0.7371942400929999;0.0686510056257;2;True;46;1;21.486150383955003
472;472;1449493998;2.12814164162;0.737180888653;0.068638920784;2;True;46;1;21.486150383955003
473;473;1449493998;2.12808942795;0.73717290163;0.06871723383669999;2;True;46;1;21.486150383955003
474;474;1449493998;2.12812638283;0.73721241951;0.0686808824539;2;True;46;1;21.486150383955003
475;475;1449493998;2.1280913353;0.73718470335;0.0686777085066;2;True;46;1;21.486150383955003
476;476;1449493998;2.1281337738;0.7371885776520001;0.0686600208282;2;True;46;1;21.486150383955003
477;477;1449493998;2.1280837059;0.7371962666509999;0.06868920475240001;2;True;46;1;21.486150383955003
478;478;1449493998;2.1280760765099997;0.7371984720229999;0.0686866939068;2;True;46;1;21.486150383955003
479;479;1449493998;2.12814950943;0.737214565277;0.0686667636037;2;True;46;1;21.486150383955003
480;480;1449493998;2.12810397148;0.7372044920919999;0.0687239840627;2;True;46;1;21.486150383955003
481;481;1449493998;2.12802147865;0.737122297287;0.0687525346875;2;True;46;1;21.486150383955003
482;482;1449493998;2.12812709808;0.737193822861;0.06873826682569999;2;True;46;1;21.486150383955003
483;483;1449493998;2.12829184532;0.7373111248019999;0.0687778368592;2;True;46;1;21.486150383955003
484;484;1449493998;2.12819552422;0.737217724323;0.0687231123447;2;True;46;1;21.486150383955003
485;485;1449493998;2.12815189362;0.737192511559;0.0687132179737;2;True;46;1;21.486150383955003
486;486;1449493998;2.12817382812;0.737212598324;0.0687874779105;2;True;46;1;21.486150383955003
487;487;1449493998;2.12815785408;0.7372168898579999;0.0687057450414;2;True;46;1;21.486150383955003
488;488;1449493998;2.12814044952;0.737202107906;0.06871604919430001;2;True;46;1;21.486150383955003
489;489;1449493998;2.12806868553;0.7371318340299999;0.06874623149629999;2;True;46;1;21.486150383955003
490;490;1449493998;2.1281819343599997;0.737219452858;0.0687635019422;2;True;46;1;21.486150383955003
491;491;1449493998;2.12809658051;0.7371988892560001;0.068678714335;2;True;46;1;21.486150383955003
492;492;1449493998;2.12806725502;0.7371436357500001;0.0687454119325;2;True;46;1;21.486150383955003
493;493;1449493998;2.1281530857099997;0.737225353718;0.0687463805079;2;True;46;1;21.486150383955003
494;494;1449493998;2.12805128098;0.737163901329;0.0687028691173;2;True;46;1;21.486150383955003
495;495;1449493998;2.12813591957;0.737197875977;0.0686636194587;2;True;46;1;21.486150383955003
496;496;1449493998;2.12810015678;0.73719805479;0.0686831772327;2;True;46;1;21.486150383955003
497;497;1449493998;2.1280632019;0.737192630768;0.0686774551868;2;True;46;1;21.486150383955003
498;498;1449493998;2.12812566757;0.73719471693;0.0687051862478;2;True;46;1;21.486150383955003
499;499;1449493998;2.12809371948;0.737148106098;0.06876485049719999;2;True;46;1;21.486150383955003
500;500;1449493998;2.12815928459;0.737193703651;0.0687039420009;2;True;46;1;21.486150383955003
501;501;1449493998;2.1281480789200002;0.737217962742;0.06878010183569999;2;True;46;1;21.486150383955003
502;502;1449493998;2.1281855106400003;0.737252354622;0.0687325969338;2;True;46;1;21.486150383955003
503;503;1449493998;2.1281516552;0.7372242808339999;0.06873933225869999;2;True;46;1;21.486150383955003
504;504;1449493998;2.12809062004;0.7371812462809999;0.0686997026205;2;True;46;1;21.486150383955003
505;505;1449493998;2.12811040878;0.7371717691419999;0.0687405392528;2;True;46;1;21.486150383955003
506;506;1449493998;2.1280815601299996;0.737183749676;0.068691842258;2;True;46;1;21.486150383955003
507;507;1449493998;2.12807917595;0.737177550793;0.0686926394701;2;True;46;1;21.486150383955003
508;508;1449493998;2.12813019753;0.737165153027;0.06866448372600001;2;True;46;1;21.486150383955003
509;509;1449493998;2.1280789375299998;0.737182796001;0.0686679705977;2;True;46;1;21.486150383955003
510;510;1449493998;2.12814450264;0.737169861794;0.0686258897185;2;True;46;1;21.486150383955003
511;511;1449493998;2.12813401222;0.737196207047;0.0686692893505;2;True;46;1;21.486150383955003
512;512;1449493998;2.12810540199;0.737167298794;0.06869471073149999;2;True;46;1;21.486150383955003
513;513;1449493998;2.1281235218;0.73715531826;0.0686188414693;2;True;46;1;21.486150383955003
514;514;1449493998;2.12808084488;0.737137973309;0.06863784044980001;2;True;46;1;21.486150383955003
515;515;1449493998;2.12811112404;0.7371608614920001;0.0686296671629;2;True;46;1;21.486150383955003
516;516;1449493998;2.12811613083;0.737168133259;0.0686166286469;2;True;46;1;21.486150383955003
517;517;1449493998;2.12809944153;0.737161278725;0.06865267455580001;2;True;46;1;21.486150383955003
518;518;1449493998;2.12809920311;0.7371594309810001;0.0686624571681;2;True;46;1;21.486150383955003
519;519;1449493998;2.12811803818;0.73718971014;0.0686160027981;2;True;46;1;21.486150383955003
520;520;1449493998;2.1281292438499997;0.737166464329;0.0686334073544;2;True;46;1;21.486150383955003
521;521;1449493998;2.1280615329700003;0.7371841669079999;0.0686540007591;2;True;46;1;21.486150383955003
522;522;1449493998;2.1280658245099997;0.737180531025;0.0686475485563;2;True;46;1;21.486150383955003
523;523;1449493998;2.1281006336200003;0.737190425396;0.06867160648109999;2;True;46;1;21.486150383955003
524;524;1449493998;2.1281170845;0.737160503864;0.0686485767365;2;True;46;1;21.486150383955003
525;525;1449493998;2.12812280655;0.737219154835;0.0686582997441;2;True;46;1;21.486150383955003
526;526;1449493998;2.12796211243;0.7370777130130001;0.0686655342579;2;True;46;1;21.486150383955003
527;527;1449493998;2.12808680534;0.737155139446;0.0686298161745;2;True;46;1;21.486150383955003
528;528;1449493998;2.12803149223;0.7371070981029999;0.0686722919345;2;True;46;1;21.486150383955003
529;529;1449493998;2.12811255455;0.7371935248370001;0.068585768342;2;True;46;1;21.486150383955003
530;530;1449493999;2.12810659409;0.7371847629549999;0.0685759857297;3;True;46;1;21.486150383955003
531;531;1449493999;2.1280920505500003;0.737179577351;0.06861313432459999;3;True;46;1;21.486150383955003
532;532;1449493999;2.12797570229;0.7370879054070001;0.0686265304685;3;True;46;1;21.486150383955003
533;533;1449493999;2.12800478935;0.7370926141740001;0.06867769360539999;3;True;46;1;21.486150383955003
534;534;1449493999;2.12808704376;0.7371866703030001;0.06862410902980001;3;True;46;1;21.486150383955003
535;535;1449493999;2.12810182571;0.737169027328;0.0686149150133;3;True;46;1;21.486150383955003
536;536;1449493999;2.12808632851;0.7371681928630001;0.0686281695962;3;True;46;1;21.486150383955003
537;537;1449493999;2.12798500061;0.737102150917;0.06866148114199999;3;True;46;1;21.486150383955003
538;538;1449493999;2.1280760765099997;0.7371606826780001;0.068684771657;3;True;46;1;21.486150383955003
539;539;1449493999;2.12810993195;0.737177371979;0.0686088204384;3;True;46;1;21.486150383955003
540;540;1449493999;2.12810993195;0.737163960934;0.0686783492565;3;True;46;1;21.486150383955003
541;541;1449493999;2.1281237602200003;0.737182438374;0.06862620264290001;3;True;46;1;21.486150383955003
542;542;1449493999;2.1281032562299997;0.737167179585;0.0686329975724;3;True;46;1;21.486150383955003
543;543;1449493999;2.12801861763;0.737098097801;0.0686743035913;3;True;46;1;21.486150383955003
544;544;1449493999;2.12802100182;0.737152278423;0.0686622783542;3;True;46;1;21.486150383955003
545;545;1449493999;2.12798333168;0.737108111382;0.0686733424664;3;True;46;1;21.486150383955003
546;546;1449493999;2.12809681892;0.737170577049;0.0686977803707;3;True;46;1;21.486150383955003
547;547;1449493999;2.12814211845;0.737235546112;0.0686492323875;3;True;46;1;21.486150383955003
548;548;1449493999;2.12812018394;0.737235486507;0.0686481595039;3;True;46;1;21.486150383955003
549;549;1449493999;2.1280913353;0.7371914982800001;0.0686440467834;3;True;46;1;21.486150383955003
550;550;1449493999;2.1281092166900004;0.737174332142;0.0686286464334;3;True;46;1;21.486150383955003
551;551;1449493999;2.12820768356;0.737259030342;0.06861636787650001;3;True;46;1;21.486150383955003
552;552;1449493999;2.1280591487900002;0.7371791005130001;0.0686440318823;3;True;46;1;21.486150383955003
553;553;1449493999;2.12800860405;0.7371427416799999;0.068675391376;3;True;46;1;21.486150383955003
554;554;1449493999;2.1280570030200003;0.737192451954;0.0686327219009;3;True;46;1;21.486150383955003
555;555;1449493999;2.12812399864;0.7372083067890001;0.0686851292849;3;True;46;1;21.486150383955003
556;556;1449493999;2.12809443474;0.73718303442;0.068658515811;3;True;46;1;21.486150383955003
557;557;1449493999;2.12811565399;0.737191736698;0.068638779223;3;True;46;1;21.486150383955003
558;558;1449493999;2.12810397148;0.737193763256;0.0686744451523;3;True;46;1;21.486150383955003
559;559;1449493999;2.1281147003200003;0.737200438976;0.068728081882;3;True;46;1;21.486150383955003
560;560;1449493999;2.12813210487;0.7371926903720001;0.0686482414603;3;True;46;1;21.486150383955003
561;561;1449493999;2.1281747818;0.737206041813;0.068670541048;3;True;46;1;21.486150383955003
562;562;1449493999;2.12801218033;0.737135946751;0.06870681792500001;3;True;46;1;21.486150383955003
563;563;1449493999;2.1280810833;0.7371988892560001;0.0686701536179;3;True;46;1;21.486150383955003
564;564;1449493999;2.1281061172499998;0.737172484398;0.0686825886369;3;True;46;1;21.486150383955003
565;565;1449493999;2.12801361084;0.7371586561200001;0.0686848983169;3;True;46;1;21.486150383955003
566;566;1449493999;2.12802529335;0.737148106098;0.0686990246177;3;True;46;1;21.486150383955003
567;567;1449493999;2.12810754776;0.7371972799300001;0.0687189996243;3;True;46;1;21.486150383955003
568;568;1449493999;2.12809920311;0.737193226814;0.0686248615384;3;True;46;1;21.486150383955003
569;569;1449493999;2.12813425064;0.737185657024;0.06863956153390001;3;True;46;1;21.486150383955003
570;570;1449493999;2.1280813217200003;0.737185418606;0.0686666965485;3;True;46;1;21.486150383955003
571;571;1449493999;2.12812757492;0.7371864914890001;0.0686484649777;3;True;46;1;21.486150383955003
572;572;1449493999;2.1281311512;0.737213909626;0.06873921304939999;3;True;46;1;21.486150383955003
573;573;1449493999;2.1280744075799998;0.7371833324429999;0.0686746090651;3;True;46;1;21.486150383955003
574;574;1449493999;2.1281068325;0.737172245979;0.06869634985919999;3;True;46;1;21.486150383955003
575;575;1449493999;2.12811207771;0.737169384956;0.068740695715;3;True;46;1;21.486150383955003
576;576;1449493999;2.12814378738;0.737205207348;0.0686497241259;3;True;46;1;21.486150383955003
577;577;1449493999;2.12804102898;0.7371301651000001;0.0687181949615;3;True;46;1;21.486150383955003
578;578;1449493999;2.1280612945599997;0.737177610397;0.06866428256030001;3;True;46;1;21.486150383955003
579;579;1449493999;2.12813425064;0.7371794581409999;0.0686702132225;3;True;46;1;21.486150383955003
580;580;1449493999;2.12812662125;0.7371688485150001;0.0686573907733;3;True;46;1;21.486150383955003
581;581;1449493999;2.1281032562299997;0.737166523933;0.0687047764659;3;True;46;1;21.486150383955003
582;582;1449493999;2.1281182766;0.737174153328;0.0687400996685;3;True;46;1;21.486150383955003
583;583;1449493999;2.12801671028;0.737143397331;0.068709820509;3;True;46;1;21.486150383955003
584;584;1449493999;2.1280789375299998;0.737187802792;0.0686661079526;3;True;46;1;21.486150383955003
585;585;1449493999;2.12811040878;0.737167775631;0.06870249658819999;3;True;46;1;21.486150383955003
586;586;1449493999;2.12815499306;0.737189590931;0.0686622112989;3;True;46;1;21.486150383955003
587;587;1449493999;2.12811017036;0.737166106701;0.0687282681465;3;True;46;1;21.486150383955003
588;588;1449493999;2.12807917595;0.737099885941;0.06872484087939999;3;True;46;1;21.486150383955003
589;589;1449493999;2.12800788879;0.7371123433110001;0.06869827210900001;3;True;46;1;21.486150383955003
590;590;1449493999;2.12812948227;0.7371608614920001;0.0687248259783;3;True;46;1;21.486150383955003
591;591;1449493999;2.12814545631;0.737165272236;0.068659119308;3;True;46;1;21.486150383955003
592;592;1449493999;2.1281132698099996;0.7371572852130001;0.0686567053199;3;True;46;1;21.486150383955003
593;593;1449493999;2.1281366348299997;0.737166821957;0.06865847855809999;3;True;46;1;21.486150383955003
594;594;1449493999;2.12808084488;0.7371777892110001;0.0686792805791;3;True;46;1;21.486150383955003
595;595;1449493999;2.1279988288900005;0.737072527409;0.0687073692679;3;True;46;1;21.486150383955003
596;596;1449493999;2.12798953056;0.737071931362;0.0687143430114;3;True;46;1;21.486150383955003
597;597;1449493999;2.12813806534;0.7371487617489999;0.0686793476343;3;True;46;1;21.486150383955003
598;598;1449493999;2.12815356255;0.7372213006020001;0.0686966851354;3;True;46;1;21.486150383955003
599;599;1449493999;2.1281349659;0.737147212029;0.06867491453890001;3;True;46;1;21.486150383955003
600;600;1449493999;2.12813735008;0.737153053284;0.0687196403742;3;True;46;1;21.486150383955003
601;601;1449493999;2.12813901901;0.737153053284;0.0687016546726;3;True;46;1;21.486150383955003
602;602;1449493999;2.1281371116599996;0.7371586561200001;0.0687091574073;3;True;46;1;21.486150383955003
603;603;1449493999;2.12816548347;0.737159013748;0.0687680393457;3;True;46;1;21.486150383955003
604;604;1449493999;2.1281366348299997;0.737146675587;0.068649828434;3;True;46;1;21.486150383955003
605;605;1449493999;2.1280615329700003;0.737154483795;0.0686777681112;3;True;46;1;21.486150383955003
