;Unnamed: 0;header_stamp_secs;pose_position_x;pose_position_y;pose_position_z;seconds;drop_values;flight_number;label;dtw
0;0;1449494128;2.1668946743;0.866599917412;0.06788118928669999;0;True;47;3;321.1593101024558
1;1;1449494128;2.16680645943;0.866544187069;0.067898131907;0;True;47;3;321.1593101024558
2;2;1449494128;2.1667766571;0.866551399231;0.0678737685084;0;True;47;3;321.1593101024558
3;3;1449494128;2.16677880287;0.866535723209;0.06790988892319999;0;True;47;3;321.1593101024558
4;4;1449494128;2.16689825058;0.86657333374;0.0678829625249;0;True;47;3;321.1593101024558
5;5;1449494128;2.16682052612;0.866548776627;0.0678759887815;0;True;47;3;321.1593101024558
6;6;1449494128;2.16680026054;0.866550624371;0.06788821518419999;0;True;47;3;321.1593101024558
7;7;1449494128;2.16680240631;0.866530299187;0.06791080534459999;0;True;47;3;321.1593101024558
8;8;1449494128;2.1668150425;0.8665583133700001;0.06792182475330001;0;True;47;3;321.1593101024558
9;9;1449494128;2.16683316231;0.866565465927;0.0678690373898;0;True;47;3;321.1593101024558
10;10;1449494128;2.16696619987;0.866735339165;0.06824326515200001;0;True;47;3;321.1593101024558
11;11;1449494128;2.16686439514;0.866582393646;0.0678680986166;0;True;47;3;321.1593101024558
12;12;1449494128;2.16672587395;0.866985797882;0.0680942311883;0;True;47;3;321.1593101024558
13;13;1449494128;2.16691398621;0.866574943066;0.0678931772709;0;True;47;3;321.1593101024558
14;14;1449494128;2.16677498817;0.866516411304;0.0678967908025;0;True;47;3;321.1593101024558
15;15;1449494128;2.16682100296;0.86655575037;0.067868411541;0;True;47;3;321.1593101024558
16;16;1449494128;2.16676664352;0.866486370564;0.0679271444678;0;True;47;3;321.1593101024558
17;17;1449494128;2.16681170464;0.866526603699;0.06791136413809999;0;True;47;3;321.1593101024558
18;18;1449494128;2.16671943665;0.867006182671;0.0680881440639;0;True;47;3;321.1593101024558
19;19;1449494128;2.16675567627;0.8669985532760001;0.06809759140010001;0;True;47;3;321.1593101024558
20;20;1449494128;2.16671681404;0.8669972419740001;0.0680833607912;0;True;47;3;321.1593101024558
21;21;1449494128;2.16671323776;0.8664993643760001;0.067886210978;0;True;47;3;321.1593101024558
22;22;1449494128;2.166847229;0.866535902023;0.067861944437;0;True;47;3;321.1593101024558
23;23;1449494128;2.16685557365;0.866559624672;0.0678507015109;0;True;47;3;321.1593101024558
24;24;1449494128;2.16679358482;0.8665385842319999;0.0678701251745;0;True;47;3;321.1593101024558
25;25;1449494128;2.16683030128;0.8665552139280001;0.0679169595242;0;True;47;3;321.1593101024558
26;26;1449494128;2.16686558723;0.866579473019;0.0678524821997;0;True;47;3;321.1593101024558
27;27;1449494128;2.1668803691900003;0.8665621876719999;0.06786866486069999;0;True;47;3;321.1593101024558
28;28;1449494128;2.1669588089;0.8667289614679999;0.0682250261307;0;True;47;3;321.1593101024558
29;29;1449494128;2.16678214073;0.866542339325;0.0678628087044;0;True;47;3;321.1593101024558
30;30;1449494128;2.166877985;0.866569161415;0.0679044499993;0;True;47;3;321.1593101024558
31;31;1449494128;2.16670894623;0.866991639137;0.0680833086371;0;True;47;3;321.1593101024558
32;32;1449494128;2.16675400734;0.866493284702;0.0679066330194;0;True;47;3;321.1593101024558
33;33;1449494128;2.16673803329;0.866993904114;0.0680981874466;0;True;47;3;321.1593101024558
34;34;1449494128;2.1666724681900003;0.8669804930689999;0.06808547675610001;0;True;47;3;321.1593101024558
35;35;1449494128;2.16663956642;0.866973519325;0.0680902227759;0;True;47;3;321.1593101024558
36;36;1449494128;2.16676902771;0.866538703442;0.06786276400090001;0;True;47;3;321.1593101024558
37;37;1449494128;2.16664934158;0.8669776320460001;0.06808608025309999;0;True;47;3;321.1593101024558
38;38;1449494128;2.16681265831;0.8665322661399999;0.0678942650557;0;True;47;3;321.1593101024558
39;39;1449494128;2.1668291091900005;0.8665878176690001;0.0678415298462;0;True;47;3;321.1593101024558
40;40;1449494128;2.16684556007;0.8665602803229999;0.06783490628;0;True;47;3;321.1593101024558
41;41;1449494128;2.16672706604;0.866998374462;0.068091660738;0;True;47;3;321.1593101024558
42;42;1449494128;2.16681480408;0.866567313671;0.0678464248776;0;True;47;3;321.1593101024558
43;43;1449494128;2.16674995422;0.866507589817;0.0678821057081;0;True;47;3;321.1593101024558
44;44;1449494128;2.16673445702;0.8670000433920001;0.0680859908462;0;True;47;3;321.1593101024558
45;45;1449494128;2.16686153412;0.866571426392;0.06784281879660001;0;True;47;3;321.1593101024558
46;46;1449494128;2.16674280167;0.8669415116310001;0.06809964030980001;0;True;47;3;321.1593101024558
47;47;1449494128;2.16666340828;0.8670111298559999;0.0680689439178;0;True;47;3;321.1593101024558
48;48;1449494128;2.16661214828;0.867001771927;0.0680830031633;0;True;47;3;321.1593101024558
49;49;1449494128;2.16683959961;0.866564512253;0.06792513281109999;0;True;47;3;321.1593101024558
50;50;1449494128;2.16678953171;0.866534948349;0.0678738355637;0;True;47;3;321.1593101024558
51;51;1449494128;2.166680336;0.866970360279;0.0680875852704;0;True;47;3;321.1593101024558
52;52;1449494128;2.16672444344;0.867002367973;0.06809526681900001;0;True;47;3;321.1593101024558
53;53;1449494128;2.16677832603;0.866531312466;0.06787735968830001;0;True;47;3;321.1593101024558
54;54;1449494128;2.16675567627;0.8669691085819999;0.0681046471;0;True;47;3;321.1593101024558
55;55;1449494128;2.16674685478;0.8670399189;0.06809925287959999;0;True;47;3;321.1593101024558
56;56;1449494128;2.16674995422;0.8665444850920001;0.06787677854299999;0;True;47;3;321.1593101024558
57;57;1449494128;2.16674828529;0.866985678673;0.068095125258;0;True;47;3;321.1593101024558
58;58;1449494128;2.16671824455;0.866991460323;0.0681017637253;0;True;47;3;321.1593101024558
59;59;1449494128;2.1668806076;0.866572260857;0.0678881332278;0;True;47;3;321.1593101024558
60;60;1449494128;2.1666996479;0.8669853210449999;0.06807940453290001;0;True;47;3;321.1593101024558
61;61;1449494128;2.16673183441;0.866518080235;0.0678888335824;0;True;47;3;321.1593101024558
62;62;1449494128;2.16684913635;0.866583049297;0.0678565055132;0;True;47;3;321.1593101024558
63;63;1449494128;2.16680550575;0.8665360808370001;0.0679202154279;0;True;47;3;321.1593101024558
64;64;1449494128;2.16694569588;0.866734564304;0.0682184770703;0;True;47;3;321.1593101024558
65;65;1449494128;2.16673016548;0.867023229599;0.06808372586969999;0;True;47;3;321.1593101024558
66;66;1449494128;2.16690087318;0.8665844202040001;0.067875020206;0;True;47;3;321.1593101024558
67;67;1449494128;2.16687822342;0.866581439972;0.0678603723645;0;True;47;3;321.1593101024558
68;68;1449494128;2.16681313515;0.866561233997;0.0679193586111;0;True;47;3;321.1593101024558
69;69;1449494128;2.16675400734;0.867028474808;0.068099938333;0;True;47;3;321.1593101024558
70;70;1449494128;2.1668708324400003;0.8665800094600001;0.0678814947605;0;True;47;3;321.1593101024558
71;71;1449494128;2.16678214073;0.866525113583;0.06790996342899999;0;True;47;3;321.1593101024558
72;72;1449494128;2.1668856144;0.866591632366;0.0678920075297;0;True;47;3;321.1593101024558
73;73;1449494128;2.16675329208;0.866980671883;0.0681057721376;0;True;47;3;321.1593101024558
74;74;1449494128;2.16687273979;0.8665805459020001;0.0678685978055;0;True;47;3;321.1593101024558
75;75;1449494128;2.16680026054;0.866528809071;0.06794434040780001;0;True;47;3;321.1593101024558
76;76;1449494128;2.16686677933;0.866583168507;0.0678881853819;0;True;47;3;321.1593101024558
77;77;1449494128;2.16681647301;0.8665717840189999;0.0678983256221;0;True;47;3;321.1593101024558
78;78;1449494128;2.16673326492;0.866531014442;0.0678629279137;0;True;47;3;321.1593101024558
79;79;1449494128;2.16683769226;0.8665961027150001;0.0678697675467;0;True;47;3;321.1593101024558
80;80;1449494128;2.16682004929;0.866559267044;0.0679242610931;0;True;47;3;321.1593101024558
81;81;1449494128;2.16677045822;0.8665339350700001;0.0679064244032;0;True;47;3;321.1593101024558
82;82;1449494128;2.16672182083;0.866541385651;0.0679565519094;0;True;47;3;321.1593101024558
83;83;1449494128;2.16695332527;0.8667404651639999;0.0682311952114;0;True;47;3;321.1593101024558
84;84;1449494128;2.1667330265;0.8665381670000001;0.06789066642519999;0;True;47;3;321.1593101024558
85;85;1449494128;2.16680836678;0.866550087929;0.0678844004869;0;True;47;3;321.1593101024558
86;86;1449494128;2.16684365273;0.8665739893909999;0.0679256767035;0;True;47;3;321.1593101024558
87;87;1449494128;2.16679763794;0.8665294647220001;0.068021632731;0;True;47;3;321.1593101024558
88;88;1449494128;2.16679668427;0.866548359394;0.06789704412219999;0;True;47;3;321.1593101024558
89;89;1449494128;2.1667265892;0.866991698742;0.0681089758873;0;True;47;3;321.1593101024558
90;90;1449494128;2.16662931442;0.866483926773;0.06786774098869999;0;True;47;3;321.1593101024558
91;91;1449494128;2.16672539711;0.866553246975;0.0678773522377;0;True;47;3;321.1593101024558
92;92;1449494128;2.16681003571;0.866583526134;0.0678496062756;0;True;47;3;321.1593101024558
93;93;1449494128;2.16673183441;0.8669959306720001;0.0680955052376;0;True;47;3;321.1593101024558
94;94;1449494128;2.16674995422;0.866521894932;0.0678872168064;0;True;47;3;321.1593101024558
95;95;1449494128;2.16670799255;0.867035448551;0.068084448576;0;True;47;3;321.1593101024558
96;96;1449494128;2.16674280167;0.866565227509;0.06788399070500001;0;True;47;3;321.1593101024558
97;97;1449494128;2.16674256325;0.867001116276;0.0681048408151;0;True;47;3;321.1593101024558
98;98;1449494128;2.16680288315;0.866538822651;0.06787762790919999;0;True;47;3;321.1593101024558
99;99;1449494128;2.16682386398;0.866578638554;0.0678349584341;0;True;47;3;321.1593101024558
100;100;1449494128;2.16677951813;0.8665581941600001;0.067894525826;0;True;47;3;321.1593101024558
101;101;1449494128;2.16669011116;0.866969883442;0.0680885389447;0;True;47;3;321.1593101024558
102;102;1449494128;2.1667184829700004;0.8670084476469999;0.06809774786230001;0;True;47;3;321.1593101024558
103;103;1449494128;2.16672468185;0.867025852203;0.0680919066072;0;True;47;3;321.1593101024558
104;104;1449494128;2.1667661666900004;0.8665565252299998;0.06785903126000001;0;True;47;3;321.1593101024558
105;105;1449494128;2.1667418479900005;0.8669818043709999;0.06809595972299999;0;True;47;3;321.1593101024558
106;106;1449494128;2.1669280529;0.8665797114370001;0.06790658086540001;0;True;47;3;321.1593101024558
107;107;1449494128;2.16678285599;0.866548538208;0.06788894534109999;0;True;47;3;321.1593101024558
108;108;1449494128;2.16661643982;0.8670397400859999;0.0680723637342;0;True;47;3;321.1593101024558
109;109;1449494128;2.1666738987;0.867046296597;0.0680871754885;0;True;47;3;321.1593101024558
110;110;1449494128;2.16669940948;0.8665241599079999;0.0678683668375;0;True;47;3;321.1593101024558
111;111;1449494128;2.1666975021400003;0.86652803421;0.067865729332;0;True;47;3;321.1593101024558
112;112;1449494128;2.1667342186000003;0.866479694843;0.06794243305919999;0;True;47;3;321.1593101024558
113;113;1449494128;2.16659855843;0.866980671883;0.06808872520920001;0;True;47;3;321.1593101024558
114;114;1449494128;2.16681337357;0.866575419903;0.0678547620773;0;True;47;3;321.1593101024558
115;115;1449494128;2.1667206287400003;0.867013096809;0.0680860951543;0;True;47;3;321.1593101024558
116;116;1449494128;2.16682124138;0.8665614724160001;0.0678497329354;0;True;47;3;321.1593101024558
117;117;1449494128;2.16662096977;0.866461157799;0.0678441151977;0;True;47;3;321.1593101024558
118;118;1449494128;2.16666460037;0.867040634155;0.0680804029107;0;True;47;3;321.1593101024558
119;119;1449494128;2.16685318947;0.866539895535;0.0679139047861;0;True;47;3;321.1593101024558
120;120;1449494128;2.16683149338;0.8665549755099999;0.06785658746960001;0;True;47;3;321.1593101024558
121;121;1449494128;2.16686296463;0.866578996181;0.06793358922;0;True;47;3;321.1593101024558
122;122;1449494128;2.1668663024900003;0.866554141045;0.0679033920169;0;True;47;3;321.1593101024558
123;123;1449494128;2.16681432724;0.8665583133700001;0.0678645521402;0;True;47;3;321.1593101024558
124;124;1449494128;2.16681671143;0.866562843323;0.0678537860513;0;True;47;3;321.1593101024558
125;125;1449494128;2.16677713394;0.8665348291399999;0.0678956285119;0;True;47;3;321.1593101024558
126;126;1449494128;2.16684436798;0.866587162018;0.0678522884846;0;True;47;3;321.1593101024558
127;127;1449494128;2.16667556763;0.86703056097;0.0680951401591;0;True;47;3;321.1593101024558
128;128;1449494128;2.16677093506;0.866559147835;0.0678594857454;0;True;47;3;321.1593101024558
129;129;1449494128;2.1668288707700003;0.866589188576;0.0678848773241;0;True;47;3;321.1593101024558
130;130;1449494128;2.16679906845;0.866561353207;0.0678782910109;0;True;47;3;321.1593101024558
131;131;1449494128;2.16673970222;0.866540253162;0.0678620785475;0;True;47;3;321.1593101024558
132;132;1449494128;2.16683030128;0.866601169109;0.0678188204765;0;True;47;3;321.1593101024558
133;133;1449494128;2.16679596901;0.866550326347;0.0678762719035;0;True;47;3;321.1593101024558
134;134;1449494128;2.16675615311;0.8665552139280001;0.06785595417019999;0;True;47;3;321.1593101024558
135;135;1449494128;2.16685318947;0.866578817368;0.0678414180875;0;True;47;3;321.1593101024558
136;136;1449494128;2.1668283939400004;0.8665581941600001;0.06794382631780001;0;True;47;3;321.1593101024558
137;137;1449494128;2.16671919823;0.8665384054180001;0.0678595751524;0;True;47;3;321.1593101024558
138;138;1449494128;2.16674852371;0.866548240185;0.0678388252854;0;True;47;3;321.1593101024558
139;139;1449494128;2.16661787033;0.866977751255;0.0680765360594;0;True;47;3;321.1593101024558
140;140;1449494128;2.16672849655;0.8665343523029999;0.06786420196290001;0;True;47;3;321.1593101024558
141;141;1449494128;2.16660022736;0.867051899433;0.0680648684502;0;True;47;3;321.1593101024558
142;142;1449494128;2.16686248779;0.8665696978569999;0.067828848958;0;True;47;3;321.1593101024558
143;143;1449494128;2.16690611839;0.8665853738779999;0.0678741857409;0;True;47;3;321.1593101024558
144;144;1449494128;2.1667804718;0.866547644138;0.067904740572;0;True;47;3;321.1593101024558
145;145;1449494128;2.16680717468;0.866567730904;0.0678357407451;0;True;47;3;321.1593101024558
146;146;1449494128;2.16680884361;0.866526842117;0.0678829625249;0;True;47;3;321.1593101024558
147;147;1449494128;2.16688108444;0.86656332016;0.0679367482662;0;True;47;3;321.1593101024558
148;148;1449494128;2.16666030884;0.86648017168;0.0678873211145;0;True;47;3;321.1593101024558
149;149;1449494128;2.16660428047;0.867059707642;0.0680661723018;0;True;47;3;321.1593101024558
150;150;1449494128;2.16673827171;0.8665515780449999;0.0678592249751;0;True;47;3;321.1593101024558
151;151;1449494128;2.16680979729;0.866591751575;0.06783721596;0;True;47;3;321.1593101024558
152;152;1449494128;2.1668241024;0.8665552139280001;0.0678633600473;0;True;47;3;321.1593101024558
153;153;1449494128;2.16677999496;0.866527736187;0.06790035218;0;True;47;3;321.1593101024558
154;154;1449494128;2.16669106483;0.86700129509;0.0680874213576;0;True;47;3;321.1593101024558
155;155;1449494129;2.1668446064;0.866548776627;0.06789568066599999;1;True;47;3;321.1593101024558
156;156;1449494129;2.16682291031;0.8666024804119999;0.0678183585405;1;True;47;3;321.1593101024558
157;157;1449494129;2.16679620743;0.8665459752079999;0.0678814128041;1;True;47;3;321.1593101024558
158;158;1449494129;2.16674780846;0.86655163765;0.0678541883826;1;True;47;3;321.1593101024558
159;159;1449494129;2.1668403148700004;0.8666356205940001;0.0679261758924;1;True;47;3;321.1593101024558
160;160;1449494129;2.16673541069;0.866546809673;0.0678603202105;1;True;47;3;321.1593101024558
161;161;1449494129;2.16677737236;0.8665614128110001;0.06787601113319999;1;True;47;3;321.1593101024558
162;162;1449494129;2.16679573059;0.86659938097;0.06782096624369999;1;True;47;3;321.1593101024558
163;163;1449494129;2.16670417786;0.8665565848350001;0.0678823888302;1;True;47;3;321.1593101024558
164;164;1449494129;2.16672945023;0.866560995579;0.0678538456559;1;True;47;3;321.1593101024558
165;165;1449494129;2.16685032845;0.866545915604;0.0679045766592;1;True;47;3;321.1593101024558
166;166;1449494129;2.1667034626;0.866973280907;0.0680894479156;1;True;47;3;321.1593101024558
167;167;1449494129;2.16680026054;0.8665772080419999;0.06791484355930001;1;True;47;3;321.1593101024558
168;168;1449494129;2.16677546501;0.866558492184;0.06783764064310001;1;True;47;3;321.1593101024558
169;169;1449494129;2.16675329208;0.866575956345;0.0678445473313;1;True;47;3;321.1593101024558
170;170;1449494129;2.16677069664;0.8665540218350001;0.0678605884314;1;True;47;3;321.1593101024558
171;171;1449494129;2.16676163673;0.86656665802;0.0678412243724;1;True;47;3;321.1593101024558
172;172;1449494129;2.16678881645;0.866566002369;0.06788241863250001;1;True;47;3;321.1593101024558
173;173;1449494129;2.16671919823;0.866531550884;0.0678971335292;1;True;47;3;321.1593101024558
174;174;1449494129;2.1666436195400003;0.8670181036;0.06805601716040001;1;True;47;3;321.1593101024558
175;175;1449494129;2.16673660278;0.866535127163;0.06788913160559999;1;True;47;3;321.1593101024558
176;176;1449494129;2.16682672501;0.8665913343430001;0.0678186044097;1;True;47;3;321.1593101024558
177;177;1449494129;2.16677260399;0.86655575037;0.06784281879660001;1;True;47;3;321.1593101024558
178;178;1449494129;2.16674995422;0.8665592074390001;0.06784453988080001;1;True;47;3;321.1593101024558
179;179;1449494129;2.16675949097;0.866549611092;0.067848816514;1;True;47;3;321.1593101024558
180;180;1449494129;2.16678142548;0.8665416836740001;0.0678653493524;1;True;47;3;321.1593101024558
181;181;1449494129;2.16682481766;0.8665477633480001;0.0678772330284;1;True;47;3;321.1593101024558
182;182;1449494129;2.1667675972;0.8665412664409999;0.0678915902972;1;True;47;3;321.1593101024558
183;183;1449494129;2.1666674614;0.8669728040700001;0.0680732801557;1;True;47;3;321.1593101024558
184;184;1449494129;2.16666555405;0.866972982883;0.0680616497993;1;True;47;3;321.1593101024558
185;185;1449494129;2.16681051254;0.866585314274;0.0678135827184;1;True;47;3;321.1593101024558
186;186;1449494129;2.1667807102200003;0.866566836834;0.0678277164698;1;True;47;3;321.1593101024558
187;187;1449494129;2.1668035984;0.866544187069;0.0678266212344;1;True;47;3;321.1593101024558
188;188;1449494129;2.16678500175;0.866567134857;0.0678782686591;1;True;47;3;321.1593101024558
189;189;1449494129;2.16677522659;0.866565346718;0.0678324475884;1;True;47;3;321.1593101024558
190;190;1449494129;2.16671442986;0.866544127464;0.0678373575211;1;True;47;3;321.1593101024558
191;191;1449494129;2.1667661666900004;0.86655151844;0.0678402110934;1;True;47;3;321.1593101024558
192;192;1449494129;2.16671013832;0.866513431072;0.0678744167089;1;True;47;3;321.1593101024558
193;193;1449494129;2.16660904884;0.8669683337209999;0.06807035952809999;1;True;47;3;321.1593101024558
194;194;1449494129;2.16671442986;0.8665347099299998;0.0678397417068;1;True;47;3;321.1593101024558
195;195;1449494129;2.16679096222;0.866550981998;0.06781084090469999;1;True;47;3;321.1593101024558
196;196;1449494129;2.1667175293;0.866955757141;0.0680874884129;1;True;47;3;321.1593101024558
197;197;1449494129;2.16678595543;0.8665429949760001;0.0678651407361;1;True;47;3;321.1593101024558
198;198;1449494129;2.16667366028;0.866974055767;0.0680725350976;1;True;47;3;321.1593101024558
199;199;1449494129;2.1666517257700004;0.867039442062;0.0680585876107;1;True;47;3;321.1593101024558
200;200;1449494129;2.16677093506;0.8665371537209999;0.0678596273065;1;True;47;3;321.1593101024558
201;201;1449494129;2.16676330566;0.8665210604670001;0.0679060816765;1;True;47;3;321.1593101024558
202;202;1449494129;2.16663336754;0.8670090436939999;0.0680613443255;1;True;47;3;321.1593101024558
203;203;1449494129;2.16681623459;0.866559922695;0.0678271129727;1;True;47;3;321.1593101024558
204;204;1449494129;2.16664648056;0.866464793682;0.0678893178701;1;True;47;3;321.1593101024558
205;205;1449494129;2.16687488556;0.8665806651119999;0.0679126009345;1;True;47;3;321.1593101024558
206;206;1449494129;2.1667869091;0.866529166698;0.0678897723556;1;True;47;3;321.1593101024558
207;207;1449494129;2.1668798923500003;0.8665742874150001;0.0679260268807;1;True;47;3;321.1593101024558
208;208;1449494129;2.16678762436;0.8665296435359999;0.0678825005889;1;True;47;3;321.1593101024558
209;209;1449494129;2.16666603088;0.866973996162;0.0680541843176;1;True;47;3;321.1593101024558
210;210;1449494129;2.16685247421;0.866578161716;0.06780498474840001;1;True;47;3;321.1593101024558
211;211;1449494129;2.16685390472;0.8665894865989999;0.0678072199225;1;True;47;3;321.1593101024558
212;212;1449494129;2.16679859161;0.866582810879;0.0678186714649;1;True;47;3;321.1593101024558
213;213;1449494129;2.16675305367;0.8665438294410001;0.0678562149405;1;True;47;3;321.1593101024558
214;214;1449494129;2.16672372818;0.8669497966769999;0.068082228303;1;True;47;3;321.1593101024558
215;215;1449494129;2.16679620743;0.8665662407879999;0.0678702443838;1;True;47;3;321.1593101024558
216;216;1449494129;2.1666436195400003;0.8669960498810001;0.0680560916662;1;True;47;3;321.1593101024558
217;217;1449494129;2.16688132286;0.866503894329;0.0680056661367;1;True;47;3;321.1593101024558
218;218;1449494129;2.1668283939400004;0.866559147835;0.06785124540330001;1;True;47;3;321.1593101024558
219;219;1449494129;2.16674423218;0.866566717625;0.0678123012185;1;True;47;3;321.1593101024558
220;220;1449494129;2.16661262512;0.86702978611;0.0680377408862;1;True;47;3;321.1593101024558
221;221;1449494129;2.16673541069;0.866530835629;0.0678450614214;1;True;47;3;321.1593101024558
222;222;1449494129;2.1666102409400003;0.8669717311859999;0.0680426210165;1;True;47;3;321.1593101024558
223;223;1449494129;2.16673541069;0.8665323257449999;0.067889675498;1;True;47;3;321.1593101024558
224;224;1449494129;2.16674661636;0.866543769836;0.0678485929966;1;True;47;3;321.1593101024558
225;225;1449494129;2.16675209999;0.866550981998;0.0678261891007;1;True;47;3;321.1593101024558
226;226;1449494129;2.16682863235;0.8665698766709999;0.0678324103355;1;True;47;3;321.1593101024558
227;227;1449494129;2.16679024696;0.8665539622310001;0.06781677156690001;1;True;47;3;321.1593101024558
228;228;1449494129;2.16669273376;0.867044389248;0.06807219982149999;1;True;47;3;321.1593101024558
229;229;1449494129;2.16662025452;0.866998612881;0.06803964823480001;1;True;47;3;321.1593101024558
230;230;1449494129;2.16678261757;0.866559326649;0.06786316633219999;1;True;47;3;321.1593101024558
231;231;1449494129;2.16667294502;0.866470992565;0.0679185166955;1;True;47;3;321.1593101024558
232;232;1449494129;2.1668634414700003;0.866587638855;0.0678346604109;1;True;47;3;321.1593101024558
233;233;1449494129;2.16659259796;0.866979420185;0.0680740326643;1;True;47;3;321.1593101024558
234;234;1449494129;2.16680049896;0.86650031805;0.0679956376553;1;True;47;3;321.1593101024558
235;235;1449494129;2.16679000854;0.866550981998;0.06784037500620001;1;True;47;3;321.1593101024558
236;236;1449494129;2.16671919823;0.866502821445;0.0678886324167;1;True;47;3;321.1593101024558
237;237;1449494129;2.16684126854;0.866582274437;0.0678358525038;1;True;47;3;321.1593101024558
238;238;1449494129;2.1668317318;0.866594493389;0.0678051412106;1;True;47;3;321.1593101024558
239;239;1449494129;2.1667368412;0.86696857214;0.068087272346;1;True;47;3;321.1593101024558
240;240;1449494129;2.16680932045;0.866550266743;0.0679330825806;1;True;47;3;321.1593101024558
241;241;1449494129;2.16671681404;0.8665520548819999;0.0678424090147;1;True;47;3;321.1593101024558
242;242;1449494129;2.16679048538;0.866593301296;0.0678124949336;1;True;47;3;321.1593101024558
243;243;1449494129;2.16676783562;0.8665492534639999;0.0678531751037;1;True;47;3;321.1593101024558
244;244;1449494129;2.1666045188900003;0.8664641380310001;0.0678883567452;1;True;47;3;321.1593101024558
245;245;1449494129;2.16665363312;0.86696356535;0.06806817650790001;1;True;47;3;321.1593101024558
246;246;1449494129;2.16660308838;0.867062449455;0.0680481418967;1;True;47;3;321.1593101024558
247;247;1449494129;2.16677761078;0.866548955441;0.0678728371859;1;True;47;3;321.1593101024558
248;248;1449494129;2.16681218147;0.8665987849240001;0.0678217858076;1;True;47;3;321.1593101024558
249;249;1449494129;2.16672372818;0.8665539026260001;0.067842066288;1;True;47;3;321.1593101024558
250;250;1449494129;2.16674828529;0.866542160511;0.0678617209196;1;True;47;3;321.1593101024558
251;251;1449494129;2.16680669785;0.866589188576;0.0678250715137;1;True;47;3;321.1593101024558
252;252;1449494129;2.16673874855;0.8664982318880001;0.0679983869195;1;True;47;3;321.1593101024558
253;253;1449494129;2.16682243347;0.866558909416;0.0679392442107;1;True;47;3;321.1593101024558
254;254;1449494129;2.1668176651;0.8665697574619999;0.0678335055709;1;True;47;3;321.1593101024558
255;255;1449494129;2.16691231728;0.866728305817;0.0682098567486;1;True;47;3;321.1593101024558
256;256;1449494129;2.16683840752;0.8665771484379999;0.06785897910590001;1;True;47;3;321.1593101024558
257;257;1449494129;2.16677641869;0.866553604603;0.0678650662303;1;True;47;3;321.1593101024558
258;258;1449494129;2.16682696342;0.8665921092030001;0.0678495913744;1;True;47;3;321.1593101024558
259;259;1449494129;2.1668920517;0.866592764854;0.0679550021887;1;True;47;3;321.1593101024558
260;260;1449494129;2.16665267944;0.8669593334200001;0.0680781379342;1;True;47;3;321.1593101024558
261;261;1449494129;2.16680383682;0.866597890854;0.0678202956915;1;True;47;3;321.1593101024558
262;262;1449494129;2.16667437553;0.866980850697;0.0680761188269;1;True;47;3;321.1593101024558
263;263;1449494129;2.16680884361;0.8665888905529999;0.0678768754005;1;True;47;3;321.1593101024558
264;264;1449494129;2.16666507721;0.866466104984;0.0679288730025;1;True;47;3;321.1593101024558
265;265;1449494129;2.16673398018;0.866559267044;0.06784527748819999;1;True;47;3;321.1593101024558
266;266;1449494129;2.16681194305;0.866560220718;0.0678948387504;1;True;47;3;321.1593101024558
267;267;1449494129;2.16664266586;0.867045640945;0.06806910037990001;1;True;47;3;321.1593101024558
268;268;1449494129;2.16682744026;0.8665518164630001;0.0678763315082;1;True;47;3;321.1593101024558
269;269;1449494129;2.16687273979;0.866603314877;0.0678643584251;1;True;47;3;321.1593101024558
270;270;1449494129;2.16677451134;0.8665119409559999;0.067955352366;1;True;47;3;321.1593101024558
271;271;1449494129;2.16660642624;0.866456389427;0.06784998625519999;1;True;47;3;321.1593101024558
272;272;1449494129;2.16678452492;0.866549968719;0.06787845492359999;1;True;47;3;321.1593101024558
273;273;1449494129;2.1668288707700003;0.8665803074840001;0.0678296387196;1;True;47;3;321.1593101024558
274;274;1449494129;2.16682291031;0.866573572159;0.0679052844644;1;True;47;3;321.1593101024558
275;275;1449494129;2.1667761802700003;0.866558909416;0.0678264126182;1;True;47;3;321.1593101024558
276;276;1449494129;2.16675519943;0.86656832695;0.0678340867162;1;True;47;3;321.1593101024558
277;277;1449494129;2.16661691666;0.8665155768389999;0.0679240524769;1;True;47;3;321.1593101024558
278;278;1449494129;2.1667416095700003;0.866505801678;0.0679097250104;1;True;47;3;321.1593101024558
279;279;1449494129;2.16683197021;0.866586446762;0.0678381472826;1;True;47;3;321.1593101024558
280;280;1449494129;2.16678237915;0.866580843925;0.0678243115544;1;True;47;3;321.1593101024558
281;281;1449494129;2.16679859161;0.866552293301;0.0678519383073;1;True;47;3;321.1593101024558
282;282;1449494129;2.16690421104;0.866539657116;0.0680065155029;1;True;47;3;321.1593101024558
283;283;1449494129;2.16671299934;0.8665514588359999;0.0678784251213;1;True;47;3;321.1593101024558
284;284;1449494129;2.16687607765;0.8665879368780001;0.067934371531;1;True;47;3;321.1593101024558
285;285;1449494129;2.16682267189;0.8665637969969999;0.0678982511163;1;True;47;3;321.1593101024558
286;286;1449494129;2.16659402847;0.8669857382770001;0.0680759996176;1;True;47;3;321.1593101024558
287;287;1449494129;2.16664385796;0.866468906403;0.06788548827169999;1;True;47;3;321.1593101024558
288;288;1449494129;2.1667432785;0.8665677905079999;0.0678440406919;1;True;47;3;321.1593101024558
289;289;1449494129;2.16677498817;0.866535127163;0.0678919553757;1;True;47;3;321.1593101024558
290;290;1449494129;2.16680645943;0.8665918111799998;0.0678346157074;1;True;47;3;321.1593101024558
291;291;1449494129;2.16682100296;0.8665553927420001;0.06789538264270001;1;True;47;3;321.1593101024558
292;292;1449494129;2.16659784317;0.866982996464;0.0680738762021;1;True;47;3;321.1593101024558
293;293;1449494129;2.16659498215;0.86703979969;0.06806810200209999;1;True;47;3;321.1593101024558
294;294;1449494129;2.16679120064;0.866600751877;0.0678179636598;1;True;47;3;321.1593101024558
295;295;1449494129;2.16681480408;0.8665583133700001;0.0678826346993;1;True;47;3;321.1593101024558
296;296;1449494129;2.16681289673;0.866611659527;0.06781847029919999;1;True;47;3;321.1593101024558
297;297;1449494129;2.16680598259;0.8666002750399999;0.0678127780557;1;True;47;3;321.1593101024558
298;298;1449494129;2.16654086113;0.867015004158;0.06806664913890001;1;True;47;3;321.1593101024558
299;299;1449494129;2.16683483124;0.86650788784;0.0680136084557;1;True;47;3;321.1593101024558
300;300;1449494129;2.16669225693;0.867012917995;0.0680807307363;1;True;47;3;321.1593101024558
301;301;1449494129;2.16664433479;0.8670021891590001;0.06806450337169999;1;True;47;3;321.1593101024558
302;302;1449494129;2.16670060158;0.8665663599969999;0.0678763464093;1;True;47;3;321.1593101024558
303;303;1449494129;2.16664910316;0.867002606392;0.06807356327769999;1;True;47;3;321.1593101024558
304;304;1449494129;2.16673278809;0.8665758967399999;0.0678425058722;1;True;47;3;321.1593101024558
305;305;1449494129;2.16674089432;0.8665750026700001;0.0678454637527;1;True;47;3;321.1593101024558
306;306;1449494129;2.16677546501;0.866560995579;0.0678745061159;1;True;47;3;321.1593101024558
307;307;1449494129;2.1667892932900004;0.8665336370469999;0.0679124966264;1;True;47;3;321.1593101024558
308;308;1449494129;2.16687297821;0.866628348827;0.06783928722140001;1;True;47;3;321.1593101024558
309;309;1449494129;2.16692328453;0.86674618721;0.06820943206550001;1;True;47;3;321.1593101024558
310;310;1449494129;2.16668796539;0.8669838309289999;0.0680860728025;1;True;47;3;321.1593101024558
311;311;1449494129;2.16671586037;0.866511523724;0.06793110072610001;1;True;47;3;321.1593101024558
312;312;1449494129;2.16660118103;0.867004692554;0.068078532815;1;True;47;3;321.1593101024558
313;313;1449494129;2.1667542457599995;0.866576492786;0.0678504258394;1;True;47;3;321.1593101024558
314;314;1449494129;2.16674947739;0.866571903229;0.06785032898190001;1;True;47;3;321.1593101024558
315;315;1449494129;2.16673278809;0.866558909416;0.0678599998355;1;True;47;3;321.1593101024558
316;316;1449494129;2.1668078899400003;0.866566538811;0.06790747493509999;1;True;47;3;321.1593101024558
317;317;1449494129;2.16683387756;0.866597235203;0.0678893998265;1;True;47;3;321.1593101024558
318;318;1449494129;2.16672348976;0.866557538509;0.0678470730782;1;True;47;3;321.1593101024558
319;319;1449494129;2.16677236557;0.866557717323;0.06786210089919999;1;True;47;3;321.1593101024558
320;320;1449494129;2.16678857803;0.866579353809;0.0678345188498;1;True;47;3;321.1593101024558
321;321;1449494129;2.16676855087;0.866561233997;0.0678676888347;1;True;47;3;321.1593101024558
322;322;1449494129;2.16672849655;0.866992592812;0.0680926814675;1;True;47;3;321.1593101024558
323;323;1449494129;2.16661119461;0.866464793682;0.067834854126;1;True;47;3;321.1593101024558
324;324;1449494129;2.16676449776;0.866553664207;0.06785414367909999;1;True;47;3;321.1593101024558
325;325;1449494129;2.16677737236;0.866593718529;0.0678136721253;1;True;47;3;321.1593101024558
326;326;1449494129;2.16684651375;0.8665030598639999;0.068011328578;1;True;47;3;321.1593101024558
327;327;1449494129;2.16678619385;0.8666000962260001;0.0678116306663;1;True;47;3;321.1593101024558
328;328;1449494129;2.16682505608;0.8665717840189999;0.06787195056680001;1;True;47;3;321.1593101024558
329;329;1449494129;2.16678714752;0.866589963436;0.067814938724;1;True;47;3;321.1593101024558
330;330;1449494129;2.1668138504;0.8666110038760001;0.0678026005626;1;True;47;3;321.1593101024558
331;331;1449494129;2.16673278809;0.8665574789049999;0.0678523331881;1;True;47;3;321.1593101024558
332;332;1449494129;2.16677188873;0.8665586113930001;0.0678559392691;1;True;47;3;321.1593101024558
333;333;1449494129;2.16681170464;0.86656832695;0.0678461566567;1;True;47;3;321.1593101024558
334;334;1449494129;2.16678285599;0.866569399834;0.06782716512680001;1;True;47;3;321.1593101024558
335;335;1449494129;2.16677212715;0.8665664792059999;0.06790482252840001;1;True;47;3;321.1593101024558
336;336;1449494129;2.1667642593400003;0.8665661215780001;0.0678401514888;1;True;47;3;321.1593101024558
337;337;1449494129;2.16675138474;0.866548895836;0.0678763613105;1;True;47;3;321.1593101024558
338;338;1449494129;2.16681194305;0.866572082043;0.06791754812;1;True;47;3;321.1593101024558
339;339;1449494129;2.1668322086300003;0.866585850716;0.0678268000484;1;True;47;3;321.1593101024558
340;340;1449494129;2.16683864594;0.86659437418;0.0678595677018;1;True;47;3;321.1593101024558
341;341;1449494129;2.16669225693;0.866484224796;0.0679184049368;1;True;47;3;321.1593101024558
342;342;1449494129;2.16677093506;0.86654984951;0.0678680539131;1;True;47;3;321.1593101024558
343;343;1449494129;2.1667637825;0.8665561676029999;0.0678454190493;1;True;47;3;321.1593101024558
344;344;1449494129;2.16669917107;0.866975784302;0.06808238476509999;1;True;47;3;321.1593101024558
345;345;1449494129;2.16678714752;0.8665621876719999;0.067893281579;1;True;47;3;321.1593101024558
346;346;1449494129;2.16678643227;0.866553127766;0.0678677260876;1;True;47;3;321.1593101024558
347;347;1449494129;2.16662335396;0.867003321648;0.0680719539523;1;True;47;3;321.1593101024558
348;348;1449494129;2.16681098938;0.866560220718;0.0678360909224;1;True;47;3;321.1593101024558
349;349;1449494129;2.16675829887;0.8665494918819999;0.06785736232999999;1;True;47;3;321.1593101024558
350;350;1449494129;2.16680550575;0.8665866851809999;0.0678808838129;1;True;47;3;321.1593101024558
351;351;1449494129;2.16673088074;0.866545498371;0.06785304844380001;1;True;47;3;321.1593101024558
352;352;1449494129;2.16678309441;0.866560995579;0.0678564980626;1;True;47;3;321.1593101024558
353;353;1449494129;2.1667675972;0.8665503859520001;0.0678688958287;1;True;47;3;321.1593101024558
354;354;1449494129;2.16688203812;0.866589188576;0.06788504123689999;1;True;47;3;321.1593101024558
355;355;1449494129;2.16676282883;0.866548597813;0.0678898543119;1;True;47;3;321.1593101024558
356;356;1449494129;2.16669440269;0.866514980793;0.067899569869;1;True;47;3;321.1593101024558
357;357;1449494129;2.16676330566;0.866569459438;0.0678384229541;1;True;47;3;321.1593101024558
358;358;1449494129;2.16679358482;0.866591274738;0.067816875875;1;True;47;3;321.1593101024558
359;359;1449494129;2.16671204567;0.866522490978;0.06789019703869999;1;True;47;3;321.1593101024558
360;360;1449494129;2.16674757004;0.8665701150890001;0.0678462609649;1;True;47;3;321.1593101024558
361;361;1449494129;2.16678571701;0.866569399834;0.0678516924381;1;True;47;3;321.1593101024558
362;362;1449494129;2.1668124198900003;0.866610050201;0.067815721035;1;True;47;3;321.1593101024558
363;363;1449494129;2.1667418479900005;0.8665819764139999;0.0678318366408;1;True;47;3;321.1593101024558
364;364;1449494129;2.1668243408200003;0.866574883461;0.067930996418;1;True;47;3;321.1593101024558
365;365;1449494129;2.16672229767;0.866556823254;0.0678524672985;1;True;47;3;321.1593101024558
366;366;1449494129;2.16679024696;0.8665784597399999;0.06789559125900001;1;True;47;3;321.1593101024558
367;367;1449494129;2.16692113876;0.866754055023;0.0682110711932;1;True;47;3;321.1593101024558
368;368;1449494129;2.16686749458;0.8665165901180001;0.068020761013;1;True;47;3;321.1593101024558
369;369;1449494129;2.16680073738;0.86659258604;0.0678363740444;1;True;47;3;321.1593101024558
370;370;1449494129;2.16679668427;0.866602897644;0.067835137248;1;True;47;3;321.1593101024558
371;371;1449494129;2.16666650772;0.866488695145;0.0679067894816;1;True;47;3;321.1593101024558
372;372;1449494129;2.16681599617;0.866605460644;0.06784567981959999;1;True;47;3;321.1593101024558
373;373;1449494129;2.16670536995;0.866570591927;0.0678762868047;1;True;47;3;321.1593101024558
374;374;1449494129;2.1667325496700003;0.866529047489;0.0678937286139;1;True;47;3;321.1593101024558
375;375;1449494129;2.1667456626900004;0.866550266743;0.0678865090013;1;True;47;3;321.1593101024558
376;376;1449494129;2.16667866707;0.8669934272769999;0.0680742412806;1;True;47;3;321.1593101024558
377;377;1449494129;2.16678595543;0.866583704948;0.0678421929479;1;True;47;3;321.1593101024558
378;378;1449494129;2.16682648659;0.866588950157;0.0678592249751;1;True;47;3;321.1593101024558
379;379;1449494129;2.16680431366;0.866581141949;0.0678655654192;1;True;47;3;321.1593101024558
380;380;1449494129;2.16677594185;0.866553843021;0.06789008527990001;1;True;47;3;321.1593101024558
381;381;1449494129;2.16680169106;0.86660939455;0.06781455874440001;1;True;47;3;321.1593101024558
382;382;1449494129;2.16677236557;0.8665791153910001;0.0678756162524;1;True;47;3;321.1593101024558
383;383;1449494129;2.16672301292;0.86656588316;0.067845441401;1;True;47;3;321.1593101024558
384;384;1449494129;2.16663956642;0.867002546787;0.06807031482459999;1;True;47;3;321.1593101024558
385;385;1449494129;2.1667456626900004;0.866570830345;0.0678476765752;1;True;47;3;321.1593101024558
386;386;1449494129;2.16679811478;0.8665698766709999;0.06784857064489999;1;True;47;3;321.1593101024558
387;387;1449494129;2.16679954529;0.866558432579;0.0678375586867;1;True;47;3;321.1593101024558
388;388;1449494129;2.16675186157;0.8665546178820001;0.0678689703345;1;True;47;3;321.1593101024558
389;389;1449494129;2.16680002213;0.8666061162950001;0.06781176477669999;1;True;47;3;321.1593101024558
390;390;1449494129;2.16688323021;0.8665627241130001;0.0679356381297;1;True;47;3;321.1593101024558
391;391;1449494129;2.16677832603;0.8665642738339999;0.0679070875049;1;True;47;3;321.1593101024558
392;392;1449494129;2.1668169498400003;0.866542577744;0.0679705739021;1;True;47;3;321.1593101024558
393;393;1449494129;2.16665077209;0.866990149021;0.0680831819773;1;True;47;3;321.1593101024558
394;394;1449494130;2.16680049896;0.866563439369;0.0679273530841;2;True;47;3;321.1593101024558
395;395;1449494130;2.16675066948;0.866538763046;0.0678846985102;2;True;47;3;321.1593101024558
396;396;1449494130;2.16662359238;0.866983175278;0.0680710598826;2;True;47;3;321.1593101024558
397;397;1449494130;2.16682076454;0.8666003942489999;0.0678171738982;2;True;47;3;321.1593101024558
398;398;1449494130;2.16667366028;0.867004096508;0.0680673569441;2;True;47;3;321.1593101024558
399;399;1449494130;2.1666829586;0.86651301384;0.0678652450442;2;True;47;3;321.1593101024558
400;400;1449494130;2.16676354408;0.866565108299;0.0678378641605;2;True;47;3;321.1593101024558
401;401;1449494130;2.16675615311;0.866545200348;0.0678677856922;2;True;47;3;321.1593101024558
402;402;1449494130;2.16676473618;0.866550564766;0.0678629949689;2;True;47;3;321.1593101024558
403;403;1449494130;2.16677069664;0.8665663003919999;0.067860417068;2;True;47;3;321.1593101024558
404;404;1449494130;2.1667659282700003;0.866556823254;0.06785903871059999;2;True;47;3;321.1593101024558
405;405;1449494130;2.16679430008;0.8665888905529999;0.0678250640631;2;True;47;3;321.1593101024558
406;406;1449494130;2.1667456626900004;0.866540074348;0.0678716748953;2;True;47;3;321.1593101024558
407;407;1449494130;2.16673231125;0.866549730301;0.06785871088499999;2;True;47;3;321.1593101024558
408;408;1449494130;2.16661405563;0.867044508457;0.0680594071746;2;True;47;3;321.1593101024558
409;409;1449494130;2.16679501534;0.8665975928309999;0.06782199442390001;2;True;47;3;321.1593101024558
410;410;1449494130;2.16662669182;0.867051839828;0.06807263940569999;2;True;47;3;321.1593101024558
411;411;1449494130;2.1668074131;0.8665987849240001;0.0678245052695;2;True;47;3;321.1593101024558
412;412;1449494130;2.16671967506;0.866563439369;0.06784503161910001;2;True;47;3;321.1593101024558
413;413;1449494130;2.16661787033;0.8670364618299999;0.0680466815829;2;True;47;3;321.1593101024558
414;414;1449494130;2.16673207283;0.8665372729299999;0.0678688436747;2;True;47;3;321.1593101024558
415;415;1449494130;2.16670918465;0.8665676712989999;0.0678560137749;2;True;47;3;321.1593101024558
416;416;1449494130;2.16672444344;0.866953551769;0.06808095425369999;2;True;47;3;321.1593101024558
417;417;1449494130;2.16656208038;0.867000877857;0.0680662170053;2;True;47;3;321.1593101024558
418;418;1449494130;2.1667444706;0.866524398327;0.0678866952658;2;True;47;3;321.1593101024558
419;419;1449494130;2.16681647301;0.866598069668;0.06780570745469999;2;True;47;3;321.1593101024558
420;420;1449494130;2.1667416095700003;0.866568267345;0.0678328499198;2;True;47;3;321.1593101024558
421;421;1449494130;2.16673183441;0.866557776928;0.0678576603532;2;True;47;3;321.1593101024558
422;422;1449494130;2.16661047935;0.867018401623;0.0680649131536;2;True;47;3;321.1593101024558
423;423;1449494130;2.16682052612;0.8664704561229999;0.0680104419589;2;True;47;3;321.1593101024558
424;424;1449494130;2.1667766571;0.866587042809;0.0678157135844;2;True;47;3;321.1593101024558
425;425;1449494130;2.16678833961;0.866548359394;0.0678540542722;2;True;47;3;321.1593101024558
426;426;1449494130;2.1668047905;0.8665602803229999;0.067938387394;2;True;47;3;321.1593101024558
427;427;1449494130;2.16667103767;0.867004036903;0.068079829216;2;True;47;3;321.1593101024558
428;428;1449494130;2.16676211357;0.866552233696;0.06787211447949999;2;True;47;3;321.1593101024558
429;429;1449494130;2.16674780846;0.866556048393;0.06785036623480001;2;True;47;3;321.1593101024558
430;430;1449494130;2.1666841507;0.866532623768;0.0678462609649;2;True;47;3;321.1593101024558
431;431;1449494130;2.16671514511;0.866552293301;0.0678436979651;2;True;47;3;321.1593101024558
432;432;1449494130;2.16673159599;0.8665397167209999;0.06787451356650001;2;True;47;3;321.1593101024558
433;433;1449494130;2.16680765152;0.866581082344;0.06782596558330001;2;True;47;3;321.1593101024558
434;434;1449494130;2.16658210754;0.867011964321;0.0680836513638;2;True;47;3;321.1593101024558
435;435;1449494130;2.16672921181;0.866538345814;0.0679152831435;2;True;47;3;321.1593101024558
436;436;1449494130;2.16667342186;0.866585075855;0.06781288981440001;2;True;47;3;321.1593101024558
437;437;1449494130;2.16666674614;0.86701798439;0.06807291507720001;2;True;47;3;321.1593101024558
438;438;1449494130;2.16673922539;0.8665528893469999;0.06787753105159999;2;True;47;3;321.1593101024558
439;439;1449494130;2.16664862633;0.8670009374619999;0.0680632293224;2;True;47;3;321.1593101024558
440;440;1449494130;2.16676688194;0.866570234299;0.0678399354219;2;True;47;3;321.1593101024558
441;441;1449494130;2.1667542457599995;0.866555154324;0.06787490099669999;2;True;47;3;321.1593101024558
442;442;1449494130;2.16678977013;0.866602182388;0.0678254216909;2;True;47;3;321.1593101024558
443;443;1449494130;2.16666483879;0.8665004372600001;0.0679471865296;2;True;47;3;321.1593101024558
444;444;1449494130;2.16660261154;0.8664745092389999;0.0678429082036;2;True;47;3;321.1593101024558
445;445;1449494130;2.16659975052;0.8670395612720001;0.0680584087968;2;True;47;3;321.1593101024558
446;446;1449494130;2.16659283638;0.867001116276;0.0680822506547;2;True;47;3;321.1593101024558
447;447;1449494130;2.1667687892900003;0.8665757775309999;0.0678889900446;2;True;47;3;321.1593101024558
448;448;1449494130;2.16676044464;0.866539359093;0.067913800478;2;True;47;3;321.1593101024558
449;449;1449494130;2.16667580605;0.8670340180399999;0.0680750831962;2;True;47;3;321.1593101024558
450;450;1449494130;2.16668272018;0.867015898228;0.0680715814233;2;True;47;3;321.1593101024558
451;451;1449494130;2.16679930687;0.8666126132009999;0.0678194314241;2;True;47;3;321.1593101024558
452;452;1449494130;2.16679048538;0.866605162621;0.0678544193506;2;True;47;3;321.1593101024558
453;453;1449494130;2.16675829887;0.866570651531;0.067896746099;2;True;47;3;321.1593101024558
454;454;1449494130;2.1667034626;0.867028534412;0.0680814608932;2;True;47;3;321.1593101024558
455;455;1449494130;2.16689014435;0.866621315479;0.067867808044;2;True;47;3;321.1593101024558
456;456;1449494130;2.16673970222;0.8665843009950001;0.0678484216332;2;True;47;3;321.1593101024558
457;457;1449494130;2.1667406559;0.8665583133700001;0.0678855106235;2;True;47;3;321.1593101024558
458;458;1449494130;2.16676640511;0.866568148136;0.0678663253784;2;True;47;3;321.1593101024558
459;459;1449494130;2.16674780846;0.8665601015090001;0.0678831785917;2;True;47;3;321.1593101024558
460;460;1449494130;2.1667926311500003;0.866600811481;0.067817106843;2;True;47;3;321.1593101024558
461;461;1449494130;2.1667714119;0.866593241692;0.0678274258971;2;True;47;3;321.1593101024558
462;462;1449494130;2.16677641869;0.8665621876719999;0.06786966323850001;2;True;47;3;321.1593101024558
463;463;1449494130;2.16677927971;0.866566717625;0.0678536593914;2;True;47;3;321.1593101024558
464;464;1449494130;2.16674304008;0.866541743279;0.0678960457444;2;True;47;3;321.1593101024558
465;465;1449494130;2.16678452492;0.866595387459;0.067824229598;2;True;47;3;321.1593101024558
466;466;1449494130;2.1668033599900003;0.866608738899;0.0678146854043;2;True;47;3;321.1593101024558
467;467;1449494130;2.16673088074;0.866516172886;0.0679104700685;2;True;47;3;321.1593101024558
468;468;1449494130;2.16677236557;0.8665730357170001;0.0678756907582;2;True;47;3;321.1593101024558
469;469;1449494130;2.16655898094;0.867030620575;0.06805630773310001;2;True;47;3;321.1593101024558
470;470;1449494130;2.16662597656;0.866990864277;0.06807464361190001;2;True;47;3;321.1593101024558
471;471;1449494130;2.1666367054;0.866984665394;0.0680619478226;2;True;47;3;321.1593101024558
472;472;1449494130;2.16675543785;0.866568028927;0.0678803175688;2;True;47;3;321.1593101024558
473;473;1449494130;2.16683650017;0.8665801286700001;0.0678788125515;2;True;47;3;321.1593101024558
474;474;1449494130;2.16676211357;0.8665555715559999;0.0678640827537;2;True;47;3;321.1593101024558
475;475;1449494130;2.16676545143;0.866546154022;0.0678759887815;2;True;47;3;321.1593101024558
476;476;1449494130;2.16677594185;0.8665964007379999;0.0678300708532;2;True;47;3;321.1593101024558
477;477;1449494130;2.16674542427;0.8665803074840001;0.0678426921368;2;True;47;3;321.1593101024558
478;478;1449494130;2.1666724681900003;0.866480648518;0.0679162144661;2;True;47;3;321.1593101024558
479;479;1449494130;2.16676330566;0.866552293301;0.0678786337376;2;True;47;3;321.1593101024558
480;480;1449494130;2.16676330566;0.866562664509;0.06785302609209999;2;True;47;3;321.1593101024558
481;481;1449494130;2.1668176651;0.866554915905;0.0679283961654;2;True;47;3;321.1593101024558
482;482;1449494130;2.1667399406400003;0.8665701150890001;0.067837163806;2;True;47;3;321.1593101024558
483;483;1449494130;2.16669416428;0.8670155406000001;0.0680789873004;2;True;47;3;321.1593101024558
484;484;1449494130;2.16675496101;0.8665431141850001;0.06787234544750001;2;True;47;3;321.1593101024558
485;485;1449494130;2.16667842865;0.866979181767;0.0680713877082;2;True;47;3;321.1593101024558
486;486;1449494130;2.1667575836200004;0.866542100906;0.0678755939007;2;True;47;3;321.1593101024558
487;487;1449494130;2.16675925255;0.8665282726289999;0.06790499389169999;2;True;47;3;321.1593101024558
488;488;1449494130;2.16657924652;0.867027461529;0.0680446252227;2;True;47;3;321.1593101024558
489;489;1449494130;2.16670370102;0.8669449090960001;0.06808041781190001;2;True;47;3;321.1593101024558
490;490;1449494130;2.16680264473;0.8665772080419999;0.0678865984082;2;True;47;3;321.1593101024558
491;491;1449494130;2.1666021347;0.866986811161;0.06807580590250001;2;True;47;3;321.1593101024558
492;492;1449494130;2.16665697098;0.866985619068;0.0680614560843;2;True;47;3;321.1593101024558
493;493;1449494130;2.1666889190700003;0.866964876652;0.0680798813701;2;True;47;3;321.1593101024558
494;494;1449494130;2.16688585281;0.866610705853;0.0678715035319;2;True;47;3;321.1593101024558
495;495;1449494130;2.1667184829700004;0.8665478825570001;0.0678432583809;2;True;47;3;321.1593101024558
496;496;1449494130;2.16662168503;0.866984188557;0.0680709406734;2;True;47;3;321.1593101024558
497;497;1449494130;2.16665625572;0.866993188858;0.0680668577552;2;True;47;3;321.1593101024558
498;498;1449494130;2.16676282883;0.866555154324;0.067847751081;2;True;47;3;321.1593101024558
499;499;1449494130;2.16675782204;0.866537809372;0.0678809732199;2;True;47;3;321.1593101024558
500;500;1449494130;2.16657209396;0.867033720016;0.0680394247174;2;True;47;3;321.1593101024558
501;501;1449494130;2.16679763794;0.8665851950650001;0.0678079277277;2;True;47;3;321.1593101024558
502;502;1449494130;2.16670870781;0.866503417492;0.0678833052516;2;True;47;3;321.1593101024558
503;503;1449494130;2.16676354408;0.866549551487;0.06785521656270001;2;True;47;3;321.1593101024558
504;504;1449494130;2.16663384438;0.8670470118520001;0.06805702298880001;2;True;47;3;321.1593101024558
505;505;1449494130;2.1668186187700003;0.8665729165080001;0.06783098727459999;2;True;47;3;321.1593101024558
506;506;1449494130;2.16680288315;0.8665866851809999;0.0678093284369;2;True;47;3;321.1593101024558
507;507;1449494130;2.16675639153;0.866520106792;0.0678949430585;2;True;47;3;321.1593101024558
508;508;1449494130;2.16678166389;0.866547524929;0.0678660050035;2;True;47;3;321.1593101024558
509;509;1449494130;2.16670370102;0.866519927979;0.0678745210171;2;True;47;3;321.1593101024558
510;510;1449494130;2.1668047905;0.866581618786;0.0678260549903;2;True;47;3;321.1593101024558
511;511;1449494130;2.16679120064;0.866535127163;0.0679232254624;2;True;47;3;321.1593101024558
512;512;1449494130;2.16669845581;0.8670177459720001;0.0680747628212;2;True;47;3;321.1593101024558
513;513;1449494130;2.16678595543;0.866568744183;0.0679162815213;2;True;47;3;321.1593101024558
514;514;1449494130;2.16677069664;0.866557598114;0.0678551197052;2;True;47;3;321.1593101024558
515;515;1449494130;2.16671729088;0.866984665394;0.06808724999429999;2;True;47;3;321.1593101024558
516;516;1449494130;2.16659402847;0.867039084435;0.0680715367198;2;True;47;3;321.1593101024558
517;517;1449494130;2.16673588753;0.86654150486;0.0678930208087;2;True;47;3;321.1593101024558
518;518;1449494130;2.1667416095700003;0.866575360298;0.0678367093205;2;True;47;3;321.1593101024558
519;519;1449494130;2.16672325134;0.8665453791619999;0.06784680485729999;2;True;47;3;321.1593101024558
520;520;1449494130;2.1667330265;0.8665602803229999;0.0678412094712;2;True;47;3;321.1593101024558
521;521;1449494130;2.16684269905;0.86656421423;0.0678717568517;2;True;47;3;321.1593101024558
522;522;1449494130;2.16681957245;0.8665525913240001;0.0678578689694;2;True;47;3;321.1593101024558
523;523;1449494130;2.16680312157;0.866549432278;0.0678652748466;2;True;47;3;321.1593101024558
524;524;1449494130;2.16678261757;0.866548120975;0.0678519681096;2;True;47;3;321.1593101024558
525;525;1449494130;2.16681933403;0.866591989994;0.0678370669484;2;True;47;3;321.1593101024558
526;526;1449494130;2.16676521301;0.866545855999;0.0678848549724;2;True;47;3;321.1593101024558
527;527;1449494130;2.16676807404;0.8665397763249999;0.067892074585;2;True;47;3;321.1593101024558
528;528;1449494130;2.16676640511;0.866578817368;0.0678391009569;2;True;47;3;321.1593101024558
529;529;1449494130;2.16674947739;0.866554558277;0.06785206496719999;2;True;47;3;321.1593101024558
530;530;1449494130;2.16676020622;0.866548955441;0.067873030901;2;True;47;3;321.1593101024558
531;531;1449494130;2.16675710678;0.8665525913240001;0.0678825974464;2;True;47;3;321.1593101024558
532;532;1449494130;2.16665077209;0.866485714912;0.0679228976369;2;True;47;3;321.1593101024558
533;533;1449494130;2.16686320305;0.8665527701379999;0.06792264431719999;2;True;47;3;321.1593101024558
534;534;1449494130;2.16674876213;0.86655151844;0.0678776651621;2;True;47;3;321.1593101024558
535;535;1449494130;2.16686487198;0.8666154146189999;0.0678828284144;2;True;47;3;321.1593101024558
536;536;1449494130;2.16674089432;0.8665825128560001;0.0678422823548;2;True;47;3;321.1593101024558
537;537;1449494130;2.1666738987;0.866995036602;0.0680735036731;2;True;47;3;321.1593101024558
538;538;1449494130;2.16675901413;0.8665654063220001;0.0678693801165;2;True;47;3;321.1593101024558
539;539;1449494130;2.16679310799;0.8665921092030001;0.0678955763578;2;True;47;3;321.1593101024558
540;540;1449494130;2.16667604446;0.86649698019;0.0679098069668;2;True;47;3;321.1593101024558
541;541;1449494130;2.1668679714200003;0.866557717323;0.068002961576;2;True;47;3;321.1593101024558
542;542;1449494130;2.16673278809;0.86657422781;0.0678558945656;2;True;47;3;321.1593101024558
543;543;1449494130;2.16675710678;0.866559445858;0.0678899437189;2;True;47;3;321.1593101024558
544;544;1449494130;2.16671442986;0.867007434368;0.0680924654007;2;True;47;3;321.1593101024558
545;545;1449494130;2.16674900055;0.8665664792059999;0.0678623467684;2;True;47;3;321.1593101024558
546;546;1449494130;2.16662859917;0.866483807564;0.0679279118776;2;True;47;3;321.1593101024558
547;547;1449494130;2.16680264473;0.8666027188299998;0.0679087266326;2;True;47;3;321.1593101024558
548;548;1449494130;2.16675853729;0.866562247276;0.0678747445345;2;True;47;3;321.1593101024558
549;549;1449494130;2.16680145264;0.866560339928;0.067889906466;2;True;47;3;321.1593101024558
550;550;1449494130;2.16674137115;0.866560995579;0.0678683966398;2;True;47;3;321.1593101024558
551;551;1449494130;2.1667852401700003;0.866570532322;0.0678395107388;2;True;47;3;321.1593101024558
552;552;1449494130;2.16675043106;0.8665771484379999;0.0678549557924;2;True;47;3;321.1593101024558
553;553;1449494130;2.16676807404;0.8665816783910001;0.06784476339819999;2;True;47;3;321.1593101024558
554;554;1449494130;2.16674590111;0.8665664792059999;0.0678549855947;2;True;47;3;321.1593101024558
555;555;1449494130;2.16678237915;0.8665553927420001;0.0678743720055;2;True;47;3;321.1593101024558
556;556;1449494130;2.16665935516;0.8664866685870001;0.0679496154189;2;True;47;3;321.1593101024558
557;557;1449494130;2.16679906845;0.866615772247;0.0678153410554;2;True;47;3;321.1593101024558
558;558;1449494130;2.16678333282;0.8665625453;0.0678496807814;2;True;47;3;321.1593101024558
559;559;1449494130;2.1668138504;0.866616845131;0.0678148418665;2;True;47;3;321.1593101024558
560;560;1449494130;2.1668138504;0.866596579552;0.0678395107388;2;True;47;3;321.1593101024558
561;561;1449494130;2.16680836678;0.866585314274;0.0678663626313;2;True;47;3;321.1593101024558
562;562;1449494130;2.16670417786;0.866514742374;0.0679262802005;2;True;47;3;321.1593101024558
563;563;1449494130;2.16679430008;0.8665702939030001;0.0678722932935;2;True;47;3;321.1593101024558
564;564;1449494130;2.16673398018;0.8665717840189999;0.0678301602602;2;True;47;3;321.1593101024558
565;565;1449494130;2.16679620743;0.866610527039;0.0678019598126;2;True;47;3;321.1593101024558
566;566;1449494130;2.16674351692;0.8665525913240001;0.0678854212165;2;True;47;3;321.1593101024558
567;567;1449494130;2.1667470932;0.86656242609;0.0678760334849;2;True;47;3;321.1593101024558
568;568;1449494130;2.16676354408;0.8665953278540001;0.0678167790174;2;True;47;3;321.1593101024558
569;569;1449494130;2.16668581963;0.866995811462;0.0680898353457;2;True;47;3;321.1593101024558
570;570;1449494130;2.16672825813;0.866561710835;0.0678692385554;2;True;47;3;321.1593101024558
571;571;1449494130;2.16660118103;0.8670461773870001;0.0680619105697;2;True;47;3;321.1593101024558
572;572;1449494130;2.16663336754;0.8670266866680001;0.0680642947555;2;True;47;3;321.1593101024558
573;573;1449494130;2.16661286354;0.8670272827150001;0.06805726885800001;2;True;47;3;321.1593101024558
574;574;1449494130;2.16678214073;0.866625964642;0.0678172186017;2;True;47;3;321.1593101024558
575;575;1449494130;2.16678285599;0.8665722012520001;0.0678363963962;2;True;47;3;321.1593101024558
576;576;1449494130;2.16676092148;0.8666065335269999;0.0678162202239;2;True;47;3;321.1593101024558
577;577;1449494130;2.16664648056;0.8670178055760001;0.0680620968342;2;True;47;3;321.1593101024558
578;578;1449494130;2.16680192947;0.866614162922;0.0678143128753;2;True;47;3;321.1593101024558
579;579;1449494130;2.1667444706;0.866591155529;0.0678555741906;2;True;47;3;321.1593101024558
580;580;1449494130;2.16676950455;0.866598188877;0.067900814116;2;True;47;3;321.1593101024558
581;581;1449494130;2.1666703224200003;0.867046236992;0.068078354001;2;True;47;3;321.1593101024558
582;582;1449494130;2.16677713394;0.866573214531;0.0678415223956;2;True;47;3;321.1593101024558
583;583;1449494130;2.16675138474;0.866585791111;0.06785186380149999;2;True;47;3;321.1593101024558
584;584;1449494130;2.16667747498;0.8665378689769999;0.06789126247169999;2;True;47;3;321.1593101024558
585;585;1449494130;2.16662597656;0.866500377655;0.0679319947958;2;True;47;3;321.1593101024558
586;586;1449494130;2.16676092148;0.866581141949;0.0678326413035;2;True;47;3;321.1593101024558
587;587;1449494130;2.16672372818;0.866555333138;0.06787893921140001;2;True;47;3;321.1593101024558
588;588;1449494130;2.16669869423;0.8669985532760001;0.0680895149708;2;True;47;3;321.1593101024558
589;589;1449494130;2.1668086051900004;0.866596221924;0.0678431540728;2;True;47;3;321.1593101024558
590;590;1449494130;2.1667611599;0.8666079044339999;0.0678322464228;2;True;47;3;321.1593101024558
591;591;1449494130;2.16681075096;0.8666234016419999;0.0678093880415;2;True;47;3;321.1593101024558
592;592;1449494130;2.16677260399;0.866605937481;0.0678263604641;2;True;47;3;321.1593101024558
593;593;1449494130;2.16663455963;0.8665696978569999;0.0678606554866;2;True;47;3;321.1593101024558
594;594;1449494130;2.1668283939400004;0.866596639156;0.067890919745;2;True;47;3;321.1593101024558
595;595;1449494130;2.16671705246;0.866526722908;0.0678944960237;2;True;47;3;321.1593101024558
596;596;1449494130;2.16682696342;0.8665880560870001;0.0678773969412;2;True;47;3;321.1593101024558
597;597;1449494130;2.16676402092;0.866591274738;0.067865267396;2;True;47;3;321.1593101024558
598;598;1449494130;2.16674757004;0.866566002369;0.06787011027340001;2;True;47;3;321.1593101024558
599;599;1449494130;2.1666469574;0.867007791996;0.0680810362101;2;True;47;3;321.1593101024558
600;600;1449494130;2.1668407917;0.866551339626;0.06797572225330001;2;True;47;3;321.1593101024558
601;601;1449494130;2.16681098938;0.866581082344;0.06794243305919999;2;True;47;3;321.1593101024558
602;602;1449494130;2.16680312157;0.8665803074840001;0.0678958594799;2;True;47;3;321.1593101024558
603;603;1449494130;2.16670942307;0.866576254368;0.0678852945566;2;True;47;3;321.1593101024558
604;604;1449494130;2.1666963100400003;0.8669820427889999;0.0680928528309;2;True;47;3;321.1593101024558
605;605;1449494130;2.1667470932;0.8665615916249999;0.06786593794819999;2;True;47;3;321.1593101024558
606;606;1449494130;2.16677427292;0.8666021227840001;0.0678171515465;2;True;47;3;321.1593101024558
607;607;1449494130;2.16677999496;0.866599261761;0.0678150430322;2;True;47;3;321.1593101024558
608;608;1449494130;2.16656804085;0.8670721054080001;0.0680768415332;2;True;47;3;321.1593101024558
609;609;1449494130;2.16676068306;0.866559743881;0.0678785145283;2;True;47;3;321.1593101024558
610;610;1449494130;2.16677594185;0.86659938097;0.0678579807281;2;True;47;3;321.1593101024558
611;611;1449494130;2.16674900055;0.8665722012520001;0.06785300374030001;2;True;47;3;321.1593101024558
612;612;1449494130;2.16670393944;0.866566419601;0.0678401663899;2;True;47;3;321.1593101024558
613;613;1449494130;2.1667842865;0.8666201233859999;0.0678125396371;2;True;47;3;321.1593101024558
614;614;1449494130;2.1667225360900004;0.8665839433670001;0.0678351968527;2;True;47;3;321.1593101024558
615;615;1449494130;2.16683149338;0.866594552994;0.06785453110930001;2;True;47;3;321.1593101024558
