;Unnamed: 0;header_stamp_secs;pose_position_x;pose_position_y;pose_position_z;seconds;drop_values;flight_number;label;dtw
0;0;1449484719;2.12986397743;0.7984127402310001;0.0684595257044;0;True;5;2;163.39438199995078
1;1;1449484719;2.1299400329599996;0.798395872116;0.0683901160955;0;True;5;2;163.39438199995078
2;2;1449484719;2.12995648384;0.798473417759;0.068397000432;0;True;5;2;163.39438199995078
3;3;1449484719;2.1299605369599997;0.798406660557;0.06831409782169999;0;True;5;2;163.39438199995078
4;4;1449484719;2.12985801697;0.798501670361;0.0684164613485;0;True;5;2;163.39438199995078
5;5;1449484719;2.12983179092;0.798343539238;0.0684209465981;0;True;5;2;163.39438199995078
6;6;1449484719;2.1299486160299996;0.7984225153919999;0.0683915764093;0;True;5;2;163.39438199995078
7;7;1449484719;2.1298606395700004;0.798409819603;0.0683906897902;0;True;5;2;163.39438199995078
8;8;1449484719;2.1300303936000002;0.7986626625059999;0.0683059617877;0;True;5;2;163.39438199995078
9;9;1449484719;2.1300737857799996;0.79863601923;0.0682590827346;0;True;5;2;163.39438199995078
10;10;1449484719;2.1299731731400002;0.7984375357629999;0.0683112666011;0;True;5;2;163.39438199995078
11;11;1449484719;2.12994670868;0.79834073782;0.06833568215369999;0;True;5;2;163.39438199995078
12;12;1449484719;2.12994766235;0.7984077334399999;0.0683694556355;0;True;5;2;163.39438199995078
13;13;1449484719;2.12994289398;0.798418700695;0.0683783069253;0;True;5;2;163.39438199995078
14;14;1449484719;2.12994432449;0.798496127129;0.0684321597219;0;True;5;2;163.39438199995078
15;15;1449484719;2.12987446785;0.798560738564;0.0684573128819;0;True;5;2;163.39438199995078
16;16;1449484719;2.12990760803;0.7982688546179999;0.0683490484953;0;True;5;2;163.39438199995078
17;17;1449484719;2.1300027370500003;0.7984690666200001;0.0682772397995;0;True;5;2;163.39438199995078
18;18;1449484719;2.12992787361;0.7983174920080001;0.06834674626590001;0;True;5;2;163.39438199995078
19;19;1449484719;2.12992620468;0.798408865929;0.0683908313513;0;True;5;2;163.39438199995078
20;20;1449484719;2.12988853455;0.7984184622759999;0.06837368011469999;0;True;5;2;163.39438199995078
21;21;1449484719;2.12990736961;0.798270583153;0.06834384799;0;True;5;2;163.39438199995078
22;22;1449484719;2.12988257408;0.798421025276;0.068465910852;0;True;5;2;163.39438199995078
23;23;1449484719;2.1298062801400004;0.798416912556;0.0684213787317;0;True;5;2;163.39438199995078
24;24;1449484719;2.12991952896;0.79826438427;0.0683046132326;0;True;5;2;163.39438199995078
25;25;1449484719;2.1299517154700003;0.798538327217;0.0683679804206;0;True;5;2;163.39438199995078
26;26;1449484719;2.129945755;0.798524618149;0.0683548301458;0;True;5;2;163.39438199995078
27;27;1449484719;2.12980270386;0.798390209675;0.0684400722384;0;True;5;2;163.39438199995078
28;28;1449484719;2.12982130051;0.7984145283699999;0.0684210583568;0;True;5;2;163.39438199995078
29;29;1449484719;2.1299035549200003;0.7983880043029999;0.0683831200004;0;True;5;2;163.39438199995078
30;30;1449484719;2.12980365753;0.798280835152;0.0684422925115;0;True;5;2;163.39438199995078
31;31;1449484719;2.12989187241;0.798525750637;0.06847820430990001;0;True;5;2;163.39438199995078
32;32;1449484719;2.12984848022;0.798366248608;0.0684531852603;0;True;5;2;163.39438199995078
33;33;1449484719;2.12980556488;0.798421442509;0.0684280544519;0;True;5;2;163.39438199995078
34;34;1449484719;2.1299085617099998;0.798501372337;0.06837257742880001;0;True;5;2;163.39438199995078
35;35;1449484719;2.12984395027;0.798495709896;0.0684205666184;0;True;5;2;163.39438199995078
36;36;1449484719;2.1298236846900003;0.798396229744;0.0684340819716;0;True;5;2;163.39438199995078
37;37;1449484719;2.12999677658;0.798477292061;0.06829285621640001;0;True;5;2;163.39438199995078
38;38;1449484719;2.1298763752000003;0.798365473747;0.0684309601784;0;True;5;2;163.39438199995078
39;39;1449484719;2.12988519669;0.798295855522;0.06839365512130001;0;True;5;2;163.39438199995078
40;40;1449484719;2.1298925876599997;0.798418104649;0.0684895142913;0;True;5;2;163.39438199995078
41;41;1449484719;2.1298632621799998;0.798537373543;0.068415440619;0;True;5;2;163.39438199995078
42;42;1449484719;2.12988829613;0.798429071903;0.0684414952993;0;True;5;2;163.39438199995078
43;43;1449484719;2.12988758087;0.7984280586239999;0.0684306398034;0;True;5;2;163.39438199995078
44;44;1449484719;2.12991452217;0.7982843518260001;0.0683564245701;0;True;5;2;163.39438199995078
45;45;1449484719;2.1298961639400003;0.7982252240180001;0.0683716237545;0;True;5;2;163.39438199995078
46;46;1449484719;2.12993121147;0.7983573079109999;0.0683397874236;0;True;5;2;163.39438199995078
47;47;1449484719;2.12995791435;0.7984886765479999;0.06837567687030001;0;True;5;2;163.39438199995078
48;48;1449484719;2.12987875938;0.798476994038;0.068429119885;0;True;5;2;163.39438199995078
49;49;1449484719;2.12987828255;0.798345863819;0.0684302076697;0;True;5;2;163.39438199995078
50;50;1449484719;2.1298520565;0.7984028458600001;0.0684441253543;0;True;5;2;163.39438199995078
51;51;1449484719;2.12991333008;0.7984233498569999;0.0684405043721;0;True;5;2;163.39438199995078
52;52;1449484719;2.12982273102;0.798361599445;0.0684705749154;0;True;5;2;163.39438199995078
53;53;1449484719;2.1299057006799997;0.798250615597;0.0683623850346;0;True;5;2;163.39438199995078
54;54;1449484719;2.1298599243200003;0.798410058022;0.0684862658381;0;True;5;2;163.39438199995078
55;55;1449484719;2.1299042701700004;0.7982103824619999;0.0683550909162;0;True;5;2;163.39438199995078
56;56;1449484719;2.1298725605;0.79832816124;0.0684288144112;0;True;5;2;163.39438199995078
57;57;1449484719;2.1300580501599997;0.7984334230419999;0.0682579353452;0;True;5;2;163.39438199995078
58;58;1449484719;2.1299028396599997;0.798349559307;0.0684491693974;0;True;5;2;163.39438199995078
59;59;1449484719;2.12987065315;0.7983272671699999;0.0684643983841;0;True;5;2;163.39438199995078
60;60;1449484719;2.12984991074;0.798484265804;0.0684364959598;0;True;5;2;163.39438199995078
61;61;1449484719;2.12988591194;0.798377335072;0.0683480203152;0;True;5;2;163.39438199995078
62;62;1449484719;2.1299455165900003;0.7982761859890001;0.0683346614242;0;True;5;2;163.39438199995078
63;63;1449484719;2.1299059391;0.798400878906;0.06840278208259999;0;True;5;2;163.39438199995078
64;64;1449484719;2.13008403778;0.798592805862;0.0682819187641;0;True;5;2;163.39438199995078
65;65;1449484719;2.12999486923;0.798462569714;0.0683208703995;0;True;5;2;163.39438199995078
66;66;1449484719;2.13000035286;0.7984117269519999;0.0682891905308;0;True;5;2;163.39438199995078
67;67;1449484719;2.1300327777900003;0.798657715321;0.0682988092303;0;True;5;2;163.39438199995078
68;68;1449484719;2.12985515594;0.79825681448;0.0684537440538;0;True;5;2;163.39438199995078
69;69;1449484719;2.12979888916;0.798363566399;0.0685007870197;0;True;5;2;163.39438199995078
70;70;1449484719;2.1299507618;0.798369944096;0.06838744878769999;0;True;5;2;163.39438199995078
71;71;1449484719;2.12982463837;0.7983151674269999;0.0684547871351;0;True;5;2;163.39438199995078
72;72;1449484719;2.1298480033900002;0.798451423645;0.0684514716268;0;True;5;2;163.39438199995078
73;73;1449484719;2.12988471985;0.798416376114;0.06844197213650001;0;True;5;2;163.39438199995078
74;74;1449484719;2.12997078896;0.7983950376510001;0.06838492304089999;0;True;5;2;163.39438199995078
75;75;1449484719;2.1299273967700003;0.798416078091;0.06847398728130001;0;True;5;2;163.39438199995078
76;76;1449484719;2.12978720665;0.798367857933;0.0685620307922;0;True;5;2;163.39438199995078
77;77;1449484719;2.1299636364;0.798496723175;0.0684746801853;0;True;5;2;163.39438199995078
78;78;1449484719;2.13000941277;0.798475503922;0.0683237761259;0;True;5;2;163.39438199995078
79;79;1449484719;2.12994122505;0.7983320355419999;0.0683843865991;0;True;5;2;163.39438199995078
80;80;1449484719;2.12995362282;0.798319518566;0.0683652311563;0;True;5;2;163.39438199995078
81;81;1449484719;2.1298956871;0.798247277737;0.0684258565307;0;True;5;2;163.39438199995078
82;82;1449484719;2.1299500465400003;0.798414766788;0.0684026256204;0;True;5;2;163.39438199995078
83;83;1449484719;2.12986636162;0.7983585000040001;0.0684702023864;0;True;5;2;163.39438199995078
84;84;1449484719;2.12988400459;0.798560202122;0.06848440319299999;0;True;5;2;163.39438199995078
85;85;1449484719;2.12985444069;0.798448383808;0.0684503093362;0;True;5;2;163.39438199995078
86;86;1449484719;2.1298725605;0.79838347435;0.0684795826674;0;True;5;2;163.39438199995078
87;87;1449484719;2.12997698784;0.798511981964;0.06840325891969999;0;True;5;2;163.39438199995078
88;88;1449484719;2.13010382652;0.79863256216;0.0683029964566;0;True;5;2;163.39438199995078
89;89;1449484719;2.12988734245;0.798539102077;0.0684174969792;0;True;5;2;163.39438199995078
90;90;1449484719;2.1299631595599995;0.798310041428;0.06833727657790001;0;True;5;2;163.39438199995078
91;91;1449484719;2.12995481491;0.798405110836;0.0683556422591;0;True;5;2;163.39438199995078
92;92;1449484719;2.12985396385;0.798371374607;0.0685090646148;0;True;5;2;163.39438199995078
93;93;1449484719;2.12994122505;0.7984583973880001;0.0684605911374;0;True;5;2;163.39438199995078
94;94;1449484719;2.13002467155;0.7985042333600001;0.0683354586363;0;True;5;2;163.39438199995078
95;95;1449484719;2.12988853455;0.798562347889;0.0684666782618;0;True;5;2;163.39438199995078
96;96;1449484719;2.1299486160299996;0.798323512077;0.0683821886778;0;True;5;2;163.39438199995078
97;97;1449484719;2.1299612522099998;0.798326909542;0.0683642625809;0;True;5;2;163.39438199995078
98;98;1449484719;2.1300234794599997;0.798520743847;0.06833236664530001;0;True;5;2;163.39438199995078
99;99;1449484719;2.1298177242299996;0.798337936401;0.0687038823962;0;True;5;2;163.39438199995078
100;100;1449484719;2.1298339366900003;0.798176825047;0.0684078633785;0;True;5;2;163.39438199995078
101;101;1449484719;2.12983465195;0.798358738422;0.0684977769852;0;True;5;2;163.39438199995078
102;102;1449484719;2.1298837661700003;0.7984295487399999;0.0684346556664;0;True;5;2;163.39438199995078
103;103;1449484719;2.12996578217;0.798426806927;0.0683964565396;0;True;5;2;163.39438199995078
104;104;1449484719;2.12995409966;0.798437714577;0.0684248879552;0;True;5;2;163.39438199995078
105;105;1449484719;2.1299393177;0.798446714878;0.0683999434114;0;True;5;2;163.39438199995078
106;106;1449484719;2.1298995018;0.798334300518;0.0684509128332;0;True;5;2;163.39438199995078
107;107;1449484719;2.12988829613;0.798608481884;0.06843812018630001;0;True;5;2;163.39438199995078
108;108;1449484719;2.12996196747;0.7985898256300001;0.0684197247028;0;True;5;2;163.39438199995078
109;109;1449484719;2.12987804413;0.798558413982;0.068455979228;0;True;5;2;163.39438199995078
110;110;1449484719;2.1298692226400004;0.798499166965;0.0684831216931;0;True;5;2;163.39438199995078
111;111;1449484719;2.1298372745500003;0.7983450889589999;0.0684869065881;0;True;5;2;163.39438199995078
112;112;1449484719;2.12983083725;0.7983806133269999;0.0684818774462;0;True;5;2;163.39438199995078
113;113;1449484719;2.1299679279299997;0.7984436154369999;0.0683661550283;0;True;5;2;163.39438199995078
114;114;1449484719;2.12993550301;0.798309326172;0.0683449730277;0;True;5;2;163.39438199995078
115;115;1449484719;2.12991929054;0.7984749674799999;0.0684832930565;0;True;5;2;163.39438199995078
116;116;1449484719;2.12987112999;0.7984049320219999;0.0684779509902;0;True;5;2;163.39438199995078
117;117;1449484719;2.12996482849;0.7985742092129999;0.0683973878622;0;True;5;2;163.39438199995078
118;118;1449484719;2.12986016273;0.7984495759010001;0.06846780329940001;0;True;5;2;163.39438199995078
119;119;1449484719;2.13000035286;0.798486113548;0.0683463737369;0;True;5;2;163.39438199995078
120;120;1449484719;2.12999176979;0.798366725445;0.0683005079627;0;True;5;2;163.39438199995078
121;121;1449484719;2.12996602058;0.798333644867;0.06835971772669999;0;True;5;2;163.39438199995078
122;122;1449484719;2.1299750804900004;0.7984092235570001;0.0683760344982;0;True;5;2;163.39438199995078
123;123;1449484719;2.1299519538900005;0.798394382;0.0683838054538;0;True;5;2;163.39438199995078
124;124;1449484719;2.12997579575;0.7983430027959999;0.06832565367219999;0;True;5;2;163.39438199995078
125;125;1449484719;2.1298689842200003;0.7983259558679999;0.06846123188730001;0;True;5;2;163.39438199995078
126;126;1449484719;2.12986373901;0.7983747124670001;0.0684575289488;0;True;5;2;163.39438199995078
127;127;1449484719;2.12988853455;0.7983891367910001;0.0684377774596;0;True;5;2;163.39438199995078
128;128;1449484719;2.12991499901;0.798228085041;0.0683504492044;0;True;5;2;163.39438199995078
129;129;1449484719;2.12995290756;0.798401653767;0.068379484117;0;True;5;2;163.39438199995078
130;130;1449484719;2.1299009323099996;0.7984034419059999;0.0684205368161;0;True;5;2;163.39438199995078
131;131;1449484719;2.1299097538;0.7982433438300001;0.06840737909080001;0;True;5;2;163.39438199995078
132;132;1449484719;2.129966259;0.7983904480930001;0.0683725625277;0;True;5;2;163.39438199995078
133;133;1449484719;2.12984848022;0.7983401417730001;0.0684407576919;0;True;5;2;163.39438199995078
134;134;1449484719;2.1299226284;0.798410356045;0.0684473887086;0;True;5;2;163.39438199995078
135;135;1449484719;2.12987351418;0.798544228077;0.0686496645212;0;True;5;2;163.39438199995078
136;136;1449484719;2.12996983528;0.798337638378;0.0683368816972;0;True;5;2;163.39438199995078
137;137;1449484719;2.1298964023599996;0.798406779766;0.0684231221676;0;True;5;2;163.39438199995078
138;138;1449484719;2.12977170944;0.798157453537;0.06838747859;0;True;5;2;163.39438199995078
139;139;1449484719;2.12992334366;0.798256397247;0.0683275088668;0;True;5;2;163.39438199995078
140;140;1449484719;2.13001036644;0.7983490228650001;0.0682771205902;0;True;5;2;163.39438199995078
141;141;1449484719;2.12996029854;0.798333764076;0.0683048963547;0;True;5;2;163.39438199995078
142;142;1449484719;2.12995553017;0.798427462578;0.0684023723006;0;True;5;2;163.39438199995078
143;143;1449484719;2.1299407482099997;0.798393249512;0.0683566406369;0;True;5;2;163.39438199995078
144;144;1449484719;2.12988305092;0.7982274293899999;0.068387389183;0;True;5;2;163.39438199995078
145;145;1449484719;2.1299419403099997;0.798260211945;0.068299099803;0;True;5;2;163.39438199995078
146;146;1449484719;2.12984228134;0.7984049320219999;0.06840880215169999;0;True;5;2;163.39438199995078
147;147;1449484719;2.12990951538;0.798510551453;0.0684291943908;0;True;5;2;163.39438199995078
148;148;1449484719;2.12989807129;0.7983877062800001;0.06848941743369999;0;True;5;2;163.39438199995078
149;149;1449484719;2.12999248505;0.798364460468;0.0682590603828;0;True;5;2;163.39438199995078
150;150;1449484719;2.12986040115;0.798432171345;0.0684623271227;0;True;5;2;163.39438199995078
151;151;1449484719;2.1298391819;0.798314809799;0.0684448555112;0;True;5;2;163.39438199995078
152;152;1449484719;2.1298413276700003;0.798115611076;0.0683356001973;0;True;5;2;163.39438199995078
153;153;1449484719;2.1298160553;0.798621296883;0.0684154555202;0;True;5;2;163.39438199995078
154;154;1449484720;2.1298401355700003;0.798399806023;0.068406291306;1;True;5;2;163.39438199995078
155;155;1449484720;2.12992334366;0.7983757257459999;0.0683863535523;1;True;5;2;163.39438199995078
156;156;1449484720;2.12996983528;0.798358857632;0.0682926848531;1;True;5;2;163.39438199995078
157;157;1449484720;2.12994980812;0.7984917759899999;0.0683582797647;1;True;5;2;163.39438199995078
158;158;1449484720;2.12994980812;0.798389494419;0.0683035328984;1;True;5;2;163.39438199995078
159;159;1449484720;2.12987089157;0.798297703266;0.0683942735195;1;True;5;2;163.39438199995078
160;160;1449484720;2.12983107567;0.798310637474;0.0684547349811;1;True;5;2;163.39438199995078
161;161;1449484720;2.12981796265;0.798442542553;0.0684482306242;1;True;5;2;163.39438199995078
162;162;1449484720;2.1298339366900003;0.798415243626;0.0684332251549;1;True;5;2;163.39438199995078
163;163;1449484720;2.1299650669099996;0.798431813717;0.0683574974537;1;True;5;2;163.39438199995078
164;164;1449484720;2.12999892235;0.798478245735;0.0682911798358;1;True;5;2;163.39438199995078
165;165;1449484720;2.12991523743;0.798199176788;0.06831680983300001;1;True;5;2;163.39438199995078
166;166;1449484720;2.12987470627;0.7984351515770001;0.0684334561229;1;True;5;2;163.39438199995078
167;167;1449484720;2.12983083725;0.798438191414;0.0684339702129;1;True;5;2;163.39438199995078
168;168;1449484720;2.1298792362200003;0.798516333103;0.0684511214495;1;True;5;2;163.39438199995078
169;169;1449484720;2.12989091873;0.7982870936390001;0.06848366558550001;1;True;5;2;163.39438199995078
170;170;1449484720;2.12995052338;0.798416554928;0.0684090554714;1;True;5;2;163.39438199995078
171;171;1449484720;2.12990999222;0.798407495022;0.0684112906456;1;True;5;2;163.39438199995078
172;172;1449484720;2.1298584938;0.798492908478;0.0684521347284;1;True;5;2;163.39438199995078
173;173;1449484720;2.12986969948;0.798529863358;0.06845685839650001;1;True;5;2;163.39438199995078
174;174;1449484720;2.12999582291;0.7985815405850001;0.0684023275971;1;True;5;2;163.39438199995078
175;175;1449484720;2.12993836403;0.79830789566;0.0683703795075;1;True;5;2;163.39438199995078
176;176;1449484720;2.1300163269;0.798469126225;0.06831933557990001;1;True;5;2;163.39438199995078
177;177;1449484720;2.12992095947;0.7984096407889999;0.06842438876630001;1;True;5;2;163.39438199995078
178;178;1449484720;2.1299419403099997;0.798363149166;0.0683835744858;1;True;5;2;163.39438199995078
179;179;1449484720;2.1299750804900004;0.79853361845;0.0684515833855;1;True;5;2;163.39438199995078
180;180;1449484720;2.13009405136;0.79856467247;0.0682948455215;1;True;5;2;163.39438199995078
181;181;1449484720;2.12986803055;0.7984449267389999;0.06845892220739999;1;True;5;2;163.39438199995078
182;182;1449484720;2.1300144195599997;0.798488795757;0.0683468431234;1;True;5;2;163.39438199995078
183;183;1449484720;2.12992095947;0.7984478473659999;0.0684620887041;1;True;5;2;163.39438199995078
184;184;1449484720;2.12984466553;0.7984266281129999;0.068521335721;1;True;5;2;163.39438199995078
185;185;1449484720;2.12996220589;0.798384070396;0.0683871805668;1;True;5;2;163.39438199995078
186;186;1449484720;2.12994265556;0.7982837557790001;0.06835100799800001;1;True;5;2;163.39438199995078
187;187;1449484720;2.12994623184;0.798399150372;0.0684147998691;1;True;5;2;163.39438199995078
188;188;1449484720;2.12984323502;0.798446595669;0.06849676370619999;1;True;5;2;163.39438199995078
189;189;1449484720;2.12995123863;0.798438310623;0.0683604180813;1;True;5;2;163.39438199995078
190;190;1449484720;2.13001322746;0.798517346382;0.0683116689324;1;True;5;2;163.39438199995078
191;191;1449484720;2.1298387050599996;0.7984233498569999;0.0684717297554;1;True;5;2;163.39438199995078
192;192;1449484720;2.1300048828099998;0.7986407876010001;0.0683730691671;1;True;5;2;163.39438199995078
193;193;1449484720;2.12999773026;0.798481464386;0.0683310851455;1;True;5;2;163.39438199995078
194;194;1449484720;2.12989926338;0.798448503017;0.068478576839;1;True;5;2;163.39438199995078
195;195;1449484720;2.12993574142;0.798397481441;0.068422332406;1;True;5;2;163.39438199995078
196;196;1449484720;2.1299228668200003;0.7984571456910001;0.06843885034319999;1;True;5;2;163.39438199995078
197;197;1449484720;2.12984490395;0.798497140408;0.06846765428780001;1;True;5;2;163.39438199995078
198;198;1449484720;2.12995553017;0.7983682155609999;0.06833457201719999;1;True;5;2;163.39438199995078
199;199;1449484720;2.1297969818099998;0.798350870609;0.0686451196671;1;True;5;2;163.39438199995078
200;200;1449484720;2.12985634804;0.798396348953;0.068476870656;1;True;5;2;163.39438199995078
201;201;1449484720;2.12987685204;0.798326432705;0.068454451859;1;True;5;2;163.39438199995078
202;202;1449484720;2.12982177734;0.79844558239;0.0685185268521;1;True;5;2;163.39438199995078
203;203;1449484720;2.12995290756;0.7983174920080001;0.0683764889836;1;True;5;2;163.39438199995078
204;204;1449484720;2.12987947464;0.7982362508769999;0.0684342905879;1;True;5;2;163.39438199995078
205;205;1449484720;2.13003635406;0.798472642899;0.068300485611;1;True;5;2;163.39438199995078
206;206;1449484720;2.12998771667;0.7983714342120001;0.0683222562075;1;True;5;2;163.39438199995078
207;207;1449484720;2.1299753189099997;0.798392653465;0.0683977082372;1;True;5;2;163.39438199995078
208;208;1449484720;2.1298983097099997;0.798520684242;0.0684741586447;1;True;5;2;163.39438199995078
209;209;1449484720;2.12987279892;0.7983876466750001;0.06849250197409999;1;True;5;2;163.39438199995078
210;210;1449484720;2.1298801899;0.7983341813089999;0.0684867501259;1;True;5;2;163.39438199995078
211;211;1449484720;2.12991976738;0.798400700092;0.0683991387486;1;True;5;2;163.39438199995078
212;212;1449484720;2.12998151779;0.7985545396799999;0.068430647254;1;True;5;2;163.39438199995078
213;213;1449484720;2.12986779213;0.798369884491;0.0685027316213;1;True;5;2;163.39438199995078
214;214;1449484720;2.12992238998;0.7983279824259999;0.0684447810054;1;True;5;2;163.39438199995078
215;215;1449484720;2.12990403175;0.798389494419;0.0684445500374;1;True;5;2;163.39438199995078
216;216;1449484720;2.1299059391;0.7983953356739999;0.06846050918100001;1;True;5;2;163.39438199995078
217;217;1449484720;2.12990617752;0.7982097268100001;0.0684182271361;1;True;5;2;163.39438199995078
218;218;1449484720;2.12983179092;0.798382639885;0.0685541182756;1;True;5;2;163.39438199995078
219;219;1449484720;2.12996244431;0.7984127402310001;0.0684352591634;1;True;5;2;163.39438199995078
220;220;1449484720;2.12992238998;0.798520565033;0.0684921368957;1;True;5;2;163.39438199995078
221;221;1449484720;2.1300156116499998;0.7984912991519999;0.06833772361280001;1;True;5;2;163.39438199995078
222;222;1449484720;2.1298620700799997;0.7983326911929999;0.0684955939651;1;True;5;2;163.39438199995078
223;223;1449484720;2.12997603416;0.798426508904;0.0684183239937;1;True;5;2;163.39438199995078
224;224;1449484720;2.13003087044;0.798471152782;0.0683342367411;1;True;5;2;163.39438199995078
225;225;1449484720;2.1299605369599997;0.798357844353;0.0683887153864;1;True;5;2;163.39438199995078
226;226;1449484720;2.12986159325;0.798509180546;0.06847285479309999;1;True;5;2;163.39438199995078
227;227;1449484720;2.1299731731400002;0.798416495323;0.0684004798532;1;True;5;2;163.39438199995078
228;228;1449484720;2.12985825539;0.798524260521;0.0683717653155;1;True;5;2;163.39438199995078
229;229;1449484720;2.12989377975;0.7985107898710001;0.0684519857168;1;True;5;2;163.39438199995078
230;230;1449484720;2.12984585762;0.798395812511;0.068542316556;1;True;5;2;163.39438199995078
231;231;1449484720;2.12993574142;0.7982760667800001;0.0683501139283;1;True;5;2;163.39438199995078
232;232;1449484720;2.1298573017099995;0.798527479172;0.0684393048286;1;True;5;2;163.39438199995078
233;233;1449484720;2.1299085617099998;0.798512518406;0.0684635490179;1;True;5;2;163.39438199995078
234;234;1449484720;2.1298546791099997;0.798396945;0.0684638395905;1;True;5;2;163.39438199995078
235;235;1449484720;2.1299870014200004;0.7984803915019999;0.0683037191629;1;True;5;2;163.39438199995078
236;236;1449484720;2.1298620700799997;0.7983984351160001;0.068416044116;1;True;5;2;163.39438199995078
237;237;1449484720;2.12990903854;0.7985386252399999;0.0684147402644;1;True;5;2;163.39438199995078
238;238;1449484720;2.12996411324;0.798466265202;0.0683049410582;1;True;5;2;163.39438199995078
239;239;1449484720;2.1298725605;0.798520088196;0.06843440234659999;1;True;5;2;163.39438199995078
240;240;1449484720;2.12992191315;0.798455715179;0.06830904632809999;1;True;5;2;163.39438199995078
241;241;1449484720;2.12984609604;0.7985087037090001;0.0684263333678;1;True;5;2;163.39438199995078
242;242;1449484720;2.12991571426;0.798366487026;0.06837484985589999;1;True;5;2;163.39438199995078
243;243;1449484720;2.12994408607;0.798471331596;0.0683280676603;1;True;5;2;163.39438199995078
244;244;1449484720;2.1299314498900004;0.7985810041429999;0.0684093758464;1;True;5;2;163.39438199995078
245;245;1449484720;2.1299085617099998;0.7983345985410001;0.06833343207840001;1;True;5;2;163.39438199995078
246;246;1449484720;2.12994503975;0.79843968153;0.0683261752129;1;True;5;2;163.39438199995078
247;247;1449484720;2.12975621223;0.798407912254;0.0685600489378;1;True;5;2;163.39438199995078
248;248;1449484720;2.12985897064;0.7984592318529999;0.0684667080641;1;True;5;2;163.39438199995078
249;249;1449484720;2.12984323502;0.798508763313;0.0684336423874;1;True;5;2;163.39438199995078
250;250;1449484720;2.12982392311;0.7984522581100001;0.06843350827689999;1;True;5;2;163.39438199995078
251;251;1449484720;2.12996459007;0.798466920853;0.0683255344629;1;True;5;2;163.39438199995078
252;252;1449484720;2.12989902496;0.798473477364;0.0684652253985;1;True;5;2;163.39438199995078
253;253;1449484720;2.12983798981;0.7984434366230001;0.0684092640877;1;True;5;2;163.39438199995078
254;254;1449484720;2.1298451423599998;0.798349142075;0.0684552788734;1;True;5;2;163.39438199995078
255;255;1449484720;2.1299674511;0.798510730267;0.06838029623030001;1;True;5;2;163.39438199995078
256;256;1449484720;2.1298339366900003;0.798439502716;0.0684266164899;1;True;5;2;163.39438199995078
257;257;1449484720;2.12991642952;0.798469603062;0.06845477968449999;1;True;5;2;163.39438199995078
258;258;1449484720;2.12993264198;0.7982763648029999;0.06836626678709999;1;True;5;2;163.39438199995078
259;259;1449484720;2.1299753189099997;0.798291742802;0.0682924091816;1;True;5;2;163.39438199995078
260;260;1449484720;2.12989759445;0.7984077334399999;0.0684280470014;1;True;5;2;163.39438199995078
261;261;1449484720;2.12992119789;0.798393964767;0.0684145912528;1;True;5;2;163.39438199995078
262;262;1449484720;2.12996768951;0.7985048890109999;0.0684589445591;1;True;5;2;163.39438199995078
263;263;1449484720;2.12992167473;0.798228979111;0.0683607310057;1;True;5;2;163.39438199995078
264;264;1449484720;2.1299719810499997;0.798317193985;0.06832487881180001;1;True;5;2;163.39438199995078
265;265;1449484720;2.1299302578;0.798422396183;0.06842673569919999;1;True;5;2;163.39438199995078
266;266;1449484720;2.1299085617099998;0.798297405243;0.068432316184;1;True;5;2;163.39438199995078
267;267;1449484720;2.1300225257900003;0.798472225666;0.0682670474052;1;True;5;2;163.39438199995078
268;268;1449484720;2.12986540794;0.798120200634;0.0683519542217;1;True;5;2;163.39438199995078
269;269;1449484720;2.1300342083;0.7984695434569999;0.0682856589556;1;True;5;2;163.39438199995078
270;270;1449484720;2.1299021244;0.798371076584;0.0684233009815;1;True;5;2;163.39438199995078
271;271;1449484720;2.12987518311;0.798496842384;0.0684416219592;1;True;5;2;163.39438199995078
272;272;1449484720;2.12983608246;0.798288404942;0.0684612691402;1;True;5;2;163.39438199995078
273;273;1449484720;2.12987828255;0.7982811331749999;0.06841071695090001;1;True;5;2;163.39438199995078
274;274;1449484720;2.13003087044;0.7984512448309999;0.0682747140527;1;True;5;2;163.39438199995078
275;275;1449484720;2.12991261482;0.798264622688;0.0683908686042;1;True;5;2;163.39438199995078
276;276;1449484720;2.12993860245;0.798361718655;0.0683974400163;1;True;5;2;163.39438199995078
277;277;1449484720;2.12984228134;0.798094272614;0.06833996623750001;1;True;5;2;163.39438199995078
278;278;1449484720;2.12985897064;0.798502743244;0.06844078004359999;1;True;5;2;163.39438199995078
279;279;1449484720;2.12997484207;0.798402965069;0.0683051496744;1;True;5;2;163.39438199995078
280;280;1449484720;2.12990307808;0.798359870911;0.0684466660023;1;True;5;2;163.39438199995078
281;281;1449484720;2.1299686431900002;0.7984974980349999;0.0683829262853;1;True;5;2;163.39438199995078
282;282;1449484720;2.12983441353;0.798385977745;0.068445071578;1;True;5;2;163.39438199995078
283;283;1449484720;2.1299550533300002;0.7982878088950001;0.0682953000069;1;True;5;2;163.39438199995078
284;284;1449484720;2.1298964023599996;0.798373758793;0.0684127137065;1;True;5;2;163.39438199995078
285;285;1449484720;2.12976336479;0.798354804516;0.0684187412262;1;True;5;2;163.39438199995078
286;286;1449484720;2.12990140915;0.798196673393;0.0683303549886;1;True;5;2;163.39438199995078
287;287;1449484720;2.12988400459;0.7982218861579999;0.0683661699295;1;True;5;2;163.39438199995078
288;288;1449484720;2.1299123763999996;0.7983803153039999;0.06846267730000001;1;True;5;2;163.39438199995078
289;289;1449484720;2.1298646926900004;0.798424959183;0.0684287697077;1;True;5;2;163.39438199995078
290;290;1449484720;2.1299464702599997;0.7983149886130001;0.0683201551437;1;True;5;2;163.39438199995078
291;291;1449484720;2.1299393177;0.798448204994;0.0684668049216;1;True;5;2;163.39438199995078
292;292;1449484720;2.12980151176;0.7983782291410001;0.0685485452414;1;True;5;2;163.39438199995078
293;293;1449484720;2.1298387050599996;0.7983928322789999;0.06843631714580001;1;True;5;2;163.39438199995078
294;294;1449484720;2.12982463837;0.798309147358;0.06847517937419999;1;True;5;2;163.39438199995078
295;295;1449484720;2.1299929618799998;0.798510432243;0.06833767890930001;1;True;5;2;163.39438199995078
296;296;1449484720;2.12994098663;0.7982659339899999;0.06832677870989999;1;True;5;2;163.39438199995078
297;297;1449484720;2.12992358208;0.798364341259;0.0684113278985;1;True;5;2;163.39438199995078
298;298;1449484720;2.12989473343;0.798239827156;0.06837374717;1;True;5;2;163.39438199995078
299;299;1449484720;2.12995409966;0.7984053492550001;0.0683598816395;1;True;5;2;163.39438199995078
300;300;1449484720;2.1299612522099998;0.798311412334;0.0683423280716;1;True;5;2;163.39438199995078
301;301;1449484720;2.1298930645;0.7984351515770001;0.0684538111091;1;True;5;2;163.39438199995078
302;302;1449484720;2.12979388237;0.798419594765;0.0683560967445;1;True;5;2;163.39438199995078
303;303;1449484720;2.1299986839300002;0.7984775900839999;0.0683279559016;1;True;5;2;163.39438199995078
304;304;1449484720;2.1298692226400004;0.7984957695010001;0.0685000866652;1;True;5;2;163.39438199995078
305;305;1449484720;2.12983846664;0.798333525658;0.0684832185507;1;True;5;2;163.39438199995078
306;306;1449484720;2.12994766235;0.7984021306039999;0.06841313838959999;1;True;5;2;163.39438199995078
307;307;1449484720;2.13009405136;0.7985770106319999;0.0682937130332;1;True;5;2;163.39438199995078
308;308;1449484720;2.1298620700799997;0.798176825047;0.0683918744326;1;True;5;2;163.39438199995078
309;309;1449484720;2.12991571426;0.798278748989;0.0684142485261;1;True;5;2;163.39438199995078
310;310;1449484720;2.1299083232900005;0.7982703447339999;0.0684304088354;1;True;5;2;163.39438199995078
311;311;1449484720;2.12993311882;0.7982811331749999;0.06841312348840001;1;True;5;2;163.39438199995078
312;312;1449484720;2.12992668152;0.7984280586239999;0.0684753134847;1;True;5;2;163.39438199995078
313;313;1449484720;2.12997937202;0.7984220385549999;0.06837166100740001;1;True;5;2;163.39438199995078
314;314;1449484720;2.1299986839300002;0.798377275467;0.0683149844408;1;True;5;2;163.39438199995078
315;315;1449484720;2.12986397743;0.7984729409219999;0.06847942620519999;1;True;5;2;163.39438199995078
316;316;1449484720;2.12999558449;0.798462808132;0.0683818906546;1;True;5;2;163.39438199995078
317;317;1449484720;2.12991905212;0.7982640266419999;0.0684210062027;1;True;5;2;163.39438199995078
318;318;1449484720;2.12996077538;0.798454582691;0.0684325098991;1;True;5;2;163.39438199995078
319;319;1449484720;2.12990617752;0.798427820206;0.0684603303671;1;True;5;2;163.39438199995078
320;320;1449484720;2.1299352645900003;0.7985217571259999;0.0684709399939;1;True;5;2;163.39438199995078
321;321;1449484720;2.12980413437;0.798292815685;0.0684981495142;1;True;5;2;163.39438199995078
322;322;1449484720;2.1298801899;0.798535525799;0.068475343287;1;True;5;2;163.39438199995078
323;323;1449484720;2.12997245789;0.798400402069;0.0683563053608;1;True;5;2;163.39438199995078
324;324;1449484720;2.12987852097;0.7984448671340001;0.0684844702482;1;True;5;2;163.39438199995078
325;325;1449484720;2.1299507618;0.798314154148;0.068363673985;1;True;5;2;163.39438199995078
326;326;1449484720;2.1299719810499997;0.798449873924;0.0684194415808;1;True;5;2;163.39438199995078
327;327;1449484720;2.12987160683;0.798486113548;0.06849937886;1;True;5;2;163.39438199995078
328;328;1449484720;2.1299867630000002;0.798499524593;0.0684106126428;1;True;5;2;163.39438199995078
329;329;1449484720;2.12992882729;0.7984945178030001;0.0684826374054;1;True;5;2;163.39438199995078
330;330;1449484720;2.12989354134;0.798269689083;0.0685044825077;1;True;5;2;163.39438199995078
331;331;1449484720;2.1299109458900003;0.798399448395;0.06846926361320001;1;True;5;2;163.39438199995078
332;332;1449484720;2.12984347343;0.7983415126800001;0.0685034990311;1;True;5;2;163.39438199995078
333;333;1449484720;2.1299674511;0.798416435719;0.06838619709009999;1;True;5;2;163.39438199995078
334;334;1449484720;2.12984085083;0.798334658146;0.0684965774417;1;True;5;2;163.39438199995078
335;335;1449484720;2.12985444069;0.798418045044;0.0684808716178;1;True;5;2;163.39438199995078
336;336;1449484720;2.12990450859;0.7985808849330001;0.0684657618403;1;True;5;2;163.39438199995078
337;337;1449484720;2.12984704971;0.7984298467640001;0.06847730278969999;1;True;5;2;163.39438199995078
338;338;1449484720;2.12994384766;0.798423528671;0.0684084892273;1;True;5;2;163.39438199995078
339;339;1449484720;2.12994360924;0.798322200775;0.06837166100740001;1;True;5;2;163.39438199995078
340;340;1449484720;2.12994241714;0.798294961452;0.06835494190449999;1;True;5;2;163.39438199995078
341;341;1449484720;2.12987422943;0.798344612122;0.0684388652444;1;True;5;2;163.39438199995078
342;342;1449484720;2.12991070747;0.798460960388;0.0684573575854;1;True;5;2;163.39438199995078
343;343;1449484720;2.12996101379;0.798254609108;0.0683212205768;1;True;5;2;163.39438199995078
344;344;1449484720;2.1299302578;0.79839605093;0.06842826306819999;1;True;5;2;163.39438199995078
345;345;1449484720;2.12996006012;0.7983089089390001;0.0683244541287;1;True;5;2;163.39438199995078
346;346;1449484720;2.12988352776;0.798187434673;0.0683548301458;1;True;5;2;163.39438199995078
347;347;1449484720;2.1298139095299997;0.798453330994;0.06843435764309999;1;True;5;2;163.39438199995078
348;348;1449484720;2.13000321388;0.798475444317;0.0683247670531;1;True;5;2;163.39438199995078
349;349;1449484720;2.12981677055;0.798303723335;0.0685071721673;1;True;5;2;163.39438199995078
350;350;1449484720;2.1299455165900003;0.798399507999;0.068392790854;1;True;5;2;163.39438199995078
351;351;1449484720;2.1298341751099996;0.798314511776;0.0683987960219;1;True;5;2;163.39438199995078
352;352;1449484720;2.12983894348;0.7984311580660001;0.0684625953436;1;True;5;2;163.39438199995078
353;353;1449484720;2.1298863887799997;0.798224687576;0.068371988833;1;True;5;2;163.39438199995078
354;354;1449484720;2.12996411324;0.7982321381569999;0.06828507781030001;1;True;5;2;163.39438199995078
355;355;1449484720;2.12989854813;0.79838091135;0.068408049643;1;True;5;2;163.39438199995078
356;356;1449484720;2.12997841835;0.798389673233;0.0683640688658;1;True;5;2;163.39438199995078
357;357;1449484720;2.12997245789;0.798349261284;0.06836608797310001;1;True;5;2;163.39438199995078
358;358;1449484720;2.12992668152;0.798429608345;0.06843286007640001;1;True;5;2;163.39438199995078
359;359;1449484720;2.12990474701;0.7982594370839999;0.0683895125985;1;True;5;2;163.39438199995078
360;360;1449484720;2.12988853455;0.798412919044;0.0684463307261;1;True;5;2;163.39438199995078
361;361;1449484720;2.1298575401299997;0.798348128796;0.06844355911019999;1;True;5;2;163.39438199995078
362;362;1449484720;2.12990188599;0.7983859181399999;0.0684020221233;1;True;5;2;163.39438199995078
363;363;1449484720;2.12973475456;0.798137128353;0.06841647624969999;1;True;5;2;163.39438199995078
364;364;1449484720;2.12983226776;0.798347055912;0.0684458911419;1;True;5;2;163.39438199995078
365;365;1449484720;2.1298925876599997;0.7983117699619999;0.068388491869;1;True;5;2;163.39438199995078
366;366;1449484720;2.12989497185;0.7982122302060001;0.06838311254980001;1;True;5;2;163.39438199995078
367;367;1449484720;2.12988615036;0.798405170441;0.06839817017319999;1;True;5;2;163.39438199995078
368;368;1449484720;2.1298599243200003;0.798186957836;0.0684308558702;1;True;5;2;163.39438199995078
369;369;1449484720;2.13000321388;0.798436701298;0.0683085173368;1;True;5;2;163.39438199995078
370;370;1449484720;2.12988591194;0.798317193985;0.0684156343341;1;True;5;2;163.39438199995078
371;371;1449484720;2.12988734245;0.798315823078;0.06839817017319999;1;True;5;2;163.39438199995078
372;372;1449484720;2.1298866272;0.798226356506;0.0683657974005;1;True;5;2;163.39438199995078
373;373;1449484720;2.1298148632;0.798365473747;0.0684993043542;1;True;5;2;163.39438199995078
374;374;1449484720;2.12991285324;0.798342347145;0.0683705657721;1;True;5;2;163.39438199995078
375;375;1449484720;2.12990736961;0.798415780067;0.0684448331594;1;True;5;2;163.39438199995078
376;376;1449484720;2.1298968792;0.798234701157;0.0683624371886;1;True;5;2;163.39438199995078
377;377;1449484720;2.12993121147;0.798307955265;0.06832484900949999;1;True;5;2;163.39438199995078
378;378;1449484720;2.12996029854;0.798350274563;0.0683029592037;1;True;5;2;163.39438199995078
379;379;1449484720;2.12992095947;0.798274278641;0.06830342113969999;1;True;5;2;163.39438199995078
380;380;1449484720;2.12986087799;0.798408806324;0.0684266537428;1;True;5;2;163.39438199995078
381;381;1449484720;2.1298925876599997;0.798280417919;0.0684270113707;1;True;5;2;163.39438199995078
382;382;1449484720;2.12985372543;0.798474729061;0.0684178322554;1;True;5;2;163.39438199995078
383;383;1449484720;2.12984037399;0.798388957977;0.0684371516109;1;True;5;2;163.39438199995078
384;384;1449484720;2.12993407249;0.798387289047;0.0683800727129;1;True;5;2;163.39438199995078
385;385;1449484720;2.13000845909;0.7984646558759999;0.06826636195180001;1;True;5;2;163.39438199995078
386;386;1449484720;2.12983345985;0.798435032368;0.0684371218085;1;True;5;2;163.39438199995078
387;387;1449484720;2.12995433807;0.798316121101;0.068289346993;1;True;5;2;163.39438199995078
388;388;1449484720;2.12997460365;0.798420011997;0.0682949349284;1;True;5;2;163.39438199995078
389;389;1449484720;2.12996721268;0.798466622829;0.068374209106;1;True;5;2;163.39438199995078
390;390;1449484720;2.12995696068;0.7982391119;0.0682926177979;1;True;5;2;163.39438199995078
391;391;1449484720;2.12990546227;0.798433721066;0.0684432089329;1;True;5;2;163.39438199995078
392;392;1449484720;2.12982749939;0.798314809799;0.068428888917;1;True;5;2;163.39438199995078
393;393;1449484721;2.1299519538900005;0.798407316208;0.0683884471655;2;True;5;2;163.39438199995078
394;394;1449484721;2.12983989716;0.7983409762379999;0.0684582069516;2;True;5;2;163.39438199995078
395;395;1449484721;2.13000965118;0.798488080502;0.06828166544440001;2;True;5;2;163.39438199995078
396;396;1449484721;2.12993764877;0.7984013557430001;0.0684157535434;2;True;5;2;163.39438199995078
397;397;1449484721;2.12989592552;0.798517286777;0.0684500038624;2;True;5;2;163.39438199995078
398;398;1449484721;2.12985062599;0.7984082102779999;0.0684728100896;2;True;5;2;163.39438199995078
399;399;1449484721;2.12987589836;0.798436284065;0.06849253177640001;2;True;5;2;163.39438199995078
400;400;1449484721;2.12986159325;0.7984547019;0.0684567466378;2;True;5;2;163.39438199995078
401;401;1449484721;2.1300070285799997;0.798494338989;0.0683112740517;2;True;5;2;163.39438199995078
402;402;1449484721;2.12994813919;0.798407912254;0.0684109851718;2;True;5;2;163.39438199995078
403;403;1449484721;2.12999844551;0.7984495759010001;0.0682974606752;2;True;5;2;163.39438199995078
404;404;1449484721;2.1299397945400003;0.798377156258;0.06841494888069999;2;True;5;2;163.39438199995078
405;405;1449484721;2.1298570632900002;0.798397600651;0.0684631615877;2;True;5;2;163.39438199995078
406;406;1449484721;2.12989091873;0.7984923720360001;0.0684605315328;2;True;5;2;163.39438199995078
407;407;1449484721;2.12984371185;0.798495531082;0.0684716999531;2;True;5;2;163.39438199995078
408;408;1449484721;2.12986159325;0.798365116119;0.0684711039066;2;True;5;2;163.39438199995078
409;409;1449484721;2.12991023064;0.7984187603;0.06844293326140001;2;True;5;2;163.39438199995078
410;410;1449484721;2.1298789978;0.7983245849609999;0.06846512109040001;2;True;5;2;163.39438199995078
411;411;1449484721;2.12985038757;0.798335134983;0.06850454211240001;2;True;5;2;163.39438199995078
412;412;1449484721;2.1298866272;0.798370957375;0.0684979259968;2;True;5;2;163.39438199995078
413;413;1449484721;2.12992167473;0.798452913761;0.0684426128864;2;True;5;2;163.39438199995078
414;414;1449484721;2.12983202934;0.798220396042;0.0685562640429;2;True;5;2;163.39438199995078
415;415;1449484721;2.1298661232;0.79850512743;0.0684735551476;2;True;5;2;163.39438199995078
416;416;1449484721;2.12991333008;0.798337936401;0.0684379562736;2;True;5;2;163.39438199995078
417;417;1449484721;2.12982463837;0.798338413239;0.0684598535299;2;True;5;2;163.39438199995078
418;418;1449484721;2.1298971176099997;0.7983512878419999;0.0684667751193;2;True;5;2;163.39438199995078
419;419;1449484721;2.12998819351;0.798370540142;0.0683485791087;2;True;5;2;163.39438199995078
420;420;1449484721;2.12995958328;0.798491835594;0.06847961992030001;2;True;5;2;163.39438199995078
421;421;1449484721;2.1300041675599997;0.798369169235;0.0683379396796;2;True;5;2;163.39438199995078
422;422;1449484721;2.1298694610599997;0.798334538937;0.0684389546514;2;True;5;2;163.39438199995078
423;423;1449484721;2.12998580933;0.798444390297;0.0683935657144;2;True;5;2;163.39438199995078
424;424;1449484721;2.12993574142;0.7982990741730001;0.06843281537290001;2;True;5;2;163.39438199995078
425;425;1449484721;2.12995839119;0.7984150052069999;0.06841160357;2;True;5;2;163.39438199995078
426;426;1449484721;2.12981128693;0.798254072666;0.0685010328889;2;True;5;2;163.39438199995078
427;427;1449484721;2.1298699379;0.798390090466;0.068486481905;2;True;5;2;163.39438199995078
428;428;1449484721;2.12995767593;0.798396945;0.0683634877205;2;True;5;2;163.39438199995078
429;429;1449484721;2.1299650669099996;0.798528969288;0.068408831954;2;True;5;2;163.39438199995078
430;430;1449484721;2.13004994392;0.7986720800399999;0.06833908706899999;2;True;5;2;163.39438199995078
431;431;1449484721;2.12987947464;0.798407971859;0.06848520785569999;2;True;5;2;163.39438199995078
432;432;1449484721;2.1300168037400002;0.79855120182;0.0683998987079;2;True;5;2;163.39438199995078
433;433;1449484721;2.1298258304599997;0.798330962658;0.06851870566610001;2;True;5;2;163.39438199995078
434;434;1449484721;2.1299359798400004;0.798382341862;0.0684341192245;2;True;5;2;163.39438199995078
435;435;1449484721;2.12996149063;0.798576712608;0.0684351548553;2;True;5;2;163.39438199995078
436;436;1449484721;2.12999153137;0.798493742943;0.0683623403311;2;True;5;2;163.39438199995078
437;437;1449484721;2.12985157967;0.798396348953;0.0684805288911;2;True;5;2;163.39438199995078
438;438;1449484721;2.12996220589;0.798373937607;0.06839418411249999;2;True;5;2;163.39438199995078
439;439;1449484721;2.12993502617;0.798517286777;0.0684692189097;2;True;5;2;163.39438199995078
440;440;1449484721;2.12989425659;0.7982560396189999;0.0684199556708;2;True;5;2;163.39438199995078
441;441;1449484721;2.1299471855200003;0.7983103394509999;0.0683713033795;2;True;5;2;163.39438199995078
442;442;1449484721;2.12991189957;0.798279702663;0.068400464952;2;True;5;2;163.39438199995078
443;443;1449484721;2.1299884319299998;0.7983837127689999;0.0683169066906;2;True;5;2;163.39438199995078
444;444;1449484721;2.12999248505;0.798387408257;0.068304926157;2;True;5;2;163.39438199995078
445;445;1449484721;2.13000965118;0.798432290554;0.06829863041640001;2;True;5;2;163.39438199995078
446;446;1449484721;2.12987661362;0.798431515694;0.0684743374586;2;True;5;2;163.39438199995078
447;447;1449484721;2.13001346588;0.79849165678;0.0683133900166;2;True;5;2;163.39438199995078
448;448;1449484721;2.12988090515;0.7985496521;0.0684525370598;2;True;5;2;163.39438199995078
449;449;1449484721;2.12988257408;0.7982675433159999;0.0683853849769;2;True;5;2;163.39438199995078
450;450;1449484721;2.1298763752000003;0.798423528671;0.0684648752213;2;True;5;2;163.39438199995078
451;451;1449484721;2.12993836403;0.798413157463;0.0684060379863;2;True;5;2;163.39438199995078
452;452;1449484721;2.12993335724;0.7982846498489999;0.06832087785009999;2;True;5;2;163.39438199995078
453;453;1449484721;2.12989592552;0.798282504082;0.0683852955699;2;True;5;2;163.39438199995078
454;454;1449484721;2.1298763752000003;0.798393785954;0.0684045255184;2;True;5;2;163.39438199995078
455;455;1449484721;2.12991809845;0.798376202583;0.0684091076255;2;True;5;2;163.39438199995078
456;456;1449484721;2.12990951538;0.798356235027;0.0684215649962;2;True;5;2;163.39438199995078
457;457;1449484721;2.12986016273;0.798625349998;0.068497389555;2;True;5;2;163.39438199995078
458;458;1449484721;2.1298136711099995;0.798505783081;0.0687125474215;2;True;5;2;163.39438199995078
459;459;1449484721;2.12990617752;0.7983523011210001;0.0684146210551;2;True;5;2;163.39438199995078
460;460;1449484721;2.12994241714;0.798564732075;0.0684476420283;2;True;5;2;163.39438199995078
461;461;1449484721;2.12989377975;0.798239290714;0.0683577731252;2;True;5;2;163.39438199995078
462;462;1449484721;2.12982106209;0.7983298897740001;0.0684689953923;2;True;5;2;163.39438199995078
463;463;1449484721;2.12985134125;0.798397362232;0.06845294684169999;2;True;5;2;163.39438199995078
464;464;1449484721;2.1299169063599996;0.798432469368;0.0684354603291;2;True;5;2;163.39438199995078
465;465;1449484721;2.1298255920400004;0.798332810402;0.0684722959995;2;True;5;2;163.39438199995078
466;466;1449484721;2.12995648384;0.798358201981;0.0683222338557;2;True;5;2;163.39438199995078
467;467;1449484721;2.12993907928;0.798406779766;0.0683922022581;2;True;5;2;163.39438199995078
468;468;1449484721;2.1298818588299997;0.7983692884450001;0.06839020550250001;2;True;5;2;163.39438199995078
469;469;1449484721;2.1299006938900003;0.798542618752;0.0684424266219;2;True;5;2;163.39438199995078
470;470;1449484721;2.12982797623;0.798391282558;0.06843957304949999;2;True;5;2;163.39438199995078
471;471;1449484721;2.1299254894299997;0.7983830571170001;0.0684098005295;2;True;5;2;163.39438199995078
472;472;1449484721;2.12979340553;0.7983507514;0.0684615373611;2;True;5;2;163.39438199995078
473;473;1449484721;2.12988257408;0.79822909832;0.0683699995279;2;True;5;2;163.39438199995078
474;474;1449484721;2.12986516953;0.798341274261;0.0684370175004;2;True;5;2;163.39438199995078
475;475;1449484721;2.1299545764900003;0.798353552818;0.0683049783111;2;True;5;2;163.39438199995078
476;476;1449484721;2.1298303604099997;0.798504531384;0.0683637335896;2;True;5;2;163.39438199995078
477;477;1449484721;2.12986397743;0.798452079296;0.0684363916516;2;True;5;2;163.39438199995078
478;478;1449484721;2.1299009323099996;0.798533797264;0.0684266984463;2;True;5;2;163.39438199995078
479;479;1449484721;2.1299028396599997;0.798271119595;0.06835459917780001;2;True;5;2;163.39438199995078
480;480;1449484721;2.12983942032;0.798430681229;0.06847096979619999;2;True;5;2;163.39438199995078
481;481;1449484721;2.1300187110900004;0.798493742943;0.0682713314891;2;True;5;2;163.39438199995078
482;482;1449484721;2.12985134125;0.7983558773989999;0.0684565529227;2;True;5;2;163.39438199995078
483;483;1449484721;2.12988209724;0.798278808594;0.06847243011;2;True;5;2;163.39438199995078
484;484;1449484721;2.1300280094099997;0.798479914665;0.0682860165834;2;True;5;2;163.39438199995078
485;485;1449484721;2.13000512123;0.7984578013420001;0.0682783946395;2;True;5;2;163.39438199995078
486;486;1449484721;2.12985610962;0.798371374607;0.06844714283940001;2;True;5;2;163.39438199995078
487;487;1449484721;2.13002681732;0.798481941223;0.0682726055384;2;True;5;2;163.39438199995078
488;488;1449484721;2.1299605369599997;0.79841786623;0.0683676376939;2;True;5;2;163.39438199995078
489;489;1449484721;2.12984633446;0.798376560211;0.0683994218707;2;True;5;2;163.39438199995078
490;490;1449484721;2.1298196315799998;0.798149824142;0.06838668882849999;2;True;5;2;163.39438199995078
491;491;1449484721;2.13005614281;0.798651516438;0.0682748705149;2;True;5;2;163.39438199995078
492;492;1449484721;2.1298961639400003;0.7982101440430001;0.0683859810233;2;True;5;2;163.39438199995078
493;493;1449484721;2.1299006938900003;0.798449218273;0.0684340596199;2;True;5;2;163.39438199995078
494;494;1449484721;2.12983632088;0.7981230616570001;0.0683552473783;2;True;5;2;163.39438199995078
495;495;1449484721;2.12982177734;0.798371553421;0.0684608891606;2;True;5;2;163.39438199995078
496;496;1449484721;2.1299028396599997;0.798362910748;0.0684696286917;2;True;5;2;163.39438199995078
497;497;1449484721;2.1298635006;0.798403024673;0.0684194266796;2;True;5;2;163.39438199995078
498;498;1449484721;2.12996387482;0.798533022404;0.0683997198939;2;True;5;2;163.39438199995078
499;499;1449484721;2.12986779213;0.79850846529;0.0684574469924;2;True;5;2;163.39438199995078
500;500;1449484721;2.1298627853400003;0.7984508872030001;0.068450294435;2;True;5;2;163.39438199995078
501;501;1449484721;2.12985444069;0.7983967065809999;0.0684692338109;2;True;5;2;163.39438199995078
502;502;1449484721;2.12988090515;0.7981967926029999;0.0683962628245;2;True;5;2;163.39438199995078
503;503;1449484721;2.12995100021;0.798471927643;0.06837785243990001;2;True;5;2;163.39438199995078
504;504;1449484721;2.13003349304;0.7985702157019999;0.0682844519615;2;True;5;2;163.39438199995078
505;505;1449484721;2.12989854813;0.7982967495919999;0.06842921674250001;2;True;5;2;163.39438199995078
506;506;1449484721;2.13003635406;0.798553824425;0.06830346584319999;2;True;5;2;163.39438199995078
507;507;1449484721;2.12997341156;0.798479616642;0.0683846846223;2;True;5;2;163.39438199995078
508;508;1449484721;2.12990736961;0.7984659671780001;0.0685134679079;2;True;5;2;163.39438199995078
509;509;1449484721;2.1298353672;0.798291027546;0.0684787407517;2;True;5;2;163.39438199995078
510;510;1449484721;2.12995791435;0.7984134554860001;0.0684065967798;2;True;5;2;163.39438199995078
511;511;1449484721;2.12989759445;0.798307597637;0.0685053244233;2;True;5;2;163.39438199995078
512;512;1449484721;2.12996459007;0.7984059453010001;0.06837045401330001;2;True;5;2;163.39438199995078
513;513;1449484721;2.13002896309;0.798469603062;0.06829401850700001;2;True;5;2;163.39438199995078
514;514;1449484721;2.12990140915;0.7982141375540001;0.068414144218;2;True;5;2;163.39438199995078
515;515;1449484721;2.12992668152;0.79848754406;0.0684974566102;2;True;5;2;163.39438199995078
516;516;1449484721;2.1297924518599998;0.7982972860340001;0.0684571042657;2;True;5;2;163.39438199995078
517;517;1449484721;2.13000106812;0.7984523773190001;0.0683448389173;2;True;5;2;163.39438199995078
518;518;1449484721;2.12997484207;0.7983476519580001;0.0683357641101;2;True;5;2;163.39438199995078
519;519;1449484721;2.1300141811400004;0.798477232456;0.0683326274157;2;True;5;2;163.39438199995078
520;520;1449484721;2.13000369072;0.798418819904;0.06834964454169999;2;True;5;2;163.39438199995078
521;521;1449484721;2.12990307808;0.7982442379000001;0.0683907642961;2;True;5;2;163.39438199995078
522;522;1449484721;2.12987947464;0.7983046770100001;0.06848564744;2;True;5;2;163.39438199995078
523;523;1449484721;2.12967801094;0.7981142401700001;0.0685482621193;2;True;5;2;163.39438199995078
524;524;1449484721;2.12985825539;0.79833573103;0.068486019969;2;True;5;2;163.39438199995078
525;525;1449484721;2.1300034523;0.798472106457;0.0683384239674;2;True;5;2;163.39438199995078
526;526;1449484721;2.12987995148;0.7983949184420001;0.0684635192156;2;True;5;2;163.39438199995078
527;527;1449484721;2.12991476059;0.798228502274;0.0683786943555;2;True;5;2;163.39438199995078
528;528;1449484721;2.1300365924799998;0.798617124557;0.0682918131351;2;True;5;2;163.39438199995078
529;529;1449484721;2.12991380692;0.7984171509739999;0.068427786231;2;True;5;2;163.39438199995078
530;530;1449484721;2.1299686431900002;0.7985776066779999;0.0684610083699;2;True;5;2;163.39438199995078
531;531;1449484721;2.13001132011;0.7984556555750001;0.068330436945;2;True;5;2;163.39438199995078
532;532;1449484721;2.12991499901;0.798403203487;0.0684195756912;2;True;5;2;163.39438199995078
533;533;1449484721;2.1299064159400003;0.7984488606450001;0.06845568865540001;2;True;5;2;163.39438199995078
534;534;1449484721;2.12994217873;0.7984134554860001;0.068391494453;2;True;5;2;163.39438199995078
535;535;1449484721;2.1298365593;0.7983230352399999;0.0684325620532;2;True;5;2;163.39438199995078
536;536;1449484721;2.1298685073900003;0.7983599305149999;0.0685256570578;2;True;5;2;163.39438199995078
537;537;1449484721;2.12984824181;0.798435330391;0.06845601648090001;2;True;5;2;163.39438199995078
538;538;1449484721;2.12993550301;0.798386871815;0.0683219283819;2;True;5;2;163.39438199995078
539;539;1449484721;2.12982463837;0.798482239246;0.0685378611088;2;True;5;2;163.39438199995078
540;540;1449484721;2.12987565994;0.7984627485279999;0.0684330165386;2;True;5;2;163.39438199995078
541;541;1449484721;2.1299486160299996;0.79830789566;0.06832496076820001;2;True;5;2;163.39438199995078
542;542;1449484721;2.12996292114;0.7983843088150001;0.0683271661401;2;True;5;2;163.39438199995078
543;543;1449484721;2.12984442711;0.798383355141;0.06848804652689999;2;True;5;2;163.39438199995078
544;544;1449484721;2.12988853455;0.798346340656;0.06844273954630001;2;True;5;2;163.39438199995078
545;545;1449484721;2.12990760803;0.7984448671340001;0.0684413611889;2;True;5;2;163.39438199995078
546;546;1449484721;2.13007450104;0.798588752747;0.0682883933187;2;True;5;2;163.39438199995078
547;547;1449484721;2.1298863887799997;0.798484742641;0.0684806779027;2;True;5;2;163.39438199995078
548;548;1449484721;2.12999606133;0.798509776592;0.0683397054672;2;True;5;2;163.39438199995078
549;549;1449484721;2.12998533249;0.7984560728069999;0.06834988296029999;2;True;5;2;163.39438199995078
550;550;1449484721;2.1298496723199998;0.798430085182;0.0684668794274;2;True;5;2;163.39438199995078
551;551;1449484721;2.12981414795;0.7981292605399999;0.0683785825968;2;True;5;2;163.39438199995078
552;552;1449484721;2.12982654572;0.798358976841;0.06843560189009999;2;True;5;2;163.39438199995078
553;553;1449484721;2.12989521027;0.79842466116;0.06845313310619999;2;True;5;2;163.39438199995078
554;554;1449484721;2.12979388237;0.798421084881;0.0684841275215;2;True;5;2;163.39438199995078
555;555;1449484721;2.12987947464;0.798426866531;0.068456158042;2;True;5;2;163.39438199995078
556;556;1449484721;2.12986803055;0.798410475254;0.0684382542968;2;True;5;2;163.39438199995078
557;557;1449484721;2.12993836403;0.798434495926;0.0683900862932;2;True;5;2;163.39438199995078
558;558;1449484721;2.12988591194;0.798382759094;0.0684652402997;2;True;5;2;163.39438199995078
559;559;1449484721;2.1298296451599996;0.798178613186;0.0683782622218;2;True;5;2;163.39438199995078
560;560;1449484721;2.12996387482;0.7984143495559999;0.06838170438999999;2;True;5;2;163.39438199995078
561;561;1449484721;2.12995553017;0.798341095448;0.06836624443530001;2;True;5;2;163.39438199995078
562;562;1449484721;2.12984776497;0.7985202074050001;0.0684536844492;2;True;5;2;163.39438199995078
563;563;1449484721;2.12984728813;0.798531591892;0.0684689208865;2;True;5;2;163.39438199995078
564;564;1449484721;2.12994623184;0.798371076584;0.06839213520290001;2;True;5;2;163.39438199995078
565;565;1449484721;2.12997364998;0.7983806133269999;0.0683147832751;2;True;5;2;163.39438199995078
566;566;1449484721;2.1298289299;0.798322618008;0.0684737414122;2;True;5;2;163.39438199995078
567;567;1449484721;2.12998485565;0.798579931259;0.0683885216713;2;True;5;2;163.39438199995078
568;568;1449484721;2.12998056412;0.7983693480490001;0.0683056935668;2;True;5;2;163.39438199995078
569;569;1449484721;2.12990379333;0.7983727455140001;0.0684432685375;2;True;5;2;163.39438199995078
570;570;1449484721;2.12986588478;0.798371195793;0.068451307714;2;True;5;2;163.39438199995078
571;571;1449484721;2.12995553017;0.798575103283;0.0683995485306;2;True;5;2;163.39438199995078
572;572;1449484721;2.1296877861000003;0.7983511090279999;0.0685514658689;2;True;5;2;163.39438199995078
573;573;1449484721;2.12981891632;0.7983259558679999;0.0684643834829;2;True;5;2;163.39438199995078
574;574;1449484721;2.12986755371;0.798405170441;0.0684095472097;2;True;5;2;163.39438199995078
575;575;1449484721;2.1300675869;0.798596084118;0.0682634189725;2;True;5;2;163.39438199995078
576;576;1449484721;2.12983226776;0.7984702587129999;0.06843299418689999;2;True;5;2;163.39438199995078
577;577;1449484721;2.12993884087;0.798375844955;0.0683319047093;2;True;5;2;163.39438199995078
578;578;1449484721;2.12985801697;0.7984518408779999;0.0683984085917;2;True;5;2;163.39438199995078
579;579;1449484721;2.12986707687;0.7985034584999999;0.0684438273311;2;True;5;2;163.39438199995078
580;580;1449484721;2.12986540794;0.798272550106;0.0684224069118;2;True;5;2;163.39438199995078
581;581;1449484721;2.1299493312799997;0.798531889915;0.0683816149831;2;True;5;2;163.39438199995078
582;582;1449484721;2.12993502617;0.7983918190000001;0.068367190659;2;True;5;2;163.39438199995078
583;583;1449484721;2.1298496723199998;0.798394858837;0.0684451162815;2;True;5;2;163.39438199995078
584;584;1449484721;2.12993431091;0.798508346081;0.06843191385269999;2;True;5;2;163.39438199995078
585;585;1449484721;2.12995648384;0.7983725667;0.068342871964;2;True;5;2;163.39438199995078
586;586;1449484721;2.12989377975;0.798405110836;0.06840530037880001;2;True;5;2;163.39438199995078
587;587;1449484721;2.12996673584;0.7983735799789999;0.0683042630553;2;True;5;2;163.39438199995078
588;588;1449484721;2.12983560562;0.7981474995610001;0.0683660060167;2;True;5;2;163.39438199995078
589;589;1449484721;2.12983679771;0.798379480839;0.0684401914477;2;True;5;2;163.39438199995078
590;590;1449484721;2.12996220589;0.798309028149;0.06830880045889999;2;True;5;2;163.39438199995078
591;591;1449484721;2.12982606888;0.798415362835;0.068533860147;2;True;5;2;163.39438199995078
592;592;1449484721;2.12982845306;0.7983306050300001;0.06845761835580001;2;True;5;2;163.39438199995078
593;593;1449484721;2.1298584938;0.7984556555750001;0.0684685260057;2;True;5;2;163.39438199995078
594;594;1449484721;2.12988162041;0.798399627209;0.06843923777340001;2;True;5;2;163.39438199995078
595;595;1449484721;2.1298427581799997;0.798316061497;0.0684595406055;2;True;5;2;163.39438199995078
596;596;1449484721;2.12995409966;0.7983558773989999;0.06829940527680001;2;True;5;2;163.39438199995078
597;597;1449484721;2.13003635406;0.798632800579;0.06828644871709999;2;True;5;2;163.39438199995078
598;598;1449484721;2.12991404533;0.79844647646;0.06848775595430001;2;True;5;2;163.39438199995078
599;599;1449484721;2.12984681129;0.7983612418170001;0.068432725966;2;True;5;2;163.39438199995078
600;600;1449484721;2.12982678413;0.7982822656630001;0.06845974922180001;2;True;5;2;163.39438199995078
601;601;1449484721;2.12990665436;0.7982571721080001;0.0683848932385;2;True;5;2;163.39438199995078
602;602;1449484721;2.12994909286;0.798384189606;0.06838981062169999;2;True;5;2;163.39438199995078
603;603;1449484721;2.12999534607;0.798457205296;0.0683337152004;2;True;5;2;163.39438199995078
604;604;1449484721;2.1298689842200003;0.798456251621;0.06843788176769999;2;True;5;2;163.39438199995078
605;605;1449484721;2.13003396988;0.798596799374;0.0683106929064;2;True;5;2;163.39438199995078
606;606;1449484721;2.12987709045;0.798276424408;0.06842589378359999;2;True;5;2;163.39438199995078
607;607;1449484721;2.12984204292;0.7982944846150001;0.0684526711702;2;True;5;2;163.39438199995078
608;608;1449484721;2.12990999222;0.798387348652;0.06840237975119999;2;True;5;2;163.39438199995078
609;609;1449484721;2.1298456191999997;0.798354923725;0.0684440806508;2;True;5;2;163.39438199995078
610;610;1449484721;2.12982177734;0.7982287406919999;0.0684536844492;2;True;5;2;163.39438199995078
611;611;1449484721;2.13003373146;0.798552274704;0.0683080106974;2;True;5;2;163.39438199995078
