;Unnamed: 0;header_stamp_secs;pose_position_x;pose_position_y;pose_position_z;seconds;drop_values;flight_number;label;dtw
0;0;1445945786;2.14577054977;0.7403634786609999;0.0342467948794;0;True;52;1;29.665274441239028
1;1;1445945786;2.1457772254900003;0.740400075912;0.0342531874776;0;True;52;1;29.665274441239028
2;2;1445945786;2.1457414627099998;0.7403442859649999;0.0342759303749;0;True;52;1;29.665274441239028
3;3;1445945786;2.14573478699;0.74024450779;0.0342810414732;0;True;52;1;29.665274441239028
4;4;1445945786;2.14573192596;0.7403815984729999;0.0343206636608;0;True;52;1;29.665274441239028
5;5;1445945786;2.14576053619;0.740279197693;0.0342760793865;0;True;52;1;29.665274441239028
6;6;1445945786;2.14574790001;0.740347266197;0.034282065928000004;0;True;52;1;29.665274441239028
7;7;1445945786;2.14575958252;0.7403190135959999;0.0342582799494;0;True;52;1;29.665274441239028
8;8;1445945786;2.14569020271;0.740328073502;0.0343268737197;0;True;52;1;29.665274441239028
9;9;1445945786;2.14577674866;0.740323483944;0.0342630855739;0;True;52;1;29.665274441239028
10;10;1445945786;2.1457178592700004;0.7402353286740001;0.0343072079122;0;True;52;1;29.665274441239028
11;11;1445945786;2.14577460289;0.7403224110600001;0.034255467355299996;0;True;52;1;29.665274441239028
12;12;1445945786;2.14577150345;0.7403981089589999;0.034260045737;0;True;52;1;29.665274441239028
13;13;1445945786;2.1457631588;0.740394949913;0.034277439117400006;0;True;52;1;29.665274441239028
14;14;1445945786;2.14553451538;0.740251481533;0.034453235566599995;0;True;52;1;29.665274441239028
15;15;1445945786;2.14576649666;0.7403360009190001;0.0342618525028;0;True;52;1;29.665274441239028
16;16;1445945786;2.14576792717;0.740350067616;0.0342614613473;0;True;52;1;29.665274441239028
17;17;1445945786;2.1457777023299998;0.740355491638;0.0342546030879;0;True;52;1;29.665274441239028
18;18;1445945786;2.14576268196;0.740424752235;0.034267719835;0;True;52;1;29.665274441239028
19;19;1445945786;2.14576506615;0.740402460098;0.0342603847384;0;True;52;1;29.665274441239028
20;20;1445945786;2.1457805633500002;0.7403652668;0.0342472679913;0;True;52;1;29.665274441239028
21;21;1445945786;2.14558744431;0.740173339844;0.034367501735699996;0;True;52;1;29.665274441239028
22;22;1445945786;2.14555454254;0.740202724934;0.0344277061522;0;True;52;1;29.665274441239028
23;23;1445945786;2.14575624466;0.740311086178;0.034274071455;0;True;52;1;29.665274441239028
24;24;1445945786;2.14571738243;0.7402349114419999;0.034277699887799995;0;True;52;1;29.665274441239028
25;25;1445945786;2.14574480057;0.7403820157050001;0.0342927761376;0;True;52;1;29.665274441239028
26;26;1445945786;2.14559388161;0.740148961544;0.0343922264874;0;True;52;1;29.665274441239028
27;27;1445945786;2.14576911926;0.740339517593;0.0342579707503;0;True;52;1;29.665274441239028
28;28;1445945786;2.14578413963;0.7402992844580001;0.034264240413900006;0;True;52;1;29.665274441239028
29;29;1445945786;2.1457893848400005;0.7404012680050001;0.0342559032142;0;True;52;1;29.665274441239028
30;30;1445945786;2.14572119713;0.7401497364040001;0.0342853181064;0;True;52;1;29.665274441239028
31;31;1445945786;2.1457688808400004;0.7402849793430001;0.0342697277665;0;True;52;1;29.665274441239028
32;32;1445945786;2.1457147598299997;0.740280628204;0.034291982650799996;0;True;52;1;29.665274441239028
33;33;1445945786;2.1456694603;0.740256249905;0.0343225039542;0;True;52;1;29.665274441239028
34;34;1445945786;2.14570212364;0.740263402462;0.0343066342175;0;True;52;1;29.665274441239028
35;35;1445945786;2.14575576782;0.7402831315989999;0.034268677234600003;0;True;52;1;29.665274441239028
36;36;1445945786;2.14577579498;0.740337073803;0.034249253571000005;0;True;52;1;29.665274441239028
37;37;1445945786;2.1457772254900003;0.7404128313060001;0.0342506542802;0;True;52;1;29.665274441239028
38;38;1445945786;2.1457965374000003;0.7403896451;0.034254133701299996;0;True;52;1;29.665274441239028
39;39;1445945786;2.14564323425;0.740206241608;0.0343307852745;0;True;52;1;29.665274441239028
40;40;1445945786;2.1457700729400004;0.7404054999349999;0.0342629700899;0;True;52;1;29.665274441239028
41;41;1445945786;2.14579582214;0.74040555954;0.0342389829457;0;True;52;1;29.665274441239028
42;42;1445945786;2.1457974910699997;0.740360796452;0.0342328250408;0;True;52;1;29.665274441239028
43;43;1445945786;2.1457364559200003;0.740221142769;0.0342691428959;0;True;52;1;29.665274441239028
44;44;1445945786;2.14573454857;0.7403246760369999;0.0342704504728;0;True;52;1;29.665274441239028
45;45;1445945786;2.14573144913;0.740175127983;0.0342548675835;0;True;52;1;29.665274441239028
46;46;1445945786;2.14578723907;0.740402579308;0.0342265814543;0;True;52;1;29.665274441239028
47;47;1445945786;2.1457614898700004;0.740304946899;0.0342574715614;0;True;52;1;29.665274441239028
48;48;1445945786;2.14578080177;0.74043738842;0.0342545136809;0;True;52;1;29.665274441239028
49;49;1445945786;2.14567923546;0.74026709795;0.0342839993536;0;True;52;1;29.665274441239028
50;50;1445945786;2.14573311806;0.7402355074879999;0.034252449870099996;0;True;52;1;29.665274441239028
51;51;1445945786;2.14575457573;0.740272283554;0.0342533923686;0;True;52;1;29.665274441239028
52;52;1445945786;2.1457152366599996;0.740361154079;0.0343038700521;0;True;52;1;29.665274441239028
53;53;1445945786;2.14576101303;0.7402394413950001;0.034250080585500005;0;True;52;1;29.665274441239028
54;54;1445945786;2.14573216438;0.740348279476;0.0342626161873;0;True;52;1;29.665274441239028
55;55;1445945786;2.14574432373;0.740252315998;0.03425392881040001;0;True;52;1;29.665274441239028
56;56;1445945786;2.14577436447;0.740366339684;0.0342476442456;0;True;52;1;29.665274441239028
57;57;1445945786;2.14573287964;0.740386486053;0.0342480130494;0;True;52;1;29.665274441239028
58;58;1445945786;2.14573001862;0.740316987038;0.034251358360099994;0;True;52;1;29.665274441239028
59;59;1445945786;2.14572715759;0.740256309509;0.0342488102615;0;True;52;1;29.665274441239028
60;60;1445945786;2.14569234848;0.740357339382;0.0342951864004;0;True;52;1;29.665274441239028
61;61;1445945786;2.14577436447;0.740409731865;0.0342248901725;0;True;52;1;29.665274441239028
62;62;1445945786;2.1456925869;0.740304708481;0.0342787057161;0;True;52;1;29.665274441239028
63;63;1445945786;2.14573168755;0.740307450294;0.0342748984694;0;True;52;1;29.665274441239028
64;64;1445945786;2.14576792717;0.7404026389120001;0.0342406146228;0;True;52;1;29.665274441239028
65;65;1445945786;2.1457457542400005;0.7402449250220001;0.03424686566;0;True;52;1;29.665274441239028
66;66;1445945786;2.1457703113599997;0.74041390419;0.0342362038791;0;True;52;1;29.665274441239028
67;67;1445945786;2.14576387405;0.7403821349140001;0.034230768680599995;0;True;52;1;29.665274441239028
68;68;1445945786;2.14575529099;0.740313112736;0.0342426672578;0;True;52;1;29.665274441239028
69;69;1445945786;2.1457495689400004;0.740321218967;0.034238576889;0;True;52;1;29.665274441239028
70;70;1445945786;2.14577698708;0.740392148495;0.0342235118151;0;True;52;1;29.665274441239028
71;71;1445945786;2.14572143555;0.7402559518809999;0.034267090261;0;True;52;1;29.665274441239028
72;72;1445945786;2.14578533173;0.7403904199600001;0.0342245064676;0;True;52;1;29.665274441239028
73;73;1445945786;2.14573550224;0.7403333187100001;0.034241180866999996;0;True;52;1;29.665274441239028
74;74;1445945786;2.1457614898700004;0.740302205086;0.0342419296503;0;True;52;1;29.665274441239028
75;75;1445945786;2.1457335948900003;0.740396857262;0.034247875213599996;0;True;52;1;29.665274441239028
76;76;1445945786;2.14574050903;0.740332365036;0.0342569984496;0;True;52;1;29.665274441239028
77;77;1445945786;2.1456823349;0.740340411663;0.034300845116400004;0;True;52;1;29.665274441239028
78;78;1445945786;2.1457793712599997;0.740335583687;0.0342376381159;0;True;52;1;29.665274441239028
79;79;1445945786;2.14550662041;0.7401590943340001;0.0344035960734;0;True;52;1;29.665274441239028
80;80;1445945786;2.14577627182;0.7403506040569999;0.0342285037041;0;True;52;1;29.665274441239028
81;81;1445945786;2.14575481415;0.74037873745;0.0342459902167;0;True;52;1;29.665274441239028
82;82;1445945786;2.14571285248;0.7401741147040001;0.034269366413400004;0;True;52;1;29.665274441239028
83;83;1445945786;2.14564323425;0.740261256695;0.0343191176653;0;True;52;1;29.665274441239028
84;84;1445945786;2.14552640915;0.740268707275;0.034402631223199996;0;True;52;1;29.665274441239028
85;85;1445945786;2.14577698708;0.7403222918510001;0.0342444218695;0;True;52;1;29.665274441239028
86;86;1445945786;2.14575004578;0.7403236627580001;0.0342650450766;0;True;52;1;29.665274441239028
87;87;1445945786;2.14570212364;0.7403000593189999;0.034263361245400005;0;True;52;1;29.665274441239028
88;88;1445945786;2.1457798481;0.740403056145;0.0342435874045;0;True;52;1;29.665274441239028
89;89;1445945786;2.1457703113599997;0.7403849363330001;0.0342444218695;0;True;52;1;29.665274441239028
90;90;1445945786;2.1457695961;0.740347862244;0.0342349894345;0;True;52;1;29.665274441239028
91;91;1445945786;2.14576840401;0.740265190601;0.0342462472618;0;True;52;1;29.665274441239028
92;92;1445945786;2.14568924904;0.7402086257930001;0.0342831611633;0;True;52;1;29.665274441239028
93;93;1445945786;2.14574337006;0.740270793438;0.0342715494335;0;True;52;1;29.665274441239028
94;94;1445945786;2.14578533173;0.740389823914;0.034246891737000004;0;True;52;1;29.665274441239028
95;95;1445945786;2.14573764801;0.740341126919;0.0342703312635;0;True;52;1;29.665274441239028
96;96;1445945786;2.14578509331;0.7403311133380001;0.034240886569;0;True;52;1;29.665274441239028
97;97;1445945786;2.14556908607;0.740123689175;0.034377004951199996;0;True;52;1;29.665274441239028
98;98;1445945786;2.1457073688499997;0.7403348684309999;0.034310348331900005;0;True;52;1;29.665274441239028
99;99;1445945786;2.14574480057;0.740210473537;0.0342592820525;0;True;52;1;29.665274441239028
100;100;1445945786;2.14556789398;0.7401571869850001;0.0343894734979;0;True;52;1;29.665274441239028
101;101;1445945786;2.1457924842800002;0.740322887897;0.0342557430267;0;True;52;1;29.665274441239028
102;102;1445945786;2.1457624435400002;0.7403345108030001;0.034266695380199996;0;True;52;1;29.665274441239028
103;103;1445945786;2.1457824707;0.7403102517129999;0.0342677123845;0;True;52;1;29.665274441239028
104;104;1445945786;2.14578819275;0.740261495113;0.034266091883200005;0;True;52;1;29.665274441239028
105;105;1445945786;2.14579582214;0.7403529286380001;0.034250978380400005;0;True;52;1;29.665274441239028
106;106;1445945786;2.1457777023299998;0.740319311619;0.0342718437314;0;True;52;1;29.665274441239028
107;107;1445945786;2.14569830894;0.7402965426450001;0.034335307776900005;0;True;52;1;29.665274441239028
108;108;1445945786;2.14576387405;0.740408360958;0.0342878550291;0;True;52;1;29.665274441239028
109;109;1445945786;2.14575123787;0.7403296828270001;0.0343014933169;0;True;52;1;29.665274441239028
110;110;1445945786;2.14577317238;0.740414083004;0.034280095249400004;0;True;52;1;29.665274441239028
111;111;1445945786;2.14577960968;0.740371525288;0.034276034683;0;True;52;1;29.665274441239028
112;112;1445945786;2.1457772254900003;0.740338623524;0.034268155694;0;True;52;1;29.665274441239028
113;113;1445945786;2.14574170113;0.740322887897;0.0343261547387;0;True;52;1;29.665274441239028
114;114;1445945786;2.1457614898700004;0.7403354644779999;0.034293159842500004;0;True;52;1;29.665274441239028
115;115;1445945786;2.14578723907;0.740423977375;0.034275945276;0;True;52;1;29.665274441239028
116;116;1445945786;2.14566755295;0.740272521973;0.034363422542800004;0;True;52;1;29.665274441239028
117;117;1445945786;2.14574170113;0.7402775883670001;0.034309182316099994;0;True;52;1;29.665274441239028
118;118;1445945786;2.14577579498;0.740356147289;0.0342815816402;0;True;52;1;29.665274441239028
119;119;1445945786;2.14575695992;0.740371584892;0.0342948548496;0;True;52;1;29.665274441239028
120;120;1445945786;2.14572286606;0.7403163313869999;0.0343238562346;0;True;52;1;29.665274441239028
121;121;1445945786;2.14576196671;0.740261495113;0.0342870987952;0;True;52;1;29.665274441239028
122;122;1445945786;2.14578080177;0.740399539471;0.0342742353678;0;True;52;1;29.665274441239028
123;123;1445945786;2.14576196671;0.740408182144;0.0342765040696;0;True;52;1;29.665274441239028
124;124;1445945786;2.14576172829;0.7403174638750001;0.0342835187912;0;True;52;1;29.665274441239028
125;125;1445945786;2.1457028388999997;0.740312516689;0.0343403406441;0;True;52;1;29.665274441239028
126;126;1445945786;2.14553880692;0.740174949169;0.0343923270702;0;True;52;1;29.665274441239028
127;127;1445945786;2.14572715759;0.7403845190999999;0.0342892259359;0;True;52;1;29.665274441239028
128;128;1445945786;2.1457631588;0.74037194252;0.034281309694099996;0;True;52;1;29.665274441239028
129;129;1445945786;2.1457698345200003;0.740324020386;0.0342677235603;0;True;52;1;29.665274441239028
130;130;1445945786;2.1457400322;0.740324735641;0.034287076443400004;0;True;52;1;29.665274441239028
131;131;1445945786;2.14577436447;0.740375339985;0.0342731028795;0;True;52;1;29.665274441239028
132;132;1445945786;2.14578080177;0.740394353867;0.0342710278928;0;True;52;1;29.665274441239028
133;133;1445945786;2.14576029778;0.740293681622;0.0342721752822;0;True;52;1;29.665274441239028
134;134;1445945786;2.14572691917;0.740315258503;0.03428356722;0;True;52;1;29.665274441239028
135;135;1445945786;2.1457786560099996;0.740393459797;0.0342603623867;0;True;52;1;29.665274441239028
136;136;1445945786;2.14554357529;0.740185916424;0.0344057194889;0;True;52;1;29.665274441239028
137;137;1445945786;2.14565682411;0.740270197392;0.034321069717399996;0;True;52;1;29.665274441239028
138;138;1445945786;2.14553904533;0.7401161789890001;0.0343843027949;0;True;52;1;29.665274441239028
139;139;1445945786;2.14575695992;0.740314602852;0.0342595055699;0;True;52;1;29.665274441239028
140;140;1445945786;2.1456592083;0.7402321100229999;0.0343124382198;0;True;52;1;29.665274441239028
141;141;1445945786;2.14573931694;0.740304350853;0.0342709422112;0;True;52;1;29.665274441239028
142;142;1445945786;2.1457409858700003;0.7402960658069999;0.0342702157795;0;True;52;1;29.665274441239028
143;143;1445945786;2.1457414627099998;0.7402373552320001;0.0342793501914;0;True;52;1;29.665274441239028
144;144;1445945786;2.1457364559200003;0.740305840969;0.0342631228268;0;True;52;1;29.665274441239028
145;145;1445945786;2.1456365585299997;0.7402557730670001;0.0343159660697;0;True;52;1;29.665274441239028
146;146;1445945786;2.14571499825;0.740326166153;0.0342707782984;0;True;52;1;29.665274441239028
147;147;1445945786;2.14571690559;0.7401773929600001;0.0342573747039;0;True;52;1;29.665274441239028
148;148;1445945786;2.14554858208;0.7400855422020001;0.034371327608800004;0;True;52;1;29.665274441239028
149;149;1445945786;2.14553546906;0.7400897741320001;0.0343767739832;0;True;52;1;29.665274441239028
150;150;1445945786;2.1457002162900003;0.740160703659;0.0342666059732;0;True;52;1;29.665274441239028
151;151;1445945786;2.14574861526;0.740284919739;0.034243866801299996;0;True;52;1;29.665274441239028
152;152;1445945786;2.1456978321099998;0.7401278615000001;0.034271351993100004;0;True;52;1;29.665274441239028
153;153;1445945786;2.14575505257;0.740388035774;0.0342316813767;0;True;52;1;29.665274441239028
154;154;1445945786;2.14576268196;0.740322709084;0.0342348814011;0;True;52;1;29.665274441239028
155;155;1445945786;2.14572811127;0.7403307557109999;0.0342685356736;0;True;52;1;29.665274441239028
156;156;1445945786;2.14570116997;0.7403181791310001;0.0342828519642;0;True;52;1;29.665274441239028
157;157;1445945786;2.14577364922;0.740304410458;0.034228336066;0;True;52;1;29.665274441239028
158;158;1445945786;2.1457600593599997;0.740300118923;0.0342429690063;0;True;52;1;29.665274441239028
159;159;1445945786;2.14575076103;0.740297198296;0.0342458561063;0;True;52;1;29.665274441239028
160;160;1445945787;2.14571857452;0.7403177022930001;0.034258831292400004;1;True;52;1;29.665274441239028
161;161;1445945787;2.14571547508;0.740176856518;0.0342556908727;1;True;52;1;29.665274441239028
162;162;1445945787;2.14573907852;0.7402863502500001;0.034257560968400005;1;True;52;1;29.665274441239028
163;163;1445945787;2.14574670792;0.7403129935259999;0.0342595130205;1;True;52;1;29.665274441239028
164;164;1445945787;2.14577698708;0.7403658032420001;0.0342393144965;1;True;52;1;29.665274441239028
165;165;1445945787;2.14564609528;0.740149497986;0.034303322434400006;1;True;52;1;29.665274441239028
166;166;1445945787;2.14555621147;0.7402229309080001;0.034393701702400005;1;True;52;1;29.665274441239028
167;167;1445945787;2.14554429054;0.740125715733;0.03438933193680001;1;True;52;1;29.665274441239028
168;168;1445945787;2.14577245712;0.740390658379;0.0342422686517;1;True;52;1;29.665274441239028
169;169;1445945787;2.1457824707;0.740318417549;0.0342376939952;1;True;52;1;29.665274441239028
170;170;1445945787;2.14551544189;0.740134119987;0.0343940481544;1;True;52;1;29.665274441239028
171;171;1445945787;2.14575123787;0.740250110626;0.0342570692301;1;True;52;1;29.665274441239028
172;172;1445945787;2.14577674866;0.740315198898;0.0342285037041;1;True;52;1;29.665274441239028
173;173;1445945787;2.1457536220599995;0.740410447121;0.0342625007033;1;True;52;1;29.665274441239028
174;174;1445945787;2.14574360847;0.740327596664;0.034251164645;1;True;52;1;29.665274441239028
175;175;1445945787;2.14571499825;0.7403599619869999;0.034282725304400005;1;True;52;1;29.665274441239028
176;176;1445945787;2.1457266807599997;0.740184724331;0.0342418812215;1;True;52;1;29.665274441239028
177;177;1445945787;2.14572548866;0.7402570843699999;0.0342706851661;1;True;52;1;29.665274441239028
178;178;1445945787;2.1457555294;0.740301668644;0.0342467166483;1;True;52;1;29.665274441239028
179;179;1445945787;2.1457278728499998;0.740267157555;0.0342730171978;1;True;52;1;29.665274441239028
180;180;1445945787;2.14574670792;0.7402573227879999;0.034257192164699996;1;True;52;1;29.665274441239028
181;181;1445945787;2.1457114219699998;0.740330219269;0.034290920943;1;True;52;1;29.665274441239028
182;182;1445945787;2.1457600593599997;0.7402664422990001;0.0342452935874;1;True;52;1;29.665274441239028
183;183;1445945787;2.1456911563900003;0.740209937096;0.034282669425;1;True;52;1;29.665274441239028
184;184;1445945787;2.14574170113;0.7403233647349999;0.0342606157064;1;True;52;1;29.665274441239028
185;185;1445945787;2.1457703113599997;0.740313708782;0.0342401564121;1;True;52;1;29.665274441239028
186;186;1445945787;2.14577555656;0.740335404873;0.0342327356339;1;True;52;1;29.665274441239028
187;187;1445945787;2.14577460289;0.740324795246;0.0342320874333;1;True;52;1;29.665274441239028
188;188;1445945787;2.1455612182599997;0.740147829056;0.0343673974276;1;True;52;1;29.665274441239028
189;189;1445945787;2.14574813843;0.740319490433;0.0342593453825;1;True;52;1;29.665274441239028
190;190;1445945787;2.1457657813999997;0.7403435707089999;0.0342561006546;1;True;52;1;29.665274441239028
191;191;1445945787;2.14576053619;0.7402809262279999;0.0342527925968;1;True;52;1;29.665274441239028
192;192;1445945787;2.14569187164;0.740245997906;0.0342692956328;1;True;52;1;29.665274441239028
193;193;1445945787;2.14577817917;0.7403817772869999;0.0342456065118;1;True;52;1;29.665274441239028
194;194;1445945787;2.14574694633;0.7403054833409999;0.0342582277954;1;True;52;1;29.665274441239028
195;195;1445945787;2.1456577777900003;0.7401524186130001;0.034325100481500004;1;True;52;1;29.665274441239028
196;196;1445945787;2.1457760334000002;0.740324616432;0.0342572145164;1;True;52;1;29.665274441239028
197;197;1445945787;2.14573168755;0.740243375301;0.0342780724168;1;True;52;1;29.665274441239028
198;198;1445945787;2.14577913284;0.7403239011759999;0.0342536605895;1;True;52;1;29.665274441239028
199;199;1445945787;2.14575171471;0.740251004696;0.0342614091933;1;True;52;1;29.665274441239028
200;200;1445945787;2.1457698345200003;0.740340650082;0.0342591702938;1;True;52;1;29.665274441239028
201;201;1445945787;2.14576864243;0.740292906761;0.0342570729554;1;True;52;1;29.665274441239028
202;202;1445945787;2.1457734108;0.740253686905;0.0342616736889;1;True;52;1;29.665274441239028
203;203;1445945787;2.14575648308;0.740255594254;0.0342627726495;1;True;52;1;29.665274441239028
204;204;1445945787;2.14575862885;0.740307927132;0.0342583544552;1;True;52;1;29.665274441239028
205;205;1445945787;2.14577174187;0.740372538567;0.0342613235116;1;True;52;1;29.665274441239028
206;206;1445945787;2.14575624466;0.7402774691580001;0.034264087677;1;True;52;1;29.665274441239028
207;207;1445945787;2.14577507973;0.740371882915;0.0342696048319;1;True;52;1;29.665274441239028
208;208;1445945787;2.14574289322;0.740332722664;0.0342859774828;1;True;52;1;29.665274441239028
209;209;1445945787;2.14571213722;0.740203559399;0.034294843673700004;1;True;52;1;29.665274441239028
210;210;1445945787;2.14577317238;0.740316867828;0.0342608392239;1;True;52;1;29.665274441239028
211;211;1445945787;2.14563703537;0.740144431591;0.034331992268599995;1;True;52;1;29.665274441239028
212;212;1445945787;2.14569687843;0.7401424646379999;0.0342941060662;1;True;52;1;29.665274441239028
213;213;1445945787;2.14577364922;0.7403115630149999;0.0342530161142;1;True;52;1;29.665274441239028
214;214;1445945787;2.1455283165;0.7401909828190001;0.0344389565289;1;True;52;1;29.665274441239028
215;215;1445945787;2.1457555294;0.7402340173720001;0.034278970211700004;1;True;52;1;29.665274441239028
216;216;1445945787;2.14578127861;0.740325152874;0.0342615917325;1;True;52;1;29.665274441239028
217;217;1445945787;2.14577889442;0.740325510502;0.0342638716102;1;True;52;1;29.665274441239028
218;218;1445945787;2.1457760334000002;0.74040555954;0.0342776067555;1;True;52;1;29.665274441239028
219;219;1445945787;2.1457931995400004;0.7404170036319999;0.0342701673508;1;True;52;1;29.665274441239028
220;220;1445945787;2.14577555656;0.7403483986849999;0.0342739038169;1;True;52;1;29.665274441239028
221;221;1445945787;2.14576387405;0.7404012084010001;0.0342797264457;1;True;52;1;29.665274441239028
222;222;1445945787;2.14569377899;0.740256071091;0.0343293137848;1;True;52;1;29.665274441239028
223;223;1445945787;2.1455566883099997;0.7401925921439999;0.034398060292;1;True;52;1;29.665274441239028
224;224;1445945787;2.1457941532099998;0.740400671959;0.0342633128166;1;True;52;1;29.665274441239028
225;225;1445945787;2.14578080177;0.740323603153;0.034277744591200004;1;True;52;1;29.665274441239028
226;226;1445945787;2.1457862854;0.740402877331;0.034271299839;1;True;52;1;29.665274441239028
227;227;1445945787;2.1457581520099995;0.7403653860089999;0.034293550998;1;True;52;1;29.665274441239028
228;228;1445945787;2.14568686485;0.740267515182;0.034322995692500004;1;True;52;1;29.665274441239028
229;229;1445945787;2.14567685127;0.7402141094210001;0.0343288443983;1;True;52;1;29.665274441239028
230;230;1445945787;2.14579033852;0.740321099758;0.0342670977116;1;True;52;1;29.665274441239028
231;231;1445945787;2.14575767517;0.7402621507639999;0.0342841185629;1;True;52;1;29.665274441239028
232;232;1445945787;2.14572286606;0.7402584552760001;0.0343031808734;1;True;52;1;29.665274441239028
233;233;1445945787;2.14577102661;0.740336894989;0.0342585220933;1;True;52;1;29.665274441239028
234;234;1445945787;2.14573216438;0.74037027359;0.034321229904900004;1;True;52;1;29.665274441239028
235;235;1445945787;2.1457588672599996;0.74026620388;0.0342891402543;1;True;52;1;29.665274441239028
236;236;1445945787;2.14578771591;0.7403598427770001;0.034262139350200005;1;True;52;1;29.665274441239028
237;237;1445945787;2.1457502841900005;0.740274190903;0.0342935286462;1;True;52;1;29.665274441239028
238;238;1445945787;2.14575862885;0.740307331085;0.03428754583;1;True;52;1;29.665274441239028
239;239;1445945787;2.1457629203799997;0.740277826786;0.0342781841755;1;True;52;1;29.665274441239028
240;240;1445945787;2.1457414627099998;0.7403426766399999;0.034288611263;1;True;52;1;29.665274441239028
241;241;1445945787;2.14575386047;0.740290224552;0.034279845655;1;True;52;1;29.665274441239028
242;242;1445945787;2.14577817917;0.740320026875;0.0342719703913;1;True;52;1;29.665274441239028
243;243;1445945787;2.14577913284;0.7403808236120001;0.0342811271548;1;True;52;1;29.665274441239028
244;244;1445945787;2.14570713043;0.7402815818790001;0.034311283379799995;1;True;52;1;29.665274441239028
245;245;1445945787;2.14579129219;0.740402281284;0.0342718213797;1;True;52;1;29.665274441239028
246;246;1445945787;2.1457941532099998;0.7403950095180001;0.0342674180865;1;True;52;1;29.665274441239028
247;247;1445945787;2.1457178592700004;0.7402614355089999;0.0343105569482;1;True;52;1;29.665274441239028
248;248;1445945787;2.14573788643;0.7402618527410001;0.0342993251979;1;True;52;1;29.665274441239028
249;249;1445945787;2.14568114281;0.740198850632;0.034318823367400005;1;True;52;1;29.665274441239028
250;250;1445945787;2.1456990242;0.740219473839;0.0343113169074;1;True;52;1;29.665274441239028
251;251;1445945787;2.14577460289;0.7402824163439999;0.034272223711;1;True;52;1;29.665274441239028
252;252;1445945787;2.14570856094;0.7401379942890001;0.0342982634902;1;True;52;1;29.665274441239028
253;253;1445945787;2.14569306374;0.740208566189;0.0343225337565;1;True;52;1;29.665274441239028
254;254;1445945787;2.1457657813999997;0.740281105042;0.0342670232058;1;True;52;1;29.665274441239028
255;255;1445945787;2.14571666718;0.74028211832;0.0342924930155;1;True;52;1;29.665274441239028
256;256;1445945787;2.1457223892200004;0.7403162717820001;0.0343026816845;1;True;52;1;29.665274441239028
257;257;1445945787;2.1457695961;0.740286588669;0.034266531467400003;1;True;52;1;29.665274441239028
258;258;1445945787;2.14572310448;0.740358889103;0.0343143418431;1;True;52;1;29.665274441239028
259;259;1445945787;2.14577126503;0.740309894085;0.0342544279993;1;True;52;1;29.665274441239028
260;260;1445945787;2.14575576782;0.740251600742;0.0342810451984;1;True;52;1;29.665274441239028
261;261;1445945787;2.14575314522;0.740253567696;0.0342805795372;1;True;52;1;29.665274441239028
262;262;1445945787;2.14567923546;0.7402321100229999;0.0343168079853;1;True;52;1;29.665274441239028
263;263;1445945787;2.14578032494;0.7403003573420001;0.0342582575977;1;True;52;1;29.665274441239028
264;264;1445945787;2.14573550224;0.740303814411;0.0343093425035;1;True;52;1;29.665274441239028
265;265;1445945787;2.14576172829;0.740404427052;0.0342622883618;1;True;52;1;29.665274441239028
266;266;1445945787;2.14574289322;0.740320324898;0.0342668704689;1;True;52;1;29.665274441239028
267;267;1445945787;2.14564442635;0.7402447462080001;0.0343288518488;1;True;52;1;29.665274441239028
268;268;1445945787;2.14576721191;0.7403354644779999;0.0342593193054;1;True;52;1;29.665274441239028
269;269;1445945787;2.14570379257;0.740211069584;0.0343069545925;1;True;52;1;29.665274441239028
270;270;1445945787;2.14576649666;0.740263998508;0.0342590995133;1;True;52;1;29.665274441239028
271;271;1445945787;2.1457157135;0.740228772163;0.034287225455;1;True;52;1;29.665274441239028
272;272;1445945787;2.14568471909;0.740247189999;0.0343072339892;1;True;52;1;29.665274441239028
273;273;1445945787;2.14570307732;0.740151226521;0.0342748127878;1;True;52;1;29.665274441239028
274;274;1445945787;2.14576911926;0.740384757519;0.0342386700213;1;True;52;1;29.665274441239028
275;275;1445945787;2.14567923546;0.7402443289759999;0.0342910774052;1;True;52;1;29.665274441239028
276;276;1445945787;2.14576840401;0.740322709084;0.0342437922955;1;True;52;1;29.665274441239028
277;277;1445945787;2.14577054977;0.740314602852;0.0342326946557;1;True;52;1;29.665274441239028
278;278;1445945787;2.14577507973;0.740295410156;0.0342562906444;1;True;52;1;29.665274441239028
279;279;1445945787;2.14577507973;0.7403240799899999;0.0342339351773;1;True;52;1;29.665274441239028
280;280;1445945787;2.14575195312;0.740322887897;0.0342518240213;1;True;52;1;29.665274441239028
281;281;1445945787;2.14577436447;0.740313351154;0.034237600863;1;True;52;1;29.665274441239028
282;282;1445945787;2.14569330215;0.7402606010439999;0.0342855416238;1;True;52;1;29.665274441239028
283;283;1445945787;2.14566636086;0.740232884884;0.0342933014035;1;True;52;1;29.665274441239028
284;284;1445945787;2.1457567215;0.7402603626250001;0.0342380777001;1;True;52;1;29.665274441239028
285;285;1445945787;2.1457290649400003;0.740307688713;0.0342812091112;1;True;52;1;29.665274441239028
286;286;1445945787;2.14559960365;0.740165710449;0.034336414188099997;1;True;52;1;29.665274441239028
287;287;1445945787;2.1457574367500003;0.740211963654;0.034248907119;1;True;52;1;29.665274441239028
288;288;1445945787;2.14572811127;0.7402666807170001;0.0342782884836;1;True;52;1;29.665274441239028
289;289;1445945787;2.1457130909;0.7402807474140001;0.0342808328569;1;True;52;1;29.665274441239028
290;290;1445945787;2.14575767517;0.740290999413;0.0342431664467;1;True;52;1;29.665274441239028
291;291;1445945787;2.1457016468;0.7402204275130001;0.0342764444649;1;True;52;1;29.665274441239028
292;292;1445945787;2.1457700729400004;0.740370333195;0.034242201596499995;1;True;52;1;29.665274441239028
293;293;1445945787;2.14575862885;0.740318655968;0.034242324531099995;1;True;52;1;29.665274441239028
294;294;1445945787;2.1456279754599996;0.740220248699;0.034341622144;1;True;52;1;29.665274441239028
295;295;1445945787;2.14575982094;0.7404171228409999;0.034248124808099994;1;True;52;1;29.665274441239028
296;296;1445945787;2.14576482773;0.7403687834739999;0.034263137728;1;True;52;1;29.665274441239028
297;297;1445945787;2.1457669735;0.740228772163;0.0342457219958;1;True;52;1;29.665274441239028
298;298;1445945787;2.1457583904299997;0.740321755409;0.034251332283;1;True;52;1;29.665274441239028
299;299;1445945787;2.1457452774;0.740247488022;0.0342403426766;1;True;52;1;29.665274441239028
300;300;1445945787;2.14575695992;0.74037784338;0.0342563129961;1;True;52;1;29.665274441239028
301;301;1445945787;2.14575958252;0.740274190903;0.0342449508607;1;True;52;1;29.665274441239028
302;302;1445945787;2.1457588672599996;0.7402681112289999;0.0342355780303;1;True;52;1;29.665274441239028
303;303;1445945787;2.1457450389900004;0.740281224251;0.0342742018402;1;True;52;1;29.665274441239028
304;304;1445945787;2.14574122429;0.7402188181880001;0.034256093204;1;True;52;1;29.665274441239028
305;305;1445945787;2.14577126503;0.7402313351629999;0.0342506058514;1;True;52;1;29.665274441239028
306;306;1445945787;2.14574408531;0.7402464151379999;0.0342422053218;1;True;52;1;29.665274441239028
307;307;1445945787;2.14576554298;0.740315556526;0.034234710037700004;1;True;52;1;29.665274441239028
308;308;1445945787;2.1457223892200004;0.740285098553;0.0342619605362;1;True;52;1;29.665274441239028
309;309;1445945787;2.14576554298;0.7403054237369999;0.0342440120876;1;True;52;1;29.665274441239028
310;310;1445945787;2.1457793712599997;0.740304648876;0.034231223166000004;1;True;52;1;29.665274441239028
311;311;1445945787;2.14578199387;0.7403149008750001;0.034237481653700004;1;True;52;1;29.665274441239028
312;312;1445945787;2.14578413963;0.7403420805930001;0.0342189334333;1;True;52;1;29.665274441239028
313;313;1445945787;2.14560699463;0.7401586771009999;0.0343384854496;1;True;52;1;29.665274441239028
314;314;1445945787;2.14573168755;0.7402646541600001;0.0342742577195;1;True;52;1;29.665274441239028
315;315;1445945787;2.1457681655900003;0.7402898073199999;0.034251440316400004;1;True;52;1;29.665274441239028
316;316;1445945787;2.14569330215;0.740197062492;0.0342901013792;1;True;52;1;29.665274441239028
317;317;1445945787;2.1457107067099996;0.7402838468549999;0.034297212958299995;1;True;52;1;29.665274441239028
318;318;1445945787;2.14567995071;0.740240514278;0.0343180559576;1;True;52;1;29.665274441239028
319;319;1445945787;2.14556598663;0.740153312683;0.0343852601945;1;True;52;1;29.665274441239028
320;320;1445945787;2.14574170113;0.740333676338;0.0342610217631;1;True;52;1;29.665274441239028
321;321;1445945787;2.14574694633;0.740271925926;0.0342822372913;1;True;52;1;29.665274441239028
322;322;1445945787;2.14569377899;0.740217983723;0.034305438399299996;1;True;52;1;29.665274441239028
323;323;1445945787;2.14578294754;0.740395784378;0.0342462435365;1;True;52;1;29.665274441239028
324;324;1445945787;2.1456830501599997;0.7403102517129999;0.0343230478466;1;True;52;1;29.665274441239028
325;325;1445945787;2.1457455158200003;0.740300416946;0.0342867672443;1;True;52;1;29.665274441239028
326;326;1445945787;2.14572548866;0.740243375301;0.0342614650726;1;True;52;1;29.665274441239028
327;327;1445945787;2.14570355415;0.740211844444;0.0343019068241;1;True;52;1;29.665274441239028
328;328;1445945787;2.14577245712;0.740347862244;0.0342493578792;1;True;52;1;29.665274441239028
329;329;1445945787;2.1457192897799997;0.740167021751;0.0342881716788;1;True;52;1;29.665274441239028
330;330;1445945787;2.14574694633;0.7402637600900001;0.0342663750052;1;True;52;1;29.665274441239028
331;331;1445945787;2.14575314522;0.74033755064;0.034272953867900004;1;True;52;1;29.665274441239028
332;332;1445945787;2.1457529068;0.740261971951;0.0342727564275;1;True;52;1;29.665274441239028
333;333;1445945787;2.14577436447;0.740281701088;0.0342618525028;1;True;52;1;29.665274441239028
334;334;1445945787;2.14569807053;0.740258216858;0.0343018136919;1;True;52;1;29.665274441239028
335;335;1445945787;2.1457748413099997;0.740341365337;0.034257650375399996;1;True;52;1;29.665274441239028
336;336;1445945787;2.14574694633;0.740226984024;0.0342924110591;1;True;52;1;29.665274441239028
337;337;1445945787;2.1457726955400003;0.740226984024;0.0342693142593;1;True;52;1;29.665274441239028
338;338;1445945787;2.14578962326;0.7404039502140001;0.034257736057;1;True;52;1;29.665274441239028
339;339;1445945787;2.14576196671;0.740326166153;0.0342841111124;1;True;52;1;29.665274441239028
340;340;1445945787;2.1457688808400004;0.740383565426;0.0342684313655;1;True;52;1;29.665274441239028
341;341;1445945787;2.1457874774900003;0.740326464176;0.0342659056187;1;True;52;1;29.665274441239028
342;342;1445945787;2.1457624435400002;0.7402175664899999;0.0342699736357;1;True;52;1;29.665274441239028
343;343;1445945787;2.14575004578;0.740378797054;0.0342932678759;1;True;52;1;29.665274441239028
344;344;1445945787;2.14578199387;0.740321755409;0.0342627689242;1;True;52;1;29.665274441239028
345;345;1445945787;2.14576768875;0.740309715271;0.0343021713197;1;True;52;1;29.665274441239028
346;346;1445945787;2.14579629898;0.7404012680050001;0.034267693758;1;True;52;1;29.665274441239028
347;347;1445945787;2.1457104682900003;0.740212678909;0.034322112798700004;1;True;52;1;29.665274441239028
348;348;1445945787;2.1457195282;0.7401294708249999;0.0343033857644;1;True;52;1;29.665274441239028
349;349;1445945787;2.1457891464200003;0.740408539772;0.0342663750052;1;True;52;1;29.665274441239028
350;350;1445945787;2.1457543373099996;0.740335822105;0.0342792309821;1;True;52;1;29.665274441239028
351;351;1445945787;2.1457178592700004;0.7401993870739999;0.0342855639756;1;True;52;1;29.665274441239028
352;352;1445945787;2.14577794075;0.7402643561360001;0.034284390509099996;1;True;52;1;29.665274441239028
353;353;1445945787;2.14576649666;0.740231692791;0.034279640764;1;True;52;1;29.665274441239028
354;354;1445945787;2.1457357406599997;0.740201294422;0.0343046449125;1;True;52;1;29.665274441239028
355;355;1445945787;2.1457688808400004;0.7401741743089999;0.0342824980617;1;True;52;1;29.665274441239028
356;356;1445945787;2.14575099945;0.74027711153;0.0342958644032;1;True;52;1;29.665274441239028
357;357;1445945787;2.14574337006;0.7402034997939999;0.0342783667147;1;True;52;1;29.665274441239028
358;358;1445945787;2.14560699463;0.740130186081;0.0343781486154;1;True;52;1;29.665274441239028
359;359;1445945787;2.14570331573;0.740224957466;0.0343178957701;1;True;52;1;29.665274441239028
360;360;1445945787;2.14577293396;0.7402740716930001;0.0342684239149;1;True;52;1;29.665274441239028
361;361;1445945787;2.1457426548;0.7402142882350001;0.034276928752700005;1;True;52;1;29.665274441239028
362;362;1445945787;2.14574933052;0.7403081655500001;0.0342879779637;1;True;52;1;29.665274441239028
363;363;1445945787;2.14578819275;0.7402780652050001;0.0342599451542;1;True;52;1;29.665274441239028
364;364;1445945787;2.14572048187;0.7403332591060001;0.0343290939927;1;True;52;1;29.665274441239028
365;365;1445945787;2.14575195312;0.740241765976;0.0343088954687;1;True;52;1;29.665274441239028
366;366;1445945787;2.1457614898700004;0.74020421505;0.0342640988529;1;True;52;1;29.665274441239028
367;367;1445945787;2.1457233428999998;0.740186035633;0.0342796631157;1;True;52;1;29.665274441239028
368;368;1445945787;2.14579176903;0.740329265594;0.0342628769577;1;True;52;1;29.665274441239028
369;369;1445945787;2.1457107067099996;0.740179240704;0.0343039445579;1;True;52;1;29.665274441239028
370;370;1445945787;2.14576840401;0.740257382393;0.0342786051333;1;True;52;1;29.665274441239028
371;371;1445945787;2.14576911926;0.74023026228;0.034286934882400005;1;True;52;1;29.665274441239028
372;372;1445945787;2.14578318596;0.740295708179;0.0342609621584;1;True;52;1;29.665274441239028
373;373;1445945787;2.1457931995400004;0.740368247032;0.034266281873;1;True;52;1;29.665274441239028
374;374;1445945787;2.1457357406599997;0.740206062794;0.0342753082514;1;True;52;1;29.665274441239028
375;375;1445945787;2.1457104682900003;0.7401832938189999;0.0342924408615;1;True;52;1;29.665274441239028
376;376;1445945787;2.14579892159;0.740384995937;0.034251905977699997;1;True;52;1;29.665274441239028
377;377;1445945787;2.14576673508;0.740315437317;0.0342525839806;1;True;52;1;29.665274441239028
378;378;1445945787;2.14576840401;0.74029058218;0.034255500882900004;1;True;52;1;29.665274441239028
379;379;1445945787;2.1455068588299997;0.740094900131;0.0344061143696;1;True;52;1;29.665274441239028
380;380;1445945787;2.1457529068;0.740376770496;0.0342714972794;1;True;52;1;29.665274441239028
381;381;1445945787;2.1457014083900003;0.740232765675;0.034294221550199996;1;True;52;1;29.665274441239028
382;382;1445945787;2.1456959247599996;0.740144312382;0.0342711769044;1;True;52;1;29.665274441239028
383;383;1445945787;2.1456630229900004;0.7401551008220001;0.0343177653849;1;True;52;1;29.665274441239028
384;384;1445945787;2.14573931694;0.7403028607369999;0.0342651866376;1;True;52;1;29.665274441239028
385;385;1445945787;2.14559984207;0.74024784565;0.034368596971;1;True;52;1;29.665274441239028
386;386;1445945787;2.14551997185;0.7400893568989999;0.0343854464591;1;True;52;1;29.665274441239028
387;387;1445945787;2.14566516876;0.7402603626250001;0.0343082547188;1;True;52;1;29.665274441239028
388;388;1445945787;2.14569187164;0.7402079105380001;0.0342921093106;1;True;52;1;29.665274441239028
389;389;1445945787;2.14573216438;0.7402481436730001;0.034280057996499996;1;True;52;1;29.665274441239028
390;390;1445945787;2.1456978321099998;0.740284562111;0.0342925526202;1;True;52;1;29.665274441239028
391;391;1445945787;2.14573979378;0.740303337574;0.0342554748058;1;True;52;1;29.665274441239028
392;392;1445945787;2.14575719833;0.74039375782;0.034243620932100004;1;True;52;1;29.665274441239028
393;393;1445945787;2.1457583904299997;0.740390181541;0.0342424437404;1;True;52;1;29.665274441239028
394;394;1445945787;2.1454942226400004;0.740108132362;0.0344023481011;1;True;52;1;29.665274441239028
395;395;1445945787;2.14574480057;0.740393936634;0.034268528223;1;True;52;1;29.665274441239028
396;396;1445945787;2.14576101303;0.7404109239579999;0.0342642106116;1;True;52;1;29.665274441239028
397;397;1445945787;2.14574933052;0.740389943123;0.0342444442213;1;True;52;1;29.665274441239028
398;398;1445945787;2.1457703113599997;0.740397751331;0.0342436358333;1;True;52;1;29.665274441239028
399;399;1445945788;2.1457014083900003;0.7402061820029999;0.0342794172466;2;True;52;1;29.665274441239028
400;400;1445945788;2.14575719833;0.740406930447;0.034237276762700004;2;True;52;1;29.665274441239028
401;401;1445945788;2.14573836327;0.7402897477150001;0.0342641733587;2;True;52;1;29.665274441239028
402;402;1445945788;2.14576554298;0.740406274796;0.0342544019222;2;True;52;1;29.665274441239028
403;403;1445945788;2.1457028388999997;0.7402592301369999;0.03431046381590001;2;True;52;1;29.665274441239028
404;404;1445945788;2.1457748413099997;0.740344405174;0.0342492312193;2;True;52;1;29.665274441239028
405;405;1445945788;2.1457259655;0.7403454780580001;0.0342979878187;2;True;52;1;29.665274441239028
406;406;1445945788;2.14574193954;0.74028211832;0.0342681147158;2;True;52;1;29.665274441239028
407;407;1445945788;2.1457195282;0.7403578758239999;0.034298080951;2;True;52;1;29.665274441239028
408;408;1445945788;2.14577913284;0.740420281887;0.0342503227293;2;True;52;1;29.665274441239028
409;409;1445945788;2.1457786560099996;0.740422904491;0.034245960414400006;2;True;52;1;29.665274441239028
410;410;1445945788;2.14576435089;0.74035936594;0.0342483446002;2;True;52;1;29.665274441239028
411;411;1445945788;2.1457252502400004;0.740276277065;0.0342641957104;2;True;52;1;29.665274441239028
412;412;1445945788;2.1455936431900002;0.740282773972;0.0343982465565;2;True;52;1;29.665274441239028
413;413;1445945788;2.14569687843;0.7402958869930001;0.0343070700765;2;True;52;1;29.665274441239028
414;414;1445945788;2.14573717117;0.740286707878;0.0342591963708;2;True;52;1;29.665274441239028
415;415;1445945788;2.1457681655900003;0.7403504848479999;0.0342502556741;2;True;52;1;29.665274441239028
416;416;1445945788;2.14567756653;0.740275502205;0.0343304201961;2;True;52;1;29.665274441239028
417;417;1445945788;2.1457533836400002;0.7402611374860001;0.034269675612400005;2;True;52;1;29.665274441239028
418;418;1445945788;2.1457574367500003;0.740324735641;0.0342635326087;2;True;52;1;29.665274441239028
419;419;1445945788;2.1457459926599998;0.7402822375300001;0.0342768393457;2;True;52;1;29.665274441239028
420;420;1445945788;2.1457722187;0.74035269022;0.0342504456639;2;True;52;1;29.665274441239028
421;421;1445945788;2.1457653045700003;0.740338981152;0.0342492461205;2;True;52;1;29.665274441239028
422;422;1445945788;2.14575505257;0.740349829197;0.034262444824;2;True;52;1;29.665274441239028
423;423;1445945788;2.14569950104;0.740315854549;0.0343013331294;2;True;52;1;29.665274441239028
424;424;1445945788;2.14575099945;0.740337014198;0.0342556163669;2;True;52;1;29.665274441239028
425;425;1445945788;2.14576053619;0.740401983261;0.034260481596;2;True;52;1;29.665274441239028
426;426;1445945788;2.1457386016799997;0.7403187751770001;0.0343018993735;2;True;52;1;29.665274441239028
427;427;1445945788;2.14574456215;0.740349888802;0.0342791043222;2;True;52;1;29.665274441239028
428;428;1445945788;2.14570784569;0.7402797341349999;0.0342864580452;2;True;52;1;29.665274441239028
429;429;1445945788;2.14575505257;0.74035602808;0.0342634655535;2;True;52;1;29.665274441239028
430;430;1445945788;2.14576172829;0.7403994202609999;0.0342780612409;2;True;52;1;29.665274441239028
431;431;1445945788;2.14575767517;0.740256667137;0.034273169934700004;2;True;52;1;29.665274441239028
432;432;1445945788;2.1457409858700003;0.7402390241619999;0.034269452095;2;True;52;1;29.665274441239028
433;433;1445945788;2.1457555294;0.7404039502140001;0.0342739038169;2;True;52;1;29.665274441239028
434;434;1445945788;2.14575982094;0.7402197718619999;0.034268341958499995;2;True;52;1;29.665274441239028
435;435;1445945788;2.14574813843;0.740249454975;0.0342707149684;2;True;52;1;29.665274441239028
436;436;1445945788;2.1457846164700003;0.7403613924979999;0.034252323210200004;2;True;52;1;29.665274441239028
437;437;1445945788;2.1455218792;0.740284323692;0.034451708197599996;2;True;52;1;29.665274441239028
438;438;1445945788;2.1457438468900003;0.740285336971;0.034290693700299996;2;True;52;1;29.665274441239028
439;439;1445945788;2.14573907852;0.7402801513670001;0.0342911817133;2;True;52;1;29.665274441239028
440;440;1445945788;2.14578175545;0.7404016256329999;0.0342479981482;2;True;52;1;29.665274441239028
441;441;1445945788;2.1457822322799998;0.740299403667;0.0342631191015;2;True;52;1;29.665274441239028
442;442;1445945788;2.1457164287599997;0.740366280079;0.0343068055809;2;True;52;1;29.665274441239028
443;443;1445945788;2.14576601982;0.7402972579000001;0.0342744290829;2;True;52;1;29.665274441239028
444;444;1445945788;2.1456952095;0.7401884794239999;0.034326184541000004;2;True;52;1;29.665274441239028
445;445;1445945788;2.14574933052;0.7403360009190001;0.0342902578413;2;True;52;1;29.665274441239028
446;446;1445945788;2.1457555294;0.7403929233550001;0.034268904477400004;2;True;52;1;29.665274441239028
447;447;1445945788;2.1457927227;0.7404102087019999;0.034254714846600004;2;True;52;1;29.665274441239028
448;448;1445945788;2.14576506615;0.740366280079;0.03426804021;2;True;52;1;29.665274441239028
449;449;1445945788;2.14545321465;0.7401498556139999;0.03447169438;2;True;52;1;29.665274441239028
450;450;1445945788;2.14577817917;0.740323483944;0.0342468097806;2;True;52;1;29.665274441239028
451;451;1445945788;2.14578270912;0.7404128313060001;0.0342648439109;2;True;52;1;29.665274441239028
452;452;1445945788;2.14566850662;0.740193068981;0.0343338921666;2;True;52;1;29.665274441239028
453;453;1445945788;2.1457836628;0.7403843998909999;0.034250754863;2;True;52;1;29.665274441239028
454;454;1445945788;2.14573550224;0.740340054035;0.0343105867505;2;True;52;1;29.665274441239028
455;455;1445945788;2.14575004578;0.740335702896;0.0342810153961;2;True;52;1;29.665274441239028
456;456;1445945788;2.1457152366599996;0.7401729822159999;0.0342841595411;2;True;52;1;29.665274441239028
457;457;1445945788;2.14574670792;0.740289509296;0.034300100058300004;2;True;52;1;29.665274441239028
458;458;1445945788;2.14571857452;0.7403774261470001;0.0343112163246;2;True;52;1;29.665274441239028
459;459;1445945788;2.14570808411;0.740213751793;0.0342978052795;2;True;52;1;29.665274441239028
460;460;1445945788;2.14575624466;0.740223526955;0.034274499863400004;2;True;52;1;29.665274441239028
461;461;1445945788;2.14555478096;0.7402919530869999;0.034430049359800007;2;True;52;1;29.665274441239028
462;462;1445945788;2.1457798481;0.740332961082;0.0342481285334;2;True;52;1;29.665274441239028
463;463;1445945788;2.14576673508;0.740321338177;0.03426804021;2;True;52;1;29.665274441239028
464;464;1445945788;2.14576935768;0.740418493748;0.034262612462;2;True;52;1;29.665274441239028
465;465;1445945788;2.14577674866;0.740339934826;0.034257348626900004;2;True;52;1;29.665274441239028
466;466;1445945788;2.14569091797;0.7403680682179999;0.034321360290099995;2;True;52;1;29.665274441239028
467;467;1445945788;2.14563107491;0.7401900887489999;0.0343608371913;2;True;52;1;29.665274441239028
468;468;1445945788;2.14578533173;0.740429282188;0.0342626720667;2;True;52;1;29.665274441239028
469;469;1445945788;2.1457688808400004;0.740328907967;0.0342587605119;2;True;52;1;29.665274441239028
470;470;1445945788;2.14573550224;0.7403056621549999;0.0342863947153;2;True;52;1;29.665274441239028
471;471;1445945788;2.1457157135;0.740367054939;0.0343180447817;2;True;52;1;29.665274441239028
472;472;1445945788;2.1457450389900004;0.740331530571;0.0342764817178;2;True;52;1;29.665274441239028
473;473;1445945788;2.1457636356400003;0.740324497223;0.034263189882;2;True;52;1;29.665274441239028
474;474;1445945788;2.14573001862;0.740242004395;0.034286741167299996;2;True;52;1;29.665274441239028
475;475;1445945788;2.1457839012099997;0.740417182446;0.0342619866133;2;True;52;1;29.665274441239028
476;476;1445945788;2.1455936431900002;0.740172564983;0.034388102590999996;2;True;52;1;29.665274441239028
477;477;1445945788;2.14574360847;0.7402810454369999;0.0342947356403;2;True;52;1;29.665274441239028
478;478;1445945788;2.1457362175;0.740342497826;0.0342800244689;2;True;52;1;29.665274441239028
479;479;1445945788;2.1457452774;0.740265727043;0.0342760384083;2;True;52;1;29.665274441239028
480;480;1445945788;2.14577102661;0.740370035172;0.0342596508563;2;True;52;1;29.665274441239028
481;481;1445945788;2.1457579135900002;0.7403078675270001;0.0342561416328;2;True;52;1;29.665274441239028
482;482;1445945788;2.14576840401;0.740354180336;0.0342403873801;2;True;52;1;29.665274441239028
483;483;1445945788;2.14575529099;0.7401984930040001;0.0342578217387;2;True;52;1;29.665274441239028
484;484;1445945788;2.1456780433700002;0.7402603626250001;0.0343020111322;2;True;52;1;29.665274441239028
485;485;1445945788;2.14577913284;0.7403245568279999;0.034251105040299996;2;True;52;1;29.665274441239028
486;486;1445945788;2.1456973552700003;0.740223348141;0.034315187484;2;True;52;1;29.665274441239028
487;487;1445945788;2.1457567215;0.740364134312;0.034273993223900005;2;True;52;1;29.665274441239028
488;488;1445945788;2.1457700729400004;0.740227639675;0.0342638716102;2;True;52;1;29.665274441239028
489;489;1445945788;2.1457362175;0.740316867828;0.034268617630000005;2;True;52;1;29.665274441239028
490;490;1445945788;2.14578318596;0.740400195122;0.0342510789633;2;True;52;1;29.665274441239028
491;491;1445945788;2.14575719833;0.740406274796;0.0342561863363;2;True;52;1;29.665274441239028
492;492;1445945788;2.14572310448;0.7403544783589999;0.0343008935452;2;True;52;1;29.665274441239028
493;493;1445945788;2.14577674866;0.74039131403;0.0342647880316;2;True;52;1;29.665274441239028
494;494;1445945788;2.1457631588;0.7403082847600001;0.0342483408749;2;True;52;1;29.665274441239028
495;495;1445945788;2.14577102661;0.74032831192;0.0342559441924;2;True;52;1;29.665274441239028
496;496;1445945788;2.14576196671;0.740387737751;0.0342485047877;2;True;52;1;29.665274441239028
497;497;1445945788;2.14577698708;0.740324437618;0.034243140369700005;2;True;52;1;29.665274441239028
498;498;1445945788;2.14569044113;0.7402606010439999;0.0342964194715;2;True;52;1;29.665274441239028
499;499;1445945788;2.14576601982;0.740320086479;0.0342435203493;2;True;52;1;29.665274441239028
500;500;1445945788;2.14571237564;0.7403216362;0.0343010239303;2;True;52;1;29.665274441239028
501;501;1445945788;2.14559483528;0.740267813206;0.0343745313585;2;True;52;1;29.665274441239028
502;502;1445945788;2.14575505257;0.740266025066;0.0342611409724;2;True;52;1;29.665274441239028
503;503;1445945788;2.14573836327;0.7403318881990001;0.0342675745487;2;True;52;1;29.665274441239028
504;504;1445945788;2.14577436447;0.7403635978700001;0.0342514291406;2;True;52;1;29.665274441239028
505;505;1445945788;2.14574217796;0.740377962589;0.0342631340027;2;True;52;1;29.665274441239028
506;506;1445945788;2.14576077461;0.740314304829;0.034241799265099994;2;True;52;1;29.665274441239028
507;507;1445945788;2.14573764801;0.740199267864;0.0342621356249;2;True;52;1;29.665274441239028
508;508;1445945788;2.14574432373;0.740313351154;0.0342605859041;2;True;52;1;29.665274441239028
509;509;1445945788;2.14576101303;0.740310847759;0.034239154309;2;True;52;1;29.665274441239028
510;510;1445945788;2.1457700729400004;0.740384280682;0.0342405997217;2;True;52;1;29.665274441239028
511;511;1445945788;2.1456785202;0.74020165205;0.034289933741099995;2;True;52;1;29.665274441239028
512;512;1445945788;2.14566874504;0.7402776479719999;0.034317363053599996;2;True;52;1;29.665274441239028
513;513;1445945788;2.14574337006;0.740326404572;0.0342649668455;2;True;52;1;29.665274441239028
514;514;1445945788;2.1457555294;0.740414977074;0.0342539995909;2;True;52;1;29.665274441239028
515;515;1445945788;2.14576458931;0.740401685238;0.0342566631734;2;True;52;1;29.665274441239028
516;516;1445945788;2.14576840401;0.74035692215;0.0342447347939;2;True;52;1;29.665274441239028
517;517;1445945788;2.14575505257;0.7403239607809999;0.0342556536198;2;True;52;1;29.665274441239028
518;518;1445945788;2.14549779892;0.740154623985;0.034400023519999996;2;True;52;1;29.665274441239028
519;519;1445945788;2.14574766159;0.7402668595309999;0.0342580042779;2;True;52;1;29.665274441239028
520;520;1445945788;2.14575171471;0.7402760386470001;0.0342638269067;2;True;52;1;29.665274441239028
521;521;1445945788;2.14567399025;0.740189492702;0.0343123488128;2;True;52;1;29.665274441239028
522;522;1445945788;2.1457350254099996;0.740358233452;0.0342849753797;2;True;52;1;29.665274441239028
523;523;1445945788;2.1457097530400002;0.7402642369269999;0.0342949330807;2;True;52;1;29.665274441239028
524;524;1445945788;2.14574337006;0.740390539169;0.0342708192766;2;True;52;1;29.665274441239028
525;525;1445945788;2.14569091797;0.740263223648;0.0343029722571;2;True;52;1;29.665274441239028
526;526;1445945788;2.14573740959;0.7403392791750001;0.0342805869877;2;True;52;1;29.665274441239028
527;527;1445945788;2.14547729492;0.740275800228;0.0344588756561;2;True;52;1;29.665274441239028
528;528;1445945788;2.1457583904299997;0.740312695503;0.034261431545;2;True;52;1;29.665274441239028
529;529;1445945788;2.14572715759;0.740232050419;0.034277066588400004;2;True;52;1;29.665274441239028
530;530;1445945788;2.1457674503299997;0.740331053734;0.0342551209033;2;True;52;1;29.665274441239028
531;531;1445945788;2.14567995071;0.7402653098109999;0.0343418642879;2;True;52;1;29.665274441239028
532;532;1445945788;2.1457059383400003;0.740222752094;0.0343085490167;2;True;52;1;29.665274441239028
533;533;1445945788;2.14573740959;0.7403243780140001;0.034273058176;2;True;52;1;29.665274441239028
534;534;1445945788;2.14569234848;0.740219712257;0.03430358693;2;True;52;1;29.665274441239028
535;535;1445945788;2.14578676224;0.7404063343999999;0.0342520140111;2;True;52;1;29.665274441239028
536;536;1445945788;2.14570713043;0.740202903748;0.034268129617;2;True;52;1;29.665274441239028
537;537;1445945788;2.14578270912;0.740405082703;0.0342446602881;2;True;52;1;29.665274441239028
538;538;1445945788;2.14572405815;0.740337669849;0.0343016348779;2;True;52;1;29.665274441239028
539;539;1445945788;2.14564275742;0.740160286427;0.0343188084662;2;True;52;1;29.665274441239028
540;540;1445945788;2.14577913284;0.7403469681739999;0.0342583805323;2;True;52;1;29.665274441239028
541;541;1445945788;2.14576387405;0.740372776985;0.0342491716146;2;True;52;1;29.665274441239028
542;542;1445945788;2.14577174187;0.740384817123;0.0342547446489;2;True;52;1;29.665274441239028
543;543;1445945788;2.1457793712599997;0.740329265594;0.0342488437891;2;True;52;1;29.665274441239028
544;544;1445945788;2.1457574367500003;0.7403019666670001;0.0342512726784;2;True;52;1;29.665274441239028
545;545;1445945788;2.14575481415;0.7402266263959999;0.0342732593417;2;True;52;1;29.665274441239028
546;546;1445945788;2.14576625824;0.7403116822239999;0.0342431217432;2;True;52;1;29.665274441239028
547;547;1445945788;2.14573550224;0.740386366844;0.0342723317444;2;True;52;1;29.665274441239028
548;548;1445945788;2.14572811127;0.740283071995;0.0342957153916;2;True;52;1;29.665274441239028
549;549;1445945788;2.14579296112;0.7403239011759999;0.0342463701963;2;True;52;1;29.665274441239028
550;550;1445945788;2.14573431015;0.740280032158;0.0342639908195;2;True;52;1;29.665274441239028
551;551;1445945788;2.14578270912;0.740385293961;0.034257121384099996;2;True;52;1;29.665274441239028
552;552;1445945788;2.14573740959;0.7403756976129999;0.0342802479863;2;True;52;1;29.665274441239028
553;553;1445945788;2.14577150345;0.740310966969;0.0342583060265;2;True;52;1;29.665274441239028
554;554;1445945788;2.14573907852;0.7403523921969999;0.0342720411718;2;True;52;1;29.665274441239028
555;555;1445945788;2.14571809769;0.740183830261;0.0342698357999;2;True;52;1;29.665274441239028
556;556;1445945788;2.14567947388;0.740282595158;0.0343257896602;2;True;52;1;29.665274441239028
557;557;1445945788;2.1457495689400004;0.740236699581;0.034267205745;2;True;52;1;29.665274441239028
558;558;1445945788;2.14577364922;0.740297436714;0.0342541523278;2;True;52;1;29.665274441239028
559;559;1445945788;2.1457118988;0.740164935589;0.0342672504485;2;True;52;1;29.665274441239028
560;560;1445945788;2.14569187164;0.740200221539;0.0343136005104;2;True;52;1;29.665274441239028
561;561;1445945788;2.14577078819;0.7403780817990001;0.0342629551888;2;True;52;1;29.665274441239028
562;562;1445945788;2.14577364922;0.7403088808059999;0.0342651642859;2;True;52;1;29.665274441239028
563;563;1445945788;2.14568972588;0.740151226521;0.0342903882265;2;True;52;1;29.665274441239028
564;564;1445945788;2.14574718475;0.740285336971;0.0342782512307;2;True;52;1;29.665274441239028
565;565;1445945788;2.14576435089;0.7403660416600001;0.034262184053700004;2;True;52;1;29.665274441239028
566;566;1445945788;2.14575648308;0.740287423134;0.0342628620565;2;True;52;1;29.665274441239028
567;567;1445945788;2.1457700729400004;0.7402804493899999;0.0342746675014;2;True;52;1;29.665274441239028
568;568;1445945788;2.14576935768;0.7402951717380001;0.0342655330896;2;True;52;1;29.665274441239028
569;569;1445945788;2.14577651024;0.740298092365;0.0342649631202;2;True;52;1;29.665274441239028
570;570;1445945788;2.14576625824;0.740310847759;0.0342701599002;2;True;52;1;29.665274441239028
571;571;1445945788;2.14567685127;0.7401619553569999;0.0343134813011;2;True;52;1;29.665274441239028
572;572;1445945788;2.1456677913699997;0.740188360214;0.0343272536993;2;True;52;1;29.665274441239028
573;573;1445945788;2.14545345306;0.7400975227359999;0.034460179507699994;2;True;52;1;29.665274441239028
574;574;1445945788;2.1457402706099997;0.7402190566060001;0.0343023091555;2;True;52;1;29.665274441239028
575;575;1445945788;2.14554309845;0.740192115307;0.034429050982;2;True;52;1;29.665274441239028
576;576;1445945788;2.1457760334000002;0.7403405904770001;0.034280385822099996;2;True;52;1;29.665274441239028
577;577;1445945788;2.1456727981599997;0.7401652932170001;0.0343101322651;2;True;52;1;29.665274441239028
578;578;1445945788;2.14577198029;0.740293562412;0.0342596173286;2;True;52;1;29.665274441239028
579;579;1445945788;2.14573216438;0.7401804924009999;0.0342721864581;2;True;52;1;29.665274441239028
580;580;1445945788;2.1457450389900004;0.740312337875;0.034293875098200005;2;True;52;1;29.665274441239028
581;581;1445945788;2.1456875801099997;0.740171253681;0.0343019515276;2;True;52;1;29.665274441239028
582;582;1445945788;2.1457891464200003;0.740298092365;0.0342570878565;2;True;52;1;29.665274441239028
583;583;1445945788;2.14577054977;0.740283310413;0.0342673808336;2;True;52;1;29.665274441239028
584;584;1445945788;2.1457815170299996;0.740271985531;0.0342615842819;2;True;52;1;29.665274441239028
585;585;1445945788;2.14566969872;0.740147709846;0.0343114584684;2;True;52;1;29.665274441239028
586;586;1445945788;2.14572715759;0.740320920944;0.0342735946178;2;True;52;1;29.665274441239028
587;587;1445945788;2.1457653045700003;0.740211248398;0.0342708788812;2;True;52;1;29.665274441239028
588;588;1445945788;2.14575529099;0.740321576595;0.034267570823400005;2;True;52;1;29.665274441239028
589;589;1445945788;2.14573788643;0.740303099155;0.0342861637473;2;True;52;1;29.665274441239028
590;590;1445945788;2.14576458931;0.740281105042;0.034250419586900005;2;True;52;1;29.665274441239028
591;591;1445945788;2.1457674503299997;0.740277051926;0.034263189882;2;True;52;1;29.665274441239028
592;592;1445945788;2.1457774639099996;0.74026709795;0.0342489033937;2;True;52;1;29.665274441239028
593;593;1445945788;2.1455652713799997;0.740199267864;0.0344148464501;2;True;52;1;29.665274441239028
594;594;1445945788;2.14576721191;0.740345001221;0.034250754863;2;True;52;1;29.665274441239028
595;595;1445945788;2.1457698345200003;0.740295410156;0.0342427901924;2;True;52;1;29.665274441239028
596;596;1445945788;2.14555549622;0.7402601242069999;0.0343821570277;2;True;52;1;29.665274441239028
597;597;1445945788;2.14571237564;0.740145027637;0.034259095787999995;2;True;52;1;29.665274441239028
598;598;1445945788;2.14574742317;0.740236520767;0.0342691577971;2;True;52;1;29.665274441239028
599;599;1445945788;2.1457722187;0.740347445011;0.034258171916;2;True;52;1;29.665274441239028
600;600;1445945788;2.14569473267;0.74017816782;0.0342830531299;2;True;52;1;29.665274441239028
601;601;1445945788;2.14572691917;0.740191936493;0.0342847928405;2;True;52;1;29.665274441239028
602;602;1445945788;2.14577579498;0.74037706852;0.0342475622892;2;True;52;1;29.665274441239028
603;603;1445945788;2.14574742317;0.740332007408;0.034255508333400006;2;True;52;1;29.665274441239028
