;Unnamed: 0;header_stamp_secs;pose_position_x;pose_position_y;pose_position_z;seconds;drop_values;flight_number;label;dtw
0;0;1445946053;2.13449525833;0.7360768318179999;0.0344232171774;0;True;0;1;13.647859812210022
1;1;1445946053;2.13449907303;0.736158132553;0.0344108790159;0;True;0;1;13.647859812210022
2;2;1445946053;2.1343793869;0.735934197903;0.0344942696393;0;True;0;1;13.647859812210022
3;3;1445946053;2.13446521759;0.736119091511;0.0344420410693;0;True;0;1;13.647859812210022
4;4;1445946053;2.13449764252;0.736029148102;0.0344399139285;0;True;0;1;13.647859812210022
5;5;1445946053;2.13424968719;0.735966801643;0.034652397036599995;0;True;0;1;13.647859812210022
6;6;1445946053;2.13443589211;0.7359192371369999;0.03448753058909999;0;True;0;1;13.647859812210022
7;7;1445946053;2.13448810577;0.7361425757410001;0.034412823617500005;0;True;0;1;13.647859812210022
8;8;1445946053;2.13448834419;0.736138999462;0.0344395935535;0;True;0;1;13.647859812210022
9;9;1445946053;2.13452148438;0.736180782318;0.0344250164926;0;True;0;1;13.647859812210022
10;10;1445946053;2.13446307182;0.736033558846;0.034461744129699996;0;True;0;1;13.647859812210022
11;11;1445946053;2.13429021835;0.735756874084;0.034615278244;0;True;0;1;13.647859812210022
12;12;1445946053;2.13442969322;0.7359618544580001;0.034485671669199996;0;True;0;1;13.647859812210022
13;13;1445946053;2.1344933509799997;0.736049234867;0.0344298407435;0;True;0;1;13.647859812210022
14;14;1445946053;2.13430953026;0.7358614206309999;0.034614667296400004;0;True;0;1;13.647859812210022
15;15;1445946053;2.13448309898;0.7360444068909999;0.034453555941599996;0;True;0;1;13.647859812210022
16;16;1445946053;2.13444709778;0.735933244228;0.0344274565578;0;True;0;1;13.647859812210022
17;17;1445946053;2.1344742775;0.73595058918;0.034447837620999996;0;True;0;1;13.647859812210022
18;18;1445946053;2.1344230175;0.7359655499459999;0.0344603396952;0;True;0;1;13.647859812210022
19;19;1445946053;2.1344132423400004;0.7359189391140001;0.034497983753699994;0;True;0;1;13.647859812210022
20;20;1445946053;2.1345469951599996;0.7360980510709999;0.0344117097557;0;True;0;1;13.647859812210022
21;21;1445946053;2.13449501991;0.736168563366;0.0344333462417;0;True;0;1;13.647859812210022
22;22;1445946053;2.13446807861;0.7360326051710001;0.0345146581531;0;True;0;1;13.647859812210022
23;23;1445946053;2.13452339172;0.7361182570460001;0.034411299973699995;0;True;0;1;13.647859812210022
24;24;1445946053;2.13451886177;0.736177027225;0.0344312116504;0;True;0;1;13.647859812210022
25;25;1445946053;2.1344928741499998;0.736040651798;0.0344531275332;0;True;0;1;13.647859812210022
26;26;1445946053;2.13446950912;0.7360485196109999;0.034504495561099996;0;True;0;1;13.647859812210022
27;27;1445946053;2.13448691368;0.735988914967;0.0344405546784;0;True;0;1;13.647859812210022
28;28;1445946053;2.1345000267;0.736033856869;0.0344237238169;0;True;0;1;13.647859812210022
29;29;1445946053;2.13442564011;0.73595649004;0.0344673097134;0;True;0;1;13.647859812210022
30;30;1445946053;2.13433814049;0.7359484434129999;0.034560654312400005;0;True;0;1;13.647859812210022
31;31;1445946053;2.1345033645599996;0.736074984074;0.0344370938838;0;True;0;1;13.647859812210022
32;32;1445946053;2.1344037056;0.735934078693;0.034477554261699996;0;True;0;1;13.647859812210022
33;33;1445946053;2.1344628334;0.735949993134;0.0344467200339;0;True;0;1;13.647859812210022
34;34;1445946053;2.13441157341;0.735994815826;0.0344818048179;0;True;0;1;13.647859812210022
35;35;1445946053;2.13452601433;0.7360957264899999;0.0344120971859;0;True;0;1;13.647859812210022
36;36;1445946053;2.13453674316;0.736140012741;0.0343971177936;0;True;0;1;13.647859812210022
37;37;1445946053;2.13441419601;0.736008763313;0.034466706216300005;0;True;0;1;13.647859812210022
38;38;1445946053;2.1344373226199997;0.735937476158;0.034470532089499996;0;True;0;1;13.647859812210022
39;39;1445946053;2.13451385498;0.7360896468160001;0.0344001874328;0;True;0;1;13.647859812210022
40;40;1445946053;2.1344406604799997;0.735869467258;0.0345653146505;0;True;0;1;13.647859812210022
41;41;1445946053;2.13445186615;0.736037790775;0.034454688429800005;0;True;0;1;13.647859812210022
42;42;1445946053;2.1344673633599998;0.7360051870350001;0.034418683499099996;0;True;0;1;13.647859812210022
43;43;1445946053;2.13452982903;0.7361063361169999;0.03440836071969999;0;True;0;1;13.647859812210022
44;44;1445946053;2.13446140289;0.735951423645;0.0344405733049;0;True;0;1;13.647859812210022
45;45;1445946053;2.13451766968;0.7361783981319999;0.0344077609479;0;True;0;1;13.647859812210022
46;46;1445946053;2.13435173035;0.735923588276;0.034578174352599994;0;True;0;1;13.647859812210022
47;47;1445946053;2.13445520401;0.7359870672229999;0.034416180104;0;True;0;1;13.647859812210022
48;48;1445946053;2.1344840526599995;0.7360444068909999;0.0343981534243;0;True;0;1;13.647859812210022
49;49;1445946053;2.1344897747;0.7360327243800001;0.0344237312675;0;True;0;1;13.647859812210022
50;50;1445946053;2.13451123238;0.736142277718;0.0343875996768;0;True;0;1;13.647859812210022
51;51;1445946053;2.13447380066;0.736037671566;0.0343858972192;0;True;0;1;13.647859812210022
52;52;1445946053;2.13440275192;0.735939919949;0.0344301462173;0;True;0;1;13.647859812210022
53;53;1445946053;2.1345119476299996;0.7360881567;0.0343902111053;0;True;0;1;13.647859812210022
54;54;1445946053;2.1342728138;0.7359606027600001;0.0343809910119;0;True;0;1;13.647859812210022
55;55;1445946053;2.13447904587;0.7359970808030001;0.0343940630555;0;True;0;1;13.647859812210022
56;56;1445946053;2.13447713852;0.736163496971;0.0344047993422;0;True;0;1;13.647859812210022
57;57;1445946053;2.1344566345200002;0.7360469102860001;0.034457474947;0;True;0;1;13.647859812210022
58;58;1445946053;2.1342551708200004;0.735928297043;0.034502957016199994;0;True;0;1;13.647859812210022
59;59;1445946053;2.13425636292;0.7358557581899999;0.0344665311277;0;True;0;1;13.647859812210022
60;60;1445946053;2.13436794281;0.735926508904;0.034439813345699996;0;True;0;1;13.647859812210022
61;61;1445946053;2.13439249992;0.735951900482;0.0344373546541;0;True;0;1;13.647859812210022
62;62;1445946053;2.13446331024;0.736170113087;0.0343935675919;0;True;0;1;13.647859812210022
63;63;1445946053;2.13452553749;0.7361120581630001;0.034368555992800004;0;True;0;1;13.647859812210022
64;64;1445946053;2.1343975067099996;0.736008226871;0.034430615603900004;0;True;0;1;13.647859812210022
65;65;1445946053;2.1344842910799997;0.736065506935;0.034388508647699996;0;True;0;1;13.647859812210022
66;66;1445946053;2.13452529907;0.7361069321629999;0.034344758838400005;0;True;0;1;13.647859812210022
67;67;1445946053;2.13448524475;0.736046373844;0.034351184964200004;0;True;0;1;13.647859812210022
68;68;1445946053;2.13443517685;0.7360264062880001;0.0344484746456;0;True;0;1;13.647859812210022
69;69;1445946053;2.1344683170299996;0.7359693050380001;0.034376159310300004;0;True;0;1;13.647859812210022
70;70;1445946053;2.13439583778;0.7359944581990001;0.0344086661935;0;True;0;1;13.647859812210022
71;71;1445946053;2.1343677043900002;0.735942363739;0.0344226025045;0;True;0;1;13.647859812210022
72;72;1445946053;2.13449883461;0.7361223697660001;0.034349218010900004;0;True;0;1;13.647859812210022
73;73;1445946053;2.13452553749;0.736089110374;0.0343392938375;0;True;0;1;13.647859812210022
74;74;1445946053;2.13446569443;0.736033558846;0.034396275877999996;0;True;0;1;13.647859812210022
75;75;1445946053;2.13447904587;0.7360651493070001;0.0343847870827;0;True;0;1;13.647859812210022
76;76;1445946053;2.13451266289;0.736066579819;0.0343343392015;0;True;0;1;13.647859812210022
77;77;1445946053;2.13442754745;0.736011147499;0.0344083420932;0;True;0;1;13.647859812210022
78;78;1445946053;2.13441944122;0.736013829708;0.034377753734599996;0;True;0;1;13.647859812210022
79;79;1445946053;2.13446998596;0.736000359058;0.0343772657216;0;True;0;1;13.647859812210022
80;80;1445946053;2.13453412056;0.736078798771;0.0343360602856;0;True;0;1;13.647859812210022
81;81;1445946053;2.1344974040999998;0.7361189723010001;0.034362770617;0;True;0;1;13.647859812210022
82;82;1445946053;2.13452458382;0.736101984978;0.034345284104299996;0;True;0;1;13.647859812210022
83;83;1445946053;2.1345076561000003;0.736063182354;0.0343512296677;0;True;0;1;13.647859812210022
84;84;1445946053;2.13444018364;0.736063659191;0.03438911587;0;True;0;1;13.647859812210022
85;85;1445946053;2.1344842910799997;0.735957026482;0.0343453325331;0;True;0;1;13.647859812210022
86;86;1445946053;2.13448691368;0.736147940159;0.03437689691780001;0;True;0;1;13.647859812210022
87;87;1445946053;2.13438868523;0.73605209589;0.0344166792929;0;True;0;1;13.647859812210022
88;88;1445946053;2.1342689991;0.735854208469;0.034379575401499995;0;True;0;1;13.647859812210022
89;89;1445946053;2.13449811935;0.736002385616;0.034352209419;0;True;0;1;13.647859812210022
90;90;1445946053;2.1344912052200002;0.736028075218;0.034363090992;0;True;0;1;13.647859812210022
91;91;1445946053;2.13448643684;0.736164867878;0.0343873538077;0;True;0;1;13.647859812210022
92;92;1445946053;2.1344957351700002;0.735997438431;0.034373518079499996;0;True;0;1;13.647859812210022
93;93;1445946053;2.13452076912;0.736133038998;0.0343617722392;0;True;0;1;13.647859812210022
94;94;1445946053;2.13451623917;0.736179828644;0.034365430474300004;0;True;0;1;13.647859812210022
95;95;1445946053;2.13446378708;0.736119329929;0.0343707501888;0;True;0;1;13.647859812210022
96;96;1445946053;2.13453745842;0.736110508442;0.034367255866499996;0;True;0;1;13.647859812210022
97;97;1445946053;2.13446474075;0.736083388329;0.034401543438400004;0;True;0;1;13.647859812210022
98;98;1445946053;2.13449501991;0.736179709435;0.0343791618943;0;True;0;1;13.647859812210022
99;99;1445946053;2.13441252708;0.736006498337;0.0344192944467;0;True;0;1;13.647859812210022
100;100;1445946053;2.1344497203799997;0.735949337482;0.0344007872045;0;True;0;1;13.647859812210022
101;101;1445946053;2.13448262215;0.73601937294;0.0343562401831;0;True;0;1;13.647859812210022
102;102;1445946053;2.13424634933;0.7358593940729999;0.034389641135900005;0;True;0;1;13.647859812210022
103;103;1445946053;2.13442707062;0.736005008221;0.0344327092171;0;True;0;1;13.647859812210022
104;104;1445946053;2.13451313972;0.736048698425;0.034371431917;0;True;0;1;13.647859812210022
105;105;1445946053;2.1344661712599997;0.736067891121;0.0343921035528;0;True;0;1;13.647859812210022
106;106;1445946053;2.13431429863;0.735885858536;0.034634783864;0;True;0;1;13.647859812210022
107;107;1445946053;2.13454079628;0.736107826233;0.034379761666099996;0;True;0;1;13.647859812210022
108;108;1445946053;2.13447952271;0.736027598381;0.034379858523599996;0;True;0;1;13.647859812210022
109;109;1445946053;2.1344563961;0.7360001802439999;0.0344803929329;0;True;0;1;13.647859812210022
110;110;1445946053;2.13420391083;0.73581469059;0.0345244556665;0;True;0;1;13.647859812210022
111;111;1445946053;2.13442611694;0.7359401583670001;0.0344180949032;0;True;0;1;13.647859812210022
112;112;1445946053;2.1344933509799997;0.736029088497;0.03436101228;0;True;0;1;13.647859812210022
113;113;1445946053;2.1344919204700004;0.7361425757410001;0.0344210006297;0;True;0;1;13.647859812210022
114;114;1445946053;2.13445782661;0.735987663269;0.0344284139574;0;True;0;1;13.647859812210022
115;115;1445946053;2.13449978828;0.73615783453;0.0344220623374;0;True;0;1;13.647859812210022
116;116;1445946053;2.1345274448400002;0.7361350655560001;0.0343919768929;0;True;0;1;13.647859812210022
117;117;1445946053;2.13449692726;0.735946536064;0.0344100445509;0;True;0;1;13.647859812210022
118;118;1445946053;2.13453507423;0.736090183258;0.034398522228;0;True;0;1;13.647859812210022
119;119;1445946053;2.13445353508;0.735971152782;0.0344370082021;0;True;0;1;13.647859812210022
120;120;1445946053;2.1344802379599996;0.736015379429;0.034478895366199996;0;True;0;1;13.647859812210022
121;121;1445946053;2.13448905945;0.7359497547149999;0.034426078200300005;0;True;0;1;13.647859812210022
122;122;1445946053;2.1345198154400005;0.7361732721330001;0.0344099439681;0;True;0;1;13.647859812210022
123;123;1445946053;2.13451695442;0.736048042774;0.034402869641800005;0;True;0;1;13.647859812210022
124;124;1445946053;2.13445138931;0.735945522785;0.034443795681;0;True;0;1;13.647859812210022
125;125;1445946053;2.1342830658;0.735914766788;0.034601077437400006;0;True;0;1;13.647859812210022
126;126;1445946053;2.13445925713;0.735939145088;0.0344409160316;0;True;0;1;13.647859812210022
127;127;1445946053;2.13446807861;0.736007750034;0.0344781987369;0;True;0;1;13.647859812210022
128;128;1445946053;2.13450670242;0.736046254635;0.034393884241599997;0;True;0;1;13.647859812210022
129;129;1445946053;2.13446569443;0.7359824180600001;0.034425452351599994;0;True;0;1;13.647859812210022
130;130;1445946053;2.1344761848400005;0.735923707485;0.0344674251974;0;True;0;1;13.647859812210022
131;131;1445946053;2.13428997993;0.7358019948010001;0.0345086827874;0;True;0;1;13.647859812210022
132;132;1445946053;2.13447165489;0.736024677753;0.034444835037;0;True;0;1;13.647859812210022
133;133;1445946053;2.1345109939599998;0.735991477966;0.0344524569809;0;True;0;1;13.647859812210022
134;134;1445946053;2.1345238685599996;0.736017942429;0.0344073586166;0;True;0;1;13.647859812210022
135;135;1445946053;2.1342515945400002;0.735923826694;0.034589458257;0;True;0;1;13.647859812210022
136;136;1445946053;2.13448119164;0.736010074615;0.0344941951334;0;True;0;1;13.647859812210022
137;137;1445946053;2.1343410015099997;0.735849559307;0.0346580818295;0;True;0;1;13.647859812210022
138;138;1445946053;2.1345279216799997;0.73607313633;0.03440890088680001;0;True;0;1;13.647859812210022
139;139;1445946053;2.13450574875;0.73599922657;0.0344409123063;0;True;0;1;13.647859812210022
140;140;1445946053;2.1344985961900003;0.7359151244159999;0.0344258658588;0;True;0;1;13.647859812210022
141;141;1445946053;2.13450741768;0.7361202836040001;0.0344353057444;0;True;0;1;13.647859812210022
142;142;1445946053;2.1344549655900003;0.736010313034;0.0345128104091;0;True;0;1;13.647859812210022
143;143;1445946053;2.13448643684;0.735900580883;0.0344211384654;0;True;0;1;13.647859812210022
144;144;1445946053;2.13452553749;0.7360768318179999;0.034402422606900004;0;True;0;1;13.647859812210022
145;145;1445946053;2.1345059871700003;0.736003160477;0.034390404820400004;0;True;0;1;13.647859812210022
146;146;1445946053;2.13451433182;0.735914051533;0.0343963392079;0;True;0;1;13.647859812210022
147;147;1445946053;2.13451147079;0.736122906208;0.0344088859856;0;True;0;1;13.647859812210022
148;148;1445946053;2.1344723701499997;0.735949337482;0.0344194956124;0;True;0;1;13.647859812210022
149;149;1445946053;2.1345036029799997;0.7359631657600001;0.034366242587599995;0;True;0;1;13.647859812210022
150;150;1445946053;2.1345160007499997;0.736135423183;0.034390747547100003;0;True;0;1;13.647859812210022
151;151;1445946053;2.13449430466;0.736077964306;0.034406535327400005;0;True;0;1;13.647859812210022
152;152;1445946053;2.13443851471;0.736008942127;0.034423276782;0;True;0;1;13.647859812210022
153;153;1445946053;2.13450956345;0.7361027002330001;0.0344104468822;0;True;0;1;13.647859812210022
154;154;1445946053;2.1345098018599997;0.736007928848;0.03440227359530001;0;True;0;1;13.647859812210022
155;155;1445946053;2.13430833817;0.735900759697;0.034536395221899996;0;True;0;1;13.647859812210022
156;156;1445946053;2.13431620598;0.735881328583;0.0344600602984;0;True;0;1;13.647859812210022
157;157;1445946053;2.13452577591;0.736122310162;0.034383811056599996;0;True;0;1;13.647859812210022
158;158;1445946053;2.1344833374000003;0.7359983921050001;0.0343902558088;0;True;0;1;13.647859812210022
159;159;1445946053;2.1344423294099997;0.7359293699259999;0.0344407036901;0;True;0;1;13.647859812210022
160;160;1445946053;2.1345160007499997;0.736001491547;0.0343843065202;0;True;0;1;13.647859812210022
161;161;1445946053;2.13451957703;0.736042499542;0.0343942083418;0;True;0;1;13.647859812210022
162;162;1445946053;2.13428354263;0.735862910748;0.0346837192774;0;True;0;1;13.647859812210022
163;163;1445946053;2.13450789452;0.736024200916;0.0344053544104;0;True;0;1;13.647859812210022
164;164;1445946053;2.13450837135;0.735942006111;0.0343866199255;0;True;0;1;13.647859812210022
165;165;1445946053;2.1344723701499997;0.7359911799429999;0.0344701185822;0;True;0;1;13.647859812210022
166;166;1445946053;2.13446259499;0.73595392704;0.0344002954662;0;True;0;1;13.647859812210022
167;167;1445946053;2.13439965248;0.7359665632250001;0.0344454497099;0;True;0;1;13.647859812210022
168;168;1445946053;2.13451480865;0.736099898815;0.0343838259578;0;True;0;1;13.647859812210022
169;169;1445946053;2.1344714164700003;0.735949993134;0.0344091057777;0;True;0;1;13.647859812210022
170;170;1445946053;2.1342318058000003;0.7358283996580001;0.034585773944900006;0;True;0;1;13.647859812210022
171;171;1445946053;2.1344645023299997;0.735918581486;0.034417100250699995;0;True;0;1;13.647859812210022
172;172;1445946053;2.1345279216799997;0.736163556576;0.034380443394199996;0;True;0;1;13.647859812210022
173;173;1445946053;2.1343998909;0.735983252525;0.0344368852675;0;True;0;1;13.647859812210022
174;174;1445946053;2.13451576233;0.736067891121;0.0343709476292;0;True;0;1;13.647859812210022
175;175;1445946053;2.1344623565700003;0.735971212387;0.034401189535900004;0;True;0;1;13.647859812210022
176;176;1445946053;2.13444471359;0.735968828201;0.034440461546199994;0;True;0;1;13.647859812210022
177;177;1445946053;2.13454937935;0.73609495163;0.0343681275845;0;True;0;1;13.647859812210022
178;178;1445946053;2.13443589211;0.7359587550159999;0.0344122163951;0;True;0;1;13.647859812210022
179;179;1445946053;2.1344909668;0.7360289096829999;0.034382592886699995;0;True;0;1;13.647859812210022
180;180;1445946053;2.13431715965;0.7359189391140001;0.0345478132367;0;True;0;1;13.647859812210022
181;181;1445946053;2.13440060616;0.7359434962270001;0.0344407632947;0;True;0;1;13.647859812210022
182;182;1445946053;2.13439226151;0.736035108566;0.0344409421086;0;True;0;1;13.647859812210022
183;183;1445946053;2.13449501991;0.736118376255;0.0343721136451;0;True;0;1;13.647859812210022
184;184;1445946053;2.1344165802;0.735965132713;0.034400857985;0;True;0;1;13.647859812210022
185;185;1445946053;2.1344068050400002;0.7358835339550001;0.0343641974032;0;True;0;1;13.647859812210022
186;186;1445946053;2.1344499588;0.736084759235;0.034407697618;0;True;0;1;13.647859812210022
187;187;1445946053;2.13450288773;0.736173629761;0.034369226545099996;0;True;0;1;13.647859812210022
188;188;1445946053;2.1344919204700004;0.7360218763349999;0.0343720540404;0;True;0;1;13.647859812210022
189;189;1445946053;2.1344025135;0.736032545567;0.0344134382904;0;True;0;1;13.647859812210022
190;190;1445946053;2.1344730854;0.736020982265;0.0343793556094;0;True;0;1;13.647859812210022
191;191;1445946053;2.13442134857;0.73601526022;0.0344074293971;0;True;0;1;13.647859812210022
192;192;1445946053;2.13446760178;0.736172795296;0.0344016179442;0;True;0;1;13.647859812210022
193;193;1445946053;2.13445901871;0.736057281494;0.034407541155800005;0;True;0;1;13.647859812210022
194;194;1445946053;2.13449215889;0.7361395359039999;0.0343594253063;0;True;0;1;13.647859812210022
195;195;1445946053;2.1344575882;0.7359510064129999;0.0343839935958;0;True;0;1;13.647859812210022
196;196;1445946053;2.13444542885;0.7359803318979999;0.034362830221699996;0;True;0;1;13.647859812210022
197;197;1445946053;2.13449072838;0.7361950874330001;0.034372519701699994;0;True;0;1;13.647859812210022
198;198;1445946053;2.1344497203799997;0.7359512448309999;0.034406021237400004;0;True;0;1;13.647859812210022
199;199;1445946053;2.13443541527;0.735964000225;0.0343763977289;0;True;0;1;13.647859812210022
200;200;1445946053;2.13445615768;0.73616361618;0.034383248537800004;0;True;0;1;13.647859812210022
201;201;1445946053;2.13443875313;0.7360455989839999;0.0344503559172;0;True;0;1;13.647859812210022
202;202;1445946053;2.1344323158300003;0.735984325409;0.0343684218824;0;True;0;1;13.647859812210022
203;203;1445946053;2.13440704346;0.7359743714329999;0.0343986265361;0;True;0;1;13.647859812210022
204;204;1445946053;2.13438200951;0.7360265254970001;0.0344272479415;0;True;0;1;13.647859812210022
205;205;1445946053;2.13447761536;0.7360569238660001;0.034368682652699996;0;True;0;1;13.647859812210022
206;206;1445946053;2.13444280624;0.736031472683;0.034424748271699994;0;True;0;1;13.647859812210022
207;207;1445946053;2.13439249992;0.736030220985;0.03442479297519999;0;True;0;1;13.647859812210022
208;208;1445946053;2.13446855545;0.735963225365;0.0343839265406;0;True;0;1;13.647859812210022
209;209;1445946053;2.1345038414;0.736101686954;0.0343615375459;0;True;0;1;13.647859812210022
210;210;1445946053;2.13450407982;0.736135900021;0.034370467066800005;0;True;0;1;13.647859812210022
211;211;1445946053;2.13447499275;0.736051440239;0.034386627376099994;0;True;0;1;13.647859812210022
212;212;1445946054;2.1344928741499998;0.7361051440240001;0.0343808159232;1;True;0;1;13.647859812210022
213;213;1445946054;2.13450741768;0.736080467701;0.03436945378780001;1;True;0;1;13.647859812210022
214;214;1445946054;2.1345133781400003;0.7361162900920001;0.0343798361719;1;True;0;1;13.647859812210022
215;215;1445946054;2.13440513611;0.7359898090360001;0.0344429798424;1;True;0;1;13.647859812210022
216;216;1445946054;2.13452267647;0.736149251461;0.0343902222812;1;True;0;1;13.647859812210022
217;217;1445946054;2.13451743126;0.736147999763;0.0343880243599;1;True;0;1;13.647859812210022
218;218;1445946054;2.13450193405;0.7360494136810001;0.034404370933800006;1;True;0;1;13.647859812210022
219;219;1445946054;2.13452529907;0.736117005348;0.034387663006800004;1;True;0;1;13.647859812210022
220;220;1445946054;2.1345276832599995;0.736108601093;0.0343895889819;1;True;0;1;13.647859812210022
221;221;1445946054;2.13452172279;0.736022174358;0.03438378125430001;1;True;0;1;13.647859812210022
222;222;1445946054;2.13446640968;0.7360082864759999;0.0344393216074;1;True;0;1;13.647859812210022
223;223;1445946054;2.13451266289;0.736111223698;0.0343972928822;1;True;0;1;13.647859812210022
224;224;1445946054;2.13447904587;0.7359748482699999;0.034445066005000004;1;True;0;1;13.647859812210022
225;225;1445946054;2.13452076912;0.7360067367550001;0.034395266324300004;1;True;0;1;13.647859812210022
226;226;1445946054;2.1344180107099997;0.735885262489;0.0344840660691;1;True;0;1;13.647859812210022
227;227;1445946054;2.13443350792;0.735959529877;0.034455846995099994;1;True;0;1;13.647859812210022
228;228;1445946054;2.13428592682;0.7358293533329999;0.034454904496699995;1;True;0;1;13.647859812210022
229;229;1445946054;2.1344482898700003;0.735927581787;0.0344462022185;1;True;0;1;13.647859812210022
230;230;1445946054;2.13453030586;0.736148059368;0.034403711557400005;1;True;0;1;13.647859812210022
231;231;1445946054;2.13451004028;0.736110806465;0.0344263277948;1;True;0;1;13.647859812210022
232;232;1445946054;2.1342625618;0.7357790470119999;0.0345672816038;1;True;0;1;13.647859812210022
233;233;1445946054;2.1345489025099997;0.7361595630650001;0.03440823778509999;1;True;0;1;13.647859812210022
234;234;1445946054;2.1344802379599996;0.736024618149;0.0344333015382;1;True;0;1;13.647859812210022
235;235;1445946054;2.1344761848400005;0.736019968987;0.0344434864819;1;True;0;1;13.647859812210022
236;236;1445946054;2.1344666481;0.735917627811;0.034437462687499996;1;True;0;1;13.647859812210022
237;237;1445946054;2.1345140934;0.735904693604;0.03439685702319999;1;True;0;1;13.647859812210022
238;238;1445946054;2.13451123238;0.736006915569;0.0344355069101;1;True;0;1;13.647859812210022
239;239;1445946054;2.1344683170299996;0.735935807228;0.0344411842525;1;True;0;1;13.647859812210022
240;240;1445946054;2.13452887535;0.73610496521;0.034398760646599996;1;True;0;1;13.647859812210022
241;241;1445946054;2.1345331668900003;0.736095786095;0.034408301115;1;True;0;1;13.647859812210022
242;242;1445946054;2.1345517635299998;0.7361477613449999;0.0344097316265;1;True;0;1;13.647859812210022
243;243;1445946054;2.13446044922;0.735918998718;0.034441746771300005;1;True;0;1;13.647859812210022
244;244;1445946054;2.13453054428;0.735958874226;0.0344016179442;1;True;0;1;13.647859812210022
245;245;1445946054;2.1345715522799997;0.7360334992409999;0.0343869104981;1;True;0;1;13.647859812210022
246;246;1445946054;2.13445067406;0.7358911633490001;0.0344490073621;1;True;0;1;13.647859812210022
247;247;1445946054;2.1345517635299998;0.736124515533;0.034416899085;1;True;0;1;13.647859812210022
248;248;1445946054;2.1345820426900004;0.7360966205600001;0.0344007089734;1;True;0;1;13.647859812210022
249;249;1445946054;2.13450670242;0.735997617245;0.0344602614641;1;True;0;1;13.647859812210022
250;250;1445946054;2.13455510139;0.736134648323;0.0344191640615;1;True;0;1;13.647859812210022
251;251;1445946054;2.1345310211200004;0.736111164093;0.034439124167;1;True;0;1;13.647859812210022
252;252;1445946054;2.13453221321;0.7361113429070001;0.034407757222699994;1;True;0;1;13.647859812210022
253;253;1445946054;2.13448691368;0.7360305190090001;0.034446828067300005;1;True;0;1;13.647859812210022
254;254;1445946054;2.1345243454;0.7359933257100001;0.0344120375812;1;True;0;1;13.647859812210022
255;255;1445946054;2.13456869125;0.7360703349109999;0.0344113260508;1;True;0;1;13.647859812210022
256;256;1445946054;2.13446807861;0.73596072197;0.0344544574618;1;True;0;1;13.647859812210022
257;257;1445946054;2.1345517635299998;0.736093640327;0.0344017483294;1;True;0;1;13.647859812210022
258;258;1445946054;2.1345098018599997;0.7359959483149999;0.034447960555599996;1;True;0;1;13.647859812210022
259;259;1445946054;2.13456511497;0.736074864864;0.034406799822999996;1;True;0;1;13.647859812210022
260;260;1445946054;2.1344499588;0.7359189391140001;0.0344512574375;1;True;0;1;13.647859812210022
261;261;1445946054;2.13450431824;0.735983908176;0.0344196371734;1;True;0;1;13.647859812210022
262;262;1445946054;2.13446521759;0.735939443111;0.0344671010971;1;True;0;1;13.647859812210022
263;263;1445946054;2.1345279216799997;0.736041307449;0.0343963168561;1;True;0;1;13.647859812210022
264;264;1445946054;2.13455224037;0.7360202074050001;0.03440045565369999;1;True;0;1;13.647859812210022
265;265;1445946054;2.13452339172;0.736067473888;0.034408383071400005;1;True;0;1;13.647859812210022
266;266;1445946054;2.13440108299;0.73590695858;0.034490931779099995;1;True;0;1;13.647859812210022
267;267;1445946054;2.13432502747;0.735841929913;0.034727908670900004;1;True;0;1;13.647859812210022
268;268;1445946054;2.13456010818;0.736098647118;0.0343909151852;1;True;0;1;13.647859812210022
269;269;1445946054;2.1345229148900002;0.7359618544580001;0.03441816568369999;1;True;0;1;13.647859812210022
270;270;1445946054;2.1345307827;0.736164629459;0.0344152413309;1;True;0;1;13.647859812210022
271;271;1445946054;2.13450169563;0.736045777798;0.0344117246568;1;True;0;1;13.647859812210022
272;272;1445946054;2.13450694084;0.736013829708;0.034416787326300005;1;True;0;1;13.647859812210022
273;273;1445946054;2.13440346718;0.735985338688;0.0344613231719;1;True;0;1;13.647859812210022
274;274;1445946054;2.1344509124799997;0.735941767693;0.034468889236499996;1;True;0;1;13.647859812210022
275;275;1445946054;2.13427972794;0.735805094242;0.0345383398235;1;True;0;1;13.647859812210022
276;276;1445946054;2.1344640255000003;0.7359835505490001;0.034456226974699994;1;True;0;1;13.647859812210022
277;277;1445946054;2.13424372673;0.735778927803;0.0346599295735;1;True;0;1;13.647859812210022
278;278;1445946054;2.1344759464300003;0.735991954803;0.034393224865199995;1;True;0;1;13.647859812210022
279;279;1445946054;2.13448262215;0.735997676849;0.0344191864133;1;True;0;1;13.647859812210022
280;280;1445946054;2.13443136215;0.7359787821770001;0.0344363898039;1;True;0;1;13.647859812210022
281;281;1445946054;2.1344075202900004;0.7360217571259999;0.0344667844474;1;True;0;1;13.647859812210022
282;282;1445946054;2.1345229148900002;0.7361110448839999;0.0344039872289;1;True;0;1;13.647859812210022
283;283;1445946054;2.13449072838;0.736024320126;0.0344152636826;1;True;0;1;13.647859812210022
284;284;1445946054;2.13441205025;0.736018240452;0.034464135766;1;True;0;1;13.647859812210022
285;285;1445946054;2.13446784019;0.7360909581180001;0.034413468092699996;1;True;0;1;13.647859812210022
286;286;1445946054;2.1345045566599996;0.736177146435;0.034409254789400004;1;True;0;1;13.647859812210022
287;287;1445946054;2.13443088531;0.736060678959;0.034443560987699996;1;True;0;1;13.647859812210022
288;288;1445946054;2.1344220638299998;0.736024856567;0.0344722867012;1;True;0;1;13.647859812210022
289;289;1445946054;2.13449144363;0.736067593098;0.034402269869999995;1;True;0;1;13.647859812210022
290;290;1445946054;2.13447761536;0.736061453819;0.0344455987215;1;True;0;1;13.647859812210022
291;291;1445946054;2.13446044922;0.7359808683399999;0.034435402602;1;True;0;1;13.647859812210022
292;292;1445946054;2.13448786736;0.7361746430399999;0.0344222560525;1;True;0;1;13.647859812210022
293;293;1445946054;2.13447570801;0.736030817032;0.034439302980900005;1;True;0;1;13.647859812210022
294;294;1445946054;2.13452458382;0.736184239388;0.0343976505101;1;True;0;1;13.647859812210022
295;295;1445946054;2.13447070122;0.735944986343;0.0344300754368;1;True;0;1;13.647859812210022
296;296;1445946054;2.13451623917;0.736067533493;0.034409072250099995;1;True;0;1;13.647859812210022
297;297;1445946054;2.1345145702400004;0.7360691428180001;0.0343802645802;1;True;0;1;13.647859812210022
298;298;1445946054;2.13452219963;0.7361338734630001;0.034385923296199994;1;True;0;1;13.647859812210022
299;299;1445946054;2.13442158699;0.7360163927079999;0.034460816532400004;1;True;0;1;13.647859812210022
300;300;1445946054;2.13443088531;0.735960245132;0.034426946193;1;True;0;1;13.647859812210022
301;301;1445946054;2.1344959735900004;0.7360218167300001;0.034397270530500006;1;True;0;1;13.647859812210022
302;302;1445946054;2.13452339172;0.736188352108;0.0343820974231;1;True;0;1;13.647859812210022
303;303;1445946054;2.1345119476299996;0.736185312271;0.0343867875636;1;True;0;1;13.647859812210022
304;304;1445946054;2.13447356224;0.7359979152680001;0.0343964621425;1;True;0;1;13.647859812210022
305;305;1445946054;2.13447952271;0.735965669155;0.0344002768397;1;True;0;1;13.647859812210022
306;306;1445946054;2.13445901871;0.736003339291;0.0344705209136;1;True;0;1;13.647859812210022
307;307;1445946054;2.13442230225;0.7360217571259999;0.0344326272607;1;True;0;1;13.647859812210022
308;308;1445946054;2.13452100754;0.73613768816;0.0343787781894;1;True;0;1;13.647859812210022
309;309;1445946054;2.1344461441;0.735990643501;0.034406170249;1;True;0;1;13.647859812210022
310;310;1445946054;2.13453030586;0.7360993623729999;0.0343887247145;1;True;0;1;13.647859812210022
311;311;1445946054;2.1345410347;0.736103713512;0.034387581050400004;1;True;0;1;13.647859812210022
312;312;1445946054;2.13452553749;0.7360610365870001;0.034372262656699994;1;True;0;1;13.647859812210022
313;313;1445946054;2.13453125954;0.736098527908;0.03438437730069999;1;True;0;1;13.647859812210022
314;314;1445946054;2.13448929787;0.7359768748280001;0.0343768708408;1;True;0;1;13.647859812210022
315;315;1445946054;2.1342141628299998;0.7357672452930001;0.0344931297004;1;True;0;1;13.647859812210022
316;316;1445946054;2.13451957703;0.736175656319;0.0343734994531;1;True;0;1;13.647859812210022
317;317;1445946054;2.13447570801;0.735963404179;0.0343940705061;1;True;0;1;13.647859812210022
318;318;1445946054;2.1342909336099996;0.735856533051;0.034595400095;1;True;0;1;13.647859812210022
319;319;1445946054;2.1344957351700002;0.736111164093;0.0343676917255;1;True;0;1;13.647859812210022
320;320;1445946054;2.13447904587;0.7360054850579999;0.0343906506896;1;True;0;1;13.647859812210022
321;321;1445946054;2.13439488411;0.735942423344;0.0344303771853;1;True;0;1;13.647859812210022
322;322;1445946054;2.13452148438;0.7361116409299999;0.0343784801662;1;True;0;1;13.647859812210022
323;323;1445946054;2.1345052719099997;0.736084997654;0.0343943834305;1;True;0;1;13.647859812210022
324;324;1445946054;2.13445305824;0.7360951304440001;0.034411955624800004;1;True;0;1;13.647859812210022
325;325;1445946054;2.1344208717299997;0.735927224159;0.034435734152800004;1;True;0;1;13.647859812210022
326;326;1445946054;2.1344661712599997;0.736041843891;0.0344460234046;1;True;0;1;13.647859812210022
327;327;1445946054;2.13446927071;0.736049294472;0.0344211310148;1;True;0;1;13.647859812210022
328;328;1445946054;2.13441777229;0.7359372377399999;0.034433554858;1;True;0;1;13.647859812210022
329;329;1445946054;2.1344833374000003;0.7360190749169999;0.034390702843699994;1;True;0;1;13.647859812210022
330;330;1445946054;2.13447713852;0.7360842227940001;0.0343986898661;1;True;0;1;13.647859812210022
331;331;1445946054;2.1345310211200004;0.73616951704;0.0343868620694;1;True;0;1;13.647859812210022
332;332;1445946054;2.13444876671;0.7360700368880001;0.0344118773937;1;True;0;1;13.647859812210022
333;333;1445946054;2.13450622559;0.736036241055;0.034382753074199995;1;True;0;1;13.647859812210022
334;334;1445946054;2.13443207741;0.7359957695010001;0.034434709698;1;True;0;1;13.647859812210022
335;335;1445946054;2.13429832458;0.7358229756360001;0.0345519334078;1;True;0;1;13.647859812210022
336;336;1445946054;2.1345238685599996;0.7360795736310001;0.034379851073;1;True;0;1;13.647859812210022
337;337;1445946054;2.13452672958;0.7361637949940001;0.0343929342926;1;True;0;1;13.647859812210022
338;338;1445946054;2.1345200538599998;0.7360613346100001;0.0343910716474;1;True;0;1;13.647859812210022
339;339;1445946054;2.13449549675;0.736139714718;0.034402247518300004;1;True;0;1;13.647859812210022
340;340;1445946054;2.13449549675;0.736128985882;0.034426745027300004;1;True;0;1;13.647859812210022
341;341;1445946054;2.13442635536;0.735933542252;0.034441512078;1;True;0;1;13.647859812210022
342;342;1445946054;2.13452625275;0.7361243963240001;0.034381017088900005;1;True;0;1;13.647859812210022
343;343;1445946054;2.13425636292;0.7358366847040001;0.0344909355044;1;True;0;1;13.647859812210022
344;344;1445946054;2.1344985961900003;0.736023306847;0.034422963857699995;1;True;0;1;13.647859812210022
345;345;1445946054;2.1344974040999998;0.735888957977;0.0345656946301;1;True;0;1;13.647859812210022
346;346;1445946054;2.13432478905;0.735912084579;0.0347410142422;1;True;0;1;13.647859812210022
347;347;1445946054;2.13450932503;0.7360237240790001;0.0344420522451;1;True;0;1;13.647859812210022
348;348;1445946054;2.13449645042;0.736013531685;0.0343990586698;1;True;0;1;13.647859812210022
349;349;1445946054;2.13428759575;0.73592877388;0.034480120986699996;1;True;0;1;13.647859812210022
350;350;1445946054;2.13446807861;0.7359291315080001;0.0344346798956;1;True;0;1;13.647859812210022
351;351;1445946054;2.1344225406599997;0.7359837889669999;0.0344495773315;1;True;0;1;13.647859812210022
352;352;1445946054;2.13447570801;0.7359481453899999;0.0344269052148;1;True;0;1;13.647859812210022
353;353;1445946054;2.13445925713;0.735962927341;0.0344391092658;1;True;0;1;13.647859812210022
354;354;1445946054;2.1344606876400003;0.735949337482;0.0344314835966;1;True;0;1;13.647859812210022
355;355;1445946054;2.13450884819;0.735948085785;0.0344228595495;1;True;0;1;13.647859812210022
356;356;1445946054;2.1345283985099996;0.7360421419140001;0.0343971550465;1;True;0;1;13.647859812210022
357;357;1445946054;2.13447451591;0.736045658588;0.034449420869400005;1;True;0;1;13.647859812210022
358;358;1445946054;2.1345295906099997;0.736157119274;0.0344007313251;1;True;0;1;13.647859812210022
359;359;1445946054;2.1345000267;0.7361435294149999;0.034447543323;1;True;0;1;13.647859812210022
360;360;1445946054;2.13448548317;0.736139595509;0.0344473794103;1;True;0;1;13.647859812210022
361;361;1445946054;2.13450741768;0.73615193367;0.0344309397042;1;True;0;1;13.647859812210022
362;362;1445946054;2.13450098038;0.735975623131;0.0343934632838;1;True;0;1;13.647859812210022
363;363;1445946054;2.13444471359;0.736049234867;0.034448321908699994;1;True;0;1;13.647859812210022
364;364;1445946054;2.13448047638;0.7358890175820001;0.0344090461731;1;True;0;1;13.647859812210022
365;365;1445946054;2.1345238685599996;0.736166834831;0.0344224013388;1;True;0;1;13.647859812210022
366;366;1445946054;2.13447499275;0.736003220081;0.034412328153800006;1;True;0;1;13.647859812210022
367;367;1445946054;2.13452219963;0.736089110374;0.0344132035971;1;True;0;1;13.647859812210022
368;368;1445946054;2.13445973396;0.736054062843;0.0344170294702;1;True;0;1;13.647859812210022
369;369;1445946054;2.1345236301400003;0.736166894436;0.0344133339822;1;True;0;1;13.647859812210022
370;370;1445946054;2.13451242447;0.735996425152;0.0344032533467;1;True;0;1;13.647859812210022
371;371;1445946054;2.13429784775;0.735858082771;0.0346437655389;1;True;0;1;13.647859812210022
372;372;1445946054;2.1345243454;0.736068487167;0.0343979671597;1;True;0;1;13.647859812210022
373;373;1445946054;2.13438653946;0.7360201478;0.034480459988099996;1;True;0;1;13.647859812210022
374;374;1445946054;2.13448691368;0.7361598610879999;0.0344374515116;1;True;0;1;13.647859812210022
375;375;1445946054;2.13452029228;0.7361735105509999;0.0344091765583;1;True;0;1;13.647859812210022
376;376;1445946054;2.13449764252;0.736045360565;0.034405175596500005;1;True;0;1;13.647859812210022
377;377;1445946054;2.1345205307;0.736176073551;0.0344057455659;1;True;0;1;13.647859812210022
378;378;1445946054;2.13440704346;0.73601013422;0.0344768427312;1;True;0;1;13.647859812210022
379;379;1445946054;2.1344511508900004;0.735933244228;0.034443385899099996;1;True;0;1;13.647859812210022
380;380;1445946054;2.13451290131;0.7361459732060001;0.0344139486551;1;True;0;1;13.647859812210022
381;381;1445946054;2.13439154625;0.735936403275;0.034468725323699996;1;True;0;1;13.647859812210022
382;382;1445946054;2.1344871521;0.7359674572939999;0.0344279408455;1;True;0;1;13.647859812210022
383;383;1445946054;2.13446760178;0.736088991165;0.0345224626362;1;True;0;1;13.647859812210022
384;384;1445946054;2.13441181183;0.736005961895;0.0344650670886;1;True;0;1;13.647859812210022
385;385;1445946054;2.13451170921;0.736151993275;0.0344104245305;1;True;0;1;13.647859812210022
386;386;1445946054;2.13448190689;0.736069977283;0.0344441756606;1;True;0;1;13.647859812210022
387;387;1445946054;2.13450860977;0.736169099808;0.0344034433365;1;True;0;1;13.647859812210022
388;388;1445946054;2.1344845295;0.73604786396;0.0344115048647;1;True;0;1;13.647859812210022
389;389;1445946054;2.13451123238;0.7360749244689999;0.034422315657099994;1;True;0;1;13.647859812210022
390;390;1445946054;2.13451123238;0.7361735701559999;0.0344135612249;1;True;0;1;13.647859812210022
391;391;1445946054;2.13452529907;0.736080527306;0.0343919284642;1;True;0;1;13.647859812210022
392;392;1445946054;2.13436794281;0.735966622829;0.034486252814500004;1;True;0;1;13.647859812210022
393;393;1445946054;2.1344668865200003;0.736071586609;0.034450791776199995;1;True;0;1;13.647859812210022
394;394;1445946054;2.1343767643000002;0.735966384411;0.0344315730035;1;True;0;1;13.647859812210022
395;395;1445946054;2.13452529907;0.7361258268359999;0.0343934111297;1;True;0;1;13.647859812210022
396;396;1445946054;2.13446307182;0.73597663641;0.0344193391502;1;True;0;1;13.647859812210022
397;397;1445946054;2.1345045566599996;0.736135840416;0.0343878939748;1;True;0;1;13.647859812210022
398;398;1445946054;2.1344087123900004;0.736011207104;0.03445408493280001;1;True;0;1;13.647859812210022
399;399;1445946054;2.13439202309;0.7358347773549999;0.034397579729599996;1;True;0;1;13.647859812210022
400;400;1445946054;2.1344895362900003;0.736132323742;0.0343929603696;1;True;0;1;13.647859812210022
401;401;1445946054;2.13443613052;0.73586833477;0.0345322825015;1;True;0;1;13.647859812210022
402;402;1445946054;2.1345012188;0.736069738865;0.0344098471105;1;True;0;1;13.647859812210022
403;403;1445946054;2.1344974040999998;0.736139595509;0.034391488879900005;1;True;0;1;13.647859812210022
404;404;1445946054;2.13450670242;0.736198365688;0.034388765692699996;1;True;0;1;13.647859812210022
405;405;1445946054;2.13444948196;0.736089348793;0.034478716552300004;1;True;0;1;13.647859812210022
406;406;1445946054;2.13427186012;0.735928237438;0.034442830830800006;1;True;0;1;13.647859812210022
407;407;1445946054;2.13446116447;0.7359202504160001;0.0345048867166;1;True;0;1;13.647859812210022
408;408;1445946054;2.1345109939599998;0.7359401583670001;0.0344156846404;1;True;0;1;13.647859812210022
409;409;1445946054;2.13439631462;0.7359590530399999;0.034432288259300003;1;True;0;1;13.647859812210022
410;410;1445946054;2.1344933509799997;0.7361611723899999;0.034401506185499996;1;True;0;1;13.647859812210022
411;411;1445946054;2.13448762894;0.7360557317730001;0.0343708507717;1;True;0;1;13.647859812210022
412;412;1445946054;2.13447952271;0.7360599040989999;0.034410610795;1;True;0;1;13.647859812210022
413;413;1445946054;2.13449311256;0.736046671867;0.034367673099000004;1;True;0;1;13.647859812210022
414;414;1445946054;2.1344032287599997;0.736015975475;0.034432645887099995;1;True;0;1;13.647859812210022
415;415;1445946054;2.13451170921;0.736132085323;0.0343565121293;1;True;0;1;13.647859812210022
416;416;1445946054;2.1344792842900002;0.7360519170759999;0.034369733184599995;1;True;0;1;13.647859812210022
417;417;1445946054;2.13442158699;0.736090302467;0.0344145894051;1;True;0;1;13.647859812210022
418;418;1445946054;2.13451266289;0.736109614372;0.0343644358218;1;True;0;1;13.647859812210022
419;419;1445946054;2.13451385498;0.736118018627;0.034363806247699996;1;True;0;1;13.647859812210022
420;420;1445946054;2.13451075554;0.7361211776729999;0.034361414611300004;1;True;0;1;13.647859812210022
421;421;1445946054;2.13447713852;0.736143112183;0.0343645736575;1;True;0;1;13.647859812210022
422;422;1445946054;2.1344461441;0.73604875803;0.034417040646099996;1;True;0;1;13.647859812210022
423;423;1445946054;2.13438391685;0.7359448671340001;0.0344181805849;1;True;0;1;13.647859812210022
424;424;1445946054;2.13448762894;0.735968470573;0.0343678668141;1;True;0;1;13.647859812210022
425;425;1445946054;2.1344928741499998;0.736125409603;0.0343625061214;1;True;0;1;13.647859812210022
426;426;1445946054;2.13448262215;0.736150622368;0.0343591757119;1;True;0;1;13.647859812210022
427;427;1445946054;2.13452410698;0.7360966205600001;0.034344848245399996;1;True;0;1;13.647859812210022
428;428;1445946054;2.13451743126;0.7361841201780001;0.0343639738858;1;True;0;1;13.647859812210022
429;429;1445946054;2.1345274448400002;0.736127495766;0.0343489423394;1;True;0;1;13.647859812210022
430;430;1445946054;2.13444209099;0.736084878445;0.03451535478230001;1;True;0;1;13.647859812210022
431;431;1445946054;2.13447260857;0.736137568951;0.0343757867813;1;True;0;1;13.647859812210022
432;432;1445946054;2.1343259811400004;0.735924959183;0.034467514604300004;1;True;0;1;13.647859812210022
433;433;1445946054;2.13430356979;0.7358698248860001;0.034548658877599996;1;True;0;1;13.647859812210022
434;434;1445946054;2.1344959735900004;0.735976994038;0.0343647040427;1;True;0;1;13.647859812210022
435;435;1445946054;2.13451862335;0.7360925078389999;0.0343703739345;1;True;0;1;13.647859812210022
436;436;1445946054;2.13443446159;0.735945403576;0.0343998149037;1;True;0;1;13.647859812210022
437;437;1445946054;2.13450741768;0.736158132553;0.0343646779656;1;True;0;1;13.647859812210022
438;438;1445946054;2.13440513611;0.736038565636;0.0344454646111;1;True;0;1;13.647859812210022
439;439;1445946054;2.1344809532199998;0.73597162962;0.0343884080648;1;True;0;1;13.647859812210022
440;440;1445946054;2.1345345974;0.736093580723;0.0343660414219;1;True;0;1;13.647859812210022
441;441;1445946054;2.13438439369;0.7358765006069999;0.0344732925296;1;True;0;1;13.647859812210022
442;442;1445946054;2.13442611694;0.735963582993;0.0344219580293;1;True;0;1;13.647859812210022
443;443;1445946054;2.1344718933099998;0.7359789013860001;0.034402914345300004;1;True;0;1;13.647859812210022
444;444;1445946054;2.13448309898;0.736028194427;0.0343810617924;1;True;0;1;13.647859812210022
445;445;1445946054;2.13445472717;0.7359329462049999;0.03440802171830001;1;True;0;1;13.647859812210022
446;446;1445946054;2.13431978226;0.735885381699;0.0345598384738;1;True;0;1;13.647859812210022
447;447;1445946054;2.13447070122;0.736017823219;0.0344150662422;1;True;0;1;13.647859812210022
448;448;1445946054;2.1344661712599997;0.736001849174;0.0343742370605;1;True;0;1;13.647859812210022
449;449;1445946054;2.1344645023299997;0.736010551453;0.0344239734113;1;True;0;1;13.647859812210022
450;450;1445946054;2.1344704628;0.7359627485279999;0.0343945175409;1;True;0;1;13.647859812210022
451;451;1445946055;2.13443350792;0.735940873623;0.0344390049577;2;True;0;1;13.647859812210022
452;452;1445946055;2.13441109657;0.7359783649439999;0.034457791596699996;2;True;0;1;13.647859812210022
453;453;1445946055;2.13448858261;0.7361195683480001;0.0344007872045;2;True;0;1;13.647859812210022
454;454;1445946055;2.13446521759;0.736006200314;0.0344205051661;2;True;0;1;13.647859812210022
455;455;1445946055;2.13450860977;0.7361175417899999;0.0343937724829;2;True;0;1;13.647859812210022
456;456;1445946055;2.13450050354;0.736116528511;0.0344148799777;2;True;0;1;13.647859812210022
457;457;1445946055;2.1344871521;0.73612600565;0.034406665712599996;2;True;0;1;13.647859812210022
458;458;1445946055;2.1344537734999998;0.7360353469850001;0.034444134682400006;2;True;0;1;13.647859812210022
459;459;1445946055;2.13449645042;0.736018240452;0.0344119928777;2;True;0;1;13.647859812210022
460;460;1445946055;2.13452553749;0.736063420773;0.034415349364300005;2;True;0;1;13.647859812210022
461;461;1445946055;2.13450026512;0.7361208796500001;0.0344358123839;2;True;0;1;13.647859812210022
462;462;1445946055;2.13440656662;0.735994338989;0.0344843380153;2;True;0;1;13.647859812210022
463;463;1445946055;2.13452601433;0.735950469971;0.0344018191099;2;True;0;1;13.647859812210022
464;464;1445946055;2.13448810577;0.736004114151;0.0344523116946;2;True;0;1;13.647859812210022
465;465;1445946055;2.13438653946;0.735884785652;0.034488938748800005;2;True;0;1;13.647859812210022
466;466;1445946055;2.13450431824;0.7359603643420001;0.0344036407769;2;True;0;1;13.647859812210022
467;467;1445946055;2.13449907303;0.736004829407;0.034423314034899996;2;True;0;1;13.647859812210022
468;468;1445946055;2.1344940662400003;0.735997319221;0.0344743467867;2;True;0;1;13.647859812210022
469;469;1445946055;2.13451266289;0.735972285271;0.034425474703300006;2;True;0;1;13.647859812210022
470;470;1445946055;2.13440537453;0.735894501209;0.0344861187041;2;True;0;1;13.647859812210022
471;471;1445946055;2.13441610336;0.735798418522;0.034455105662300006;2;True;0;1;13.647859812210022
472;472;1445946055;2.1345295906099997;0.73610574007;0.0344085842371;2;True;0;1;13.647859812210022
473;473;1445946055;2.13437986374;0.735736787319;0.0344671010971;2;True;0;1;13.647859812210022
474;474;1445946055;2.13439655304;0.7358728051189999;0.0344977006316;2;True;0;1;13.647859812210022
475;475;1445946055;2.13447284698;0.735956132412;0.0344363152981;2;True;0;1;13.647859812210022
476;476;1445946055;2.13451313972;0.736001014709;0.0344491899014;2;True;0;1;13.647859812210022
477;477;1445946055;2.13453388214;0.735940992832;0.0343937985599;2;True;0;1;13.647859812210022
478;478;1445946055;2.1345500946000002;0.736061275005;0.03440303727980001;2;True;0;1;13.647859812210022
479;479;1445946055;2.13451623917;0.736112833023;0.034407846629599996;2;True;0;1;13.647859812210022
480;480;1445946055;2.1344940662400003;0.735919773579;0.0343950390816;2;True;0;1;13.647859812210022
481;481;1445946055;2.1345443725599997;0.736095964909;0.0343969017267;2;True;0;1;13.647859812210022
482;482;1445946055;2.13452339172;0.735999703407;0.034402694553099994;2;True;0;1;13.647859812210022
483;483;1445946055;2.13446521759;0.7358853220939999;0.034461542963999996;2;True;0;1;13.647859812210022
484;484;1445946055;2.13456940651;0.736027240753;0.034386601299;2;True;0;1;13.647859812210022
485;485;1445946055;2.13452148438;0.735990524292;0.0343998968601;2;True;0;1;13.647859812210022
486;486;1445946055;2.13447260857;0.7359728217120001;0.034486539661900004;2;True;0;1;13.647859812210022
487;487;1445946055;2.13453269005;0.7361052632330001;0.0344174131751;2;True;0;1;13.647859812210022
488;488;1445946055;2.1345331668900003;0.736109793186;0.0344197712839;2;True;0;1;13.647859812210022
489;489;1445946055;2.1343214511900004;0.735794782639;0.0345106944442;2;True;0;1;13.647859812210022
490;490;1445946055;2.13451313972;0.7359728813169999;0.034417659044300004;2;True;0;1;13.647859812210022
491;491;1445946055;2.1342916488599997;0.735867679119;0.0345820337534;2;True;0;1;13.647859812210022
492;492;1445946055;2.1345279216799997;0.736012220383;0.0344093181193;2;True;0;1;13.647859812210022
493;493;1445946055;2.13455486298;0.736052274704;0.0343942940235;2;True;0;1;13.647859812210022
494;494;1445946055;2.13455247879;0.73607635498;0.0343768820167;2;True;0;1;13.647859812210022
495;495;1445946055;2.13455915451;0.7360252737999999;0.0343822240829;2;True;0;1;13.647859812210022
496;496;1445946055;2.1345229148900002;0.736005008221;0.0344718620181;2;True;0;1;13.647859812210022
497;497;1445946055;2.13455462456;0.736055672169;0.034386083483699995;2;True;0;1;13.647859812210022
498;498;1445946055;2.13452935219;0.7361195683480001;0.03440254181619999;2;True;0;1;13.647859812210022
499;499;1445946055;2.1344947814900004;0.735928654671;0.0344065725803;2;True;0;1;13.647859812210022
500;500;1445946055;2.1345236301400003;0.735938251019;0.034373261034499995;2;True;0;1;13.647859812210022
501;501;1445946055;2.13445520401;0.736020803452;0.0344380028546;2;True;0;1;13.647859812210022
502;502;1445946055;2.13446211815;0.73589104414;0.0344313941896;2;True;0;1;13.647859812210022
503;503;1445946055;2.13448572159;0.735947906971;0.0344151817262;2;True;0;1;13.647859812210022
504;504;1445946055;2.13451647758;0.736007511616;0.0344098247588;2;True;0;1;13.647859812210022
505;505;1445946055;2.13453412056;0.736088216305;0.034377444535500006;2;True;0;1;13.647859812210022
506;506;1445946055;2.13452625275;0.736091315746;0.0343798995018;2;True;0;1;13.647859812210022
507;507;1445946055;2.13450288773;0.736001729965;0.0343813598156;2;True;0;1;13.647859812210022
508;508;1445946055;2.13439297676;0.73596984148;0.0344450138509;2;True;0;1;13.647859812210022
509;509;1445946055;2.13437128067;0.7358750104899999;0.0344809144735;2;True;0;1;13.647859812210022
510;510;1445946055;2.13449883461;0.7361282706260001;0.0343866832554;2;True;0;1;13.647859812210022
511;511;1445946055;2.13441824913;0.735909819603;0.0344373658299;2;True;0;1;13.647859812210022
512;512;1445946055;2.13446044922;0.7359762787819999;0.0343970134854;2;True;0;1;13.647859812210022
513;513;1445946055;2.13438439369;0.735902249813;0.034437887370599995;2;True;0;1;13.647859812210022
514;514;1445946055;2.1344928741499998;0.7360504865649999;0.0344046913087;2;True;0;1;13.647859812210022
515;515;1445946055;2.1344799995400003;0.736008226871;0.0343949459493;2;True;0;1;13.647859812210022
516;516;1445946055;2.13447070122;0.7360960245129999;0.0344110950828;2;True;0;1;13.647859812210022
517;517;1445946055;2.1344571113599997;0.7359837889669999;0.0344105772674;2;True;0;1;13.647859812210022
518;518;1445946055;2.13450717926;0.7360966205600001;0.034368682652699996;2;True;0;1;13.647859812210022
519;519;1445946055;2.13449430466;0.736132919788;0.0343846194446;2;True;0;1;13.647859812210022
520;520;1445946055;2.1344673633599998;0.7361272573469999;0.0343826822937;2;True;0;1;13.647859812210022
521;521;1445946055;2.13436579704;0.7359192371369999;0.0344521924853;2;True;0;1;13.647859812210022
522;522;1445946055;2.1344792842900002;0.7360668182369999;0.034373130649300004;2;True;0;1;13.647859812210022
523;523;1445946055;2.1343829631799998;0.7360405921940001;0.0344525165856;2;True;0;1;13.647859812210022
524;524;1445946055;2.1344525814099997;0.736153006554;0.0343919545412;2;True;0;1;13.647859812210022
525;525;1445946055;2.13437604904;0.735970914364;0.034443423152000004;2;True;0;1;13.647859812210022
526;526;1445946055;2.13438272476;0.735944628716;0.034423436969499996;2;True;0;1;13.647859812210022
527;527;1445946055;2.13446044922;0.736121535301;0.034382842481100004;2;True;0;1;13.647859812210022
528;528;1445946055;2.13449645042;0.736126720905;0.0343644656241;2;True;0;1;13.647859812210022
529;529;1445946055;2.13446569443;0.7360278964040001;0.0343862473965;2;True;0;1;13.647859812210022
530;530;1445946055;2.1344492435499998;0.7359617948530001;0.0343778021634;2;True;0;1;13.647859812210022
531;531;1445946055;2.13439917564;0.73600256443;0.03443714603780001;2;True;0;1;13.647859812210022
532;532;1445946055;2.13447952271;0.736062467098;0.0343674644828;2;True;0;1;13.647859812210022
533;533;1445946055;2.13448357582;0.736077964306;0.034386649727800006;2;True;0;1;13.647859812210022
534;534;1445946055;2.1344373226199997;0.735996723175;0.034381467849;2;True;0;1;13.647859812210022
535;535;1445946055;2.13446807861;0.7360094785690001;0.0344420261681;2;True;0;1;13.647859812210022
536;536;1445946055;2.13436889648;0.7359708547589999;0.03446224704380001;2;True;0;1;13.647859812210022
537;537;1445946055;2.13449788094;0.7361076474189999;0.0343625172973;2;True;0;1;13.647859812210022
538;538;1445946055;2.1344792842900002;0.736149728298;0.0343683734536;2;True;0;1;13.647859812210022
539;539;1445946055;2.13446187973;0.7360188961030001;0.034363884478800004;2;True;0;1;13.647859812210022
540;540;1445946055;2.13448500633;0.736173152924;0.0343745015562;2;True;0;1;13.647859812210022
541;541;1445946055;2.13439178467;0.7360084056849999;0.0344327352941;2;True;0;1;13.647859812210022
542;542;1445946055;2.13442015648;0.7359490394589999;0.034406788647199996;2;True;0;1;13.647859812210022
543;543;1445946055;2.13446497917;0.7359896898270001;0.0344052501023;2;True;0;1;13.647859812210022
544;544;1445946055;2.1344566345200002;0.736054897308;0.03440617397430001;2;True;0;1;13.647859812210022
545;545;1445946055;2.13444852829;0.735974729061;0.0343768000603;2;True;0;1;13.647859812210022
546;546;1445946055;2.13445520401;0.736076295376;0.0343910455704;2;True;0;1;13.647859812210022
547;547;1445946055;2.13449048996;0.736143350601;0.03437189757819999;2;True;0;1;13.647859812210022
548;548;1445946055;2.13443946838;0.7360394001010001;0.0344369634986;2;True;0;1;13.647859812210022
549;549;1445946055;2.13445854187;0.7360007762909999;0.0343923084438;2;True;0;1;13.647859812210022
550;550;1445946055;2.1344497203799997;0.7359544038770001;0.03441387414930001;2;True;0;1;13.647859812210022
551;551;1445946055;2.13442850113;0.7359388470649999;0.034413784742400005;2;True;0;1;13.647859812210022
552;552;1445946055;2.13445615768;0.736063480377;0.0344068780541;2;True;0;1;13.647859812210022
553;553;1445946055;2.13445591927;0.7361533641820001;0.034417297691099996;2;True;0;1;13.647859812210022
554;554;1445946055;2.13446307182;0.7361169457439999;0.034370306879300004;2;True;0;1;13.647859812210022
555;555;1445946055;2.13439631462;0.7360184788699999;0.034444022923699996;2;True;0;1;13.647859812210022
556;556;1445946055;2.13445806503;0.7358754873280001;0.034827351570099994;2;True;0;1;13.647859812210022
557;557;1445946055;2.13446521759;0.7360329031939999;0.0344805791974;2;True;0;1;13.647859812210022
558;558;1445946055;2.13440847397;0.7360168099400001;0.0344552770257;2;True;0;1;13.647859812210022
559;559;1445946055;2.1344666481;0.7360637784;0.0344218760729;2;True;0;1;13.647859812210022
560;560;1445946055;2.13439893723;0.73602026701;0.03444723039869999;2;True;0;1;13.647859812210022
561;561;1445946055;2.13441967964;0.736002862453;0.0344369672239;2;True;0;1;13.647859812210022
562;562;1445946055;2.13452196121;0.736111879349;0.034389257431;2;True;0;1;13.647859812210022
563;563;1445946055;2.13439798355;0.736010253429;0.0344315730035;2;True;0;1;13.647859812210022
564;564;1445946055;2.13448262215;0.73605889082;0.034402128308999996;2;True;0;1;13.647859812210022
565;565;1445946055;2.13452649117;0.736092090607;0.0343765579164;2;True;0;1;13.647859812210022
566;566;1445946055;2.1344845295;0.736040234566;0.03439041599630001;2;True;0;1;13.647859812210022
567;567;1445946055;2.13448143005;0.7360448837279999;0.0344360917807;2;True;0;1;13.647859812210022
568;568;1445946055;2.13452649117;0.7359481453899999;0.0344232581556;2;True;0;1;13.647859812210022
569;569;1445946055;2.1344668865200003;0.7359912395479999;0.0344395712018;2;True;0;1;13.647859812210022
570;570;1445946055;2.13452601433;0.7361029386519999;0.034402243793;2;True;0;1;13.647859812210022
571;571;1445946055;2.13453555107;0.736124575138;0.034401666373;2;True;0;1;13.647859812210022
572;572;1445946055;2.13448166847;0.735981047153;0.03441375121469999;2;True;0;1;13.647859812210022
573;573;1445946055;2.13449931145;0.735967040062;0.0344080850482;2;True;0;1;13.647859812210022
574;574;1445946055;2.13450145721;0.73603028059;0.0344402305782;2;True;0;1;13.647859812210022
575;575;1445946055;2.1345410347;0.736193537712;0.034401483833800005;2;True;0;1;13.647859812210022
576;576;1445946055;2.13443946838;0.7360231876369999;0.0344443172216;2;True;0;1;13.647859812210022
577;577;1445946055;2.13454055786;0.736105024815;0.034395888447800005;2;True;0;1;13.647859812210022
578;578;1445946055;2.1344537734999998;0.7360877394679999;0.0344438366592;2;True;0;1;13.647859812210022
579;579;1445946055;2.1344594955400003;0.735976040363;0.0344424657524;2;True;0;1;13.647859812210022
580;580;1445946055;2.13445925713;0.7359834909440001;0.034471388906199996;2;True;0;1;13.647859812210022
581;581;1445946055;2.13451695442;0.7361357808110001;0.0344021394849;2;True;0;1;13.647859812210022
582;582;1445946055;2.13448309898;0.7360373139380001;0.0344166047871;2;True;0;1;13.647859812210022
583;583;1445946055;2.13450288773;0.736155629158;0.034413501620300005;2;True;0;1;13.647859812210022
584;584;1445946055;2.13452935219;0.7361402511599999;0.0344004146755;2;True;0;1;13.647859812210022
585;585;1445946055;2.1344025135;0.736002147198;0.0344741307199;2;True;0;1;13.647859812210022
586;586;1445946055;2.13449954987;0.736049175262;0.0344407744706;2;True;0;1;13.647859812210022
587;587;1445946055;2.13440442085;0.735999703407;0.0344803966582;2;True;0;1;13.647859812210022
588;588;1445946055;2.13450694084;0.736083328724;0.034407492727;2;True;0;1;13.647859812210022
589;589;1445946055;2.13449001312;0.736038684845;0.0344210229814;2;True;0;1;13.647859812210022
590;590;1445946055;2.13446950912;0.735955893993;0.0344421863556;2;True;0;1;13.647859812210022
591;591;1445946055;2.13449311256;0.736111104488;0.0344096086919;2;True;0;1;13.647859812210022
592;592;1445946055;2.13443470001;0.7360070943829999;0.034511417150500004;2;True;0;1;13.647859812210022
593;593;1445946055;2.13446998596;0.736042261124;0.034493729472199995;2;True;0;1;13.647859812210022
594;594;1445946055;2.13448357582;0.736040949821;0.0344076789916;2;True;0;1;13.647859812210022
595;595;1445946055;2.13445901871;0.736056864262;0.0344544127584;2;True;0;1;13.647859812210022
596;596;1445946055;2.13452672958;0.7361752986910001;0.0344034582376;2;True;0;1;13.647859812210022
597;597;1445946055;2.1345152854900005;0.7361694574359999;0.034413304179899996;2;True;0;1;13.647859812210022
598;598;1445946055;2.1344704628;0.735999405384;0.0344181880355;2;True;0;1;13.647859812210022
599;599;1445946055;2.13445401192;0.735977351665;0.034436941146900005;2;True;0;1;13.647859812210022
600;600;1445946055;2.13446116447;0.735909104347;0.034403298050199996;2;True;0;1;13.647859812210022
601;601;1445946055;2.13446259499;0.7359651923180001;0.0344220101833;2;True;0;1;13.647859812210022
602;602;1445946055;2.13447809219;0.7360250353810001;0.0344282463193;2;True;0;1;13.647859812210022
603;603;1445946055;2.1345140934;0.7360776066779999;0.034412588924199995;2;True;0;1;13.647859812210022
604;604;1445946055;2.1344754695900003;0.736042499542;0.034440100193;2;True;0;1;13.647859812210022
605;605;1445946055;2.1344575882;0.735984683037;0.0344276577234;2;True;0;1;13.647859812210022
