;Unnamed: 0;header_stamp_secs;pose_position_x;pose_position_y;pose_position_z;seconds;drop_values;flight_number;label;dtw
0;0;1449481261;2.1873917579700004;0.714748799801;0.0354461781681;0;True;1;2;107.19516324975002
1;1;1449481261;2.1874513626099996;0.715161144733;0.0353505276144;0;True;1;2;107.19516324975002
2;2;1449481261;2.1873927116400003;0.714878380299;0.03565146029;0;True;1;2;107.19516324975002
3;3;1449481261;2.1874310970299997;0.715064823627;0.0354543887079;0;True;1;2;107.19516324975002
4;4;1449481261;2.1874039173099997;0.7149183154109999;0.0355660095811;0;True;1;2;107.19516324975002
5;5;1449481261;2.18737387657;0.7148898243899999;0.035678066313300005;0;True;1;2;107.19516324975002
6;6;1449481261;2.18745493889;0.715098321438;0.0353095121682;0;True;1;2;107.19516324975002
7;7;1449481261;2.18744421005;0.7149517536159999;0.0355081371963;0;True;1;2;107.19516324975002
8;8;1449481261;2.18739390373;0.714982390404;0.035631541162699995;0;True;1;2;107.19516324975002
9;9;1449481261;2.18743991852;0.714882612228;0.0353856123984;0;True;1;2;107.19516324975002
10;10;1449481261;2.18730568886;0.7148659825329999;0.035966668278;0;True;1;2;107.19516324975002
11;11;1449481261;2.18742084503;0.714957356453;0.0357458181679;0;True;1;2;107.19516324975002
12;12;1449481261;2.18734574318;0.714813709259;0.035834085196300006;0;True;1;2;107.19516324975002
13;13;1449481261;2.18732333183;0.715082705021;0.0357919968665;0;True;1;2;107.19516324975002
14;14;1449481261;2.1874554157299997;0.714892864227;0.0355393923819;0;True;1;2;107.19516324975002
15;15;1449481261;2.18744397163;0.714967906475;0.035498958081;0;True;1;2;107.19516324975002
16;16;1449481261;2.18744730949;0.7151798009870001;0.0353421494365;0;True;1;2;107.19516324975002
17;17;1449481261;2.1874623298599998;0.715184569359;0.0354160144925;0;True;1;2;107.19516324975002
18;18;1449481261;2.1873216629;0.715257942677;0.03560952097180001;0;True;1;2;107.19516324975002
19;19;1449481261;2.1872980594599998;0.7148085832600001;0.035876203328400004;0;True;1;2;107.19516324975002
20;20;1449481261;2.18745303154;0.715111136436;0.0353245511651;0;True;1;2;107.19516324975002
21;21;1449481261;2.1873800754499997;0.71483695507;0.0356912314892;0;True;1;2;107.19516324975002
22;22;1449481261;2.18736314774;0.714904606342;0.0356902517378;0;True;1;2;107.19516324975002
23;23;1449481261;2.18728923798;0.714856863022;0.0358717553318;0;True;1;2;107.19516324975002
24;24;1449481261;2.18738865852;0.714888572693;0.0356498360634;0;True;1;2;107.19516324975002
25;25;1449481261;2.18746948242;0.715105593204;0.0353283546865;0;True;1;2;107.19516324975002
26;26;1449481261;2.18738794327;0.7147810459139999;0.0358159355819;0;True;1;2;107.19516324975002
27;27;1449481261;2.18729925156;0.714940428734;0.0358575731516;0;True;1;2;107.19516324975002
28;28;1449481261;2.187458992;0.715158224106;0.0353650301695;0;True;1;2;107.19516324975002
29;29;1449481261;2.1873276233700003;0.7150415182109999;0.0358134135604;0;True;1;2;107.19516324975002
30;30;1449481261;2.1874234676400004;0.715112030506;0.0354979299009;0;True;1;2;107.19516324975002
31;31;1449481261;2.18740463257;0.714740514755;0.0355529636145;0;True;1;2;107.19516324975002
32;32;1449481261;2.18743920326;0.715236186981;0.035443201661099995;0;True;1;2;107.19516324975002
33;33;1449481261;2.18745398521;0.715174436569;0.0353754758835;0;True;1;2;107.19516324975002
34;34;1449481261;2.1873536109900003;0.71514993906;0.0356144979596;0;True;1;2;107.19516324975002
35;35;1449481261;2.1874320507;0.7148909568790001;0.0353973247111;0;True;1;2;107.19516324975002
36;36;1449481261;2.1874718666099997;0.7149642705920001;0.0357610695064;0;True;1;2;107.19516324975002
37;37;1449481261;2.1874358654;0.7150017023090001;0.0354959107935;0;True;1;2;107.19516324975002
38;38;1449481261;2.1874215602900002;0.7152180075650001;0.0355445258319;0;True;1;2;107.19516324975002
39;39;1449481261;2.18741798401;0.7148454189300001;0.0354132018983;0;True;1;2;107.19516324975002
40;40;1449481261;2.18741822243;0.714873015881;0.0353940725327;0;True;1;2;107.19516324975002
41;41;1449481261;2.18735909462;0.714904665947;0.0356579348445;0;True;1;2;107.19516324975002
42;42;1449481261;2.18745064735;0.715149760246;0.0353633090854;0;True;1;2;107.19516324975002
43;43;1449481261;2.18745326996;0.7149707674979999;0.0354554727674;0;True;1;2;107.19516324975002
44;44;1449481261;2.18732142448;0.714791536331;0.0359805747867;0;True;1;2;107.19516324975002
45;45;1449481261;2.18741154671;0.71493601799;0.035539962351300004;0;True;1;2;107.19516324975002
46;46;1449481261;2.1873114109;0.7147353291509999;0.0358501337469;0;True;1;2;107.19516324975002
47;47;1449481261;2.18734121323;0.714858174324;0.03581051900980001;0;True;1;2;107.19516324975002
48;48;1449481261;2.18743014336;0.7149404883380001;0.0353554859757;0;True;1;2;107.19516324975002
49;49;1449481261;2.1874430179599997;0.715107262135;0.0353219918907;0;True;1;2;107.19516324975002
50;50;1449481261;2.18744421005;0.715117692947;0.0353156104684;0;True;1;2;107.19516324975002
51;51;1449481261;2.18733453751;0.715234696865;0.0355941802263;0;True;1;2;107.19516324975002
52;52;1449481261;2.18745064735;0.7151417732240001;0.035387974232400005;0;True;1;2;107.19516324975002
53;53;1449481261;2.1873989105200002;0.7148684263230001;0.0356327518821;0;True;1;2;107.19516324975002
54;54;1449481261;2.18741869926;0.7148787379260001;0.0353853739798;0;True;1;2;107.19516324975002
55;55;1449481261;2.18733429909;0.71483027935;0.0358474329114;0;True;1;2;107.19516324975002
56;56;1449481261;2.1874413490299998;0.715172231197;0.0353613495827;0;True;1;2;107.19516324975002
57;57;1449481261;2.1873877048500003;0.714900076389;0.035561721771999996;0;True;1;2;107.19516324975002
58;58;1449481261;2.1874358654;0.71493679285;0.0353729315102;0;True;1;2;107.19516324975002
59;59;1449481261;2.18745779991;0.715171933174;0.0354072675109;0;True;1;2;107.19516324975002
60;60;1449481261;2.18741393089;0.714971423149;0.035548113286500004;0;True;1;2;107.19516324975002
61;61;1449481261;2.18741822243;0.714898884296;0.0353716164827;0;True;1;2;107.19516324975002
62;62;1449481261;2.18743991852;0.7151700854299999;0.035348638892199996;0;True;1;2;107.19516324975002
63;63;1449481261;2.18742418289;0.714741826057;0.0354271754622;0;True;1;2;107.19516324975002
64;64;1449481261;2.1873562336;0.714930057526;0.035775240510699996;0;True;1;2;107.19516324975002
65;65;1449481261;2.1873741149900003;0.714896857738;0.0356723852456;0;True;1;2;107.19516324975002
66;66;1449481261;2.18734931946;0.714906930923;0.035670619458;0;True;1;2;107.19516324975002
67;67;1449481261;2.18741202354;0.715196013451;0.0353538766503;0;True;1;2;107.19516324975002
68;68;1449481261;2.1874420642900003;0.7150935530660001;0.0353037081659;0;True;1;2;107.19516324975002
69;69;1449481261;2.18744492531;0.714946746826;0.0355846211314;0;True;1;2;107.19516324975002
70;70;1449481261;2.18729686737;0.714945793152;0.0357623249292;0;True;1;2;107.19516324975002
71;71;1449481261;2.18741512299;0.7151311039920001;0.0354608260095;0;True;1;2;107.19516324975002
72;72;1449481261;2.18730974197;0.7148762345309999;0.0358076989651;0;True;1;2;107.19516324975002
73;73;1449481261;2.1873681545299997;0.7149775624279999;0.035694655031;0;True;1;2;107.19516324975002
74;74;1449481261;2.1872279644;0.7147524356839999;0.035782843828199996;0;True;1;2;107.19516324975002
75;75;1449481261;2.18732857704;0.715118050575;0.0357778221369;0;True;1;2;107.19516324975002
76;76;1449481261;2.18735742569;0.7149378657340001;0.0358127169311;0;True;1;2;107.19516324975002
77;77;1449481261;2.1873931884799998;0.714976429939;0.0356166474521;0;True;1;2;107.19516324975002
78;78;1449481261;2.18742632866;0.714980900288;0.035556562244899996;0;True;1;2;107.19516324975002
79;79;1449481261;2.1874101162;0.714939713478;0.035382043570300004;0;True;1;2;107.19516324975002
80;80;1449481261;2.18742179871;0.7149317860600001;0.0354416780174;0;True;1;2;107.19516324975002
81;81;1449481261;2.187240839;0.7147182226180001;0.0359070412815;0;True;1;2;107.19516324975002
82;82;1449481261;2.18740344048;0.714851856232;0.035469211638;0;True;1;2;107.19516324975002
83;83;1449481261;2.1873984336900003;0.7149499654770001;0.035577464848800006;0;True;1;2;107.19516324975002
84;84;1449481261;2.18736243248;0.7148898243899999;0.035678688436699996;0;True;1;2;107.19516324975002
85;85;1449481261;2.18741846085;0.7149149179459999;0.0353724546731;0;True;1;2;107.19516324975002
86;86;1449481261;2.18740129471;0.7148845195769999;0.03540161252019999;0;True;1;2;107.19516324975002
87;87;1449481261;2.18741822243;0.7149872779850001;0.0354937836528;0;True;1;2;107.19516324975002
88;88;1449481261;2.18725323677;0.714816153049;0.035864777863;0;True;1;2;107.19516324975002
89;89;1449481261;2.1872799396500002;0.714854538441;0.0358636155725;0;True;1;2;107.19516324975002
90;90;1449481261;2.18741464615;0.71506613493;0.035464126616699995;0;True;1;2;107.19516324975002
91;91;1449481261;2.1872675418900003;0.714925169945;0.0358279757202;0;True;1;2;107.19516324975002
92;92;1449481261;2.18740034103;0.715051472187;0.0355319194496;0;True;1;2;107.19516324975002
93;93;1449481261;2.1873652935;0.715226888657;0.0356009118259;0;True;1;2;107.19516324975002
94;94;1449481261;2.1873652935;0.714910805225;0.0356497205794;0;True;1;2;107.19516324975002
95;95;1449481261;2.18741893768;0.714930713177;0.035370666533699996;0;True;1;2;107.19516324975002
96;96;1449481261;2.18727469444;0.7149066329000001;0.035820953547999995;0;True;1;2;107.19516324975002
97;97;1449481261;2.18734526634;0.7149283885959999;0.035697150975500004;0;True;1;2;107.19516324975002
98;98;1449481261;2.18741798401;0.7151143550869999;0.0354835316539;0;True;1;2;107.19516324975002
99;99;1449481261;2.18741583824;0.715166032314;0.0354775376618;0;True;1;2;107.19516324975002
100;100;1449481261;2.1874475479099997;0.715144455433;0.0353409908712;0;True;1;2;107.19516324975002
101;101;1449481261;2.18746399879;0.715176284313;0.0353510677814;0;True;1;2;107.19516324975002
102;102;1449481261;2.18744444847;0.715103030205;0.0355132967234;0;True;1;2;107.19516324975002
103;103;1449481261;2.1874341964700004;0.715076804161;0.0354803428054;0;True;1;2;107.19516324975002
104;104;1449481261;2.18729019165;0.714838922024;0.0359050147235;0;True;1;2;107.19516324975002
105;105;1449481261;2.18738889694;0.714932918549;0.035652756691;0;True;1;2;107.19516324975002
106;106;1449481261;2.18742084503;0.7148590683939999;0.0354159548879;0;True;1;2;107.19516324975002
107;107;1449481261;2.1872754097;0.714825451374;0.035897649824599996;0;True;1;2;107.19516324975002
108;108;1449481261;2.18732213974;0.7148503065109999;0.0358785837889;0;True;1;2;107.19516324975002
109;109;1449481261;2.18739247322;0.714827775955;0.0354884825647;0;True;1;2;107.19516324975002
110;110;1449481261;2.18742465973;0.714962124825;0.0353253819048;0;True;1;2;107.19516324975002
111;111;1449481261;2.18743515015;0.714866161346;0.0356120616198;0;True;1;2;107.19516324975002
112;112;1449481261;2.1872186660799997;0.714878499508;0.03604619205;0;True;1;2;107.19516324975002
113;113;1449481261;2.1874368190799998;0.7148563861849999;0.0357204861939;0;True;1;2;107.19516324975002
114;114;1449481261;2.18739795685;0.715094387531;0.03548536449669999;0;True;1;2;107.19516324975002
115;115;1449481261;2.18745183945;0.715116500854;0.035308688879;0;True;1;2;107.19516324975002
116;116;1449481261;2.18732857704;0.714757621288;0.0358392074704;0;True;1;2;107.19516324975002
117;117;1449481261;2.18741893768;0.7149241566660001;0.035389587283099995;0;True;1;2;107.19516324975002
118;118;1449481261;2.18742251396;0.7151991128919999;0.0354908071458;0;True;1;2;107.19516324975002
119;119;1449481261;2.1873819828;0.714756906033;0.035525500774400004;0;True;1;2;107.19516324975002
120;120;1449481261;2.1874222755400003;0.714863538742;0.0353438667953;0;True;1;2;107.19516324975002
121;121;1449481261;2.18740606308;0.714786231518;0.0354339331388;0;True;1;2;107.19516324975002
122;122;1449481261;2.18743991852;0.71513146162;0.035328719764900006;0;True;1;2;107.19516324975002
123;123;1449481261;2.1874332428;0.71493947506;0.035342343151599995;0;True;1;2;107.19516324975002
124;124;1449481261;2.18746423721;0.714756727219;0.0358325652778;0;True;1;2;107.19516324975002
125;125;1449481261;2.18734788895;0.714905083179;0.0358212664723;0;True;1;2;107.19516324975002
126;126;1449481261;2.18744826317;0.7151212692260001;0.035325627774;0;True;1;2;107.19516324975002
127;127;1449481261;2.18739676476;0.7147088050839999;0.035806458443400004;0;True;1;2;107.19516324975002
128;128;1449481262;2.18741822243;0.714936077595;0.035409491509199996;1;True;1;2;107.19516324975002
129;129;1449481262;2.18743538857;0.715064048767;0.0354770943522;1;True;1;2;107.19516324975002
130;130;1449481262;2.1874911785099997;0.714760482311;0.035809770226500004;1;True;1;2;107.19516324975002
131;131;1449481262;2.18730354309;0.714981913567;0.03604792431;1;True;1;2;107.19516324975002
132;132;1449481262;2.1874310970299997;0.71496206522;0.0353915765882;1;True;1;2;107.19516324975002
133;133;1449481262;2.18736290932;0.715130567551;0.035603839904099994;1;True;1;2;107.19516324975002
134;134;1449481262;2.1874511241900003;0.715139508247;0.0353453084826;1;True;1;2;107.19516324975002
135;135;1449481262;2.18741798401;0.7148691415790001;0.035395607352300004;1;True;1;2;107.19516324975002
136;136;1449481262;2.1873369216900005;0.715150535107;0.035575043410099996;1;True;1;2;107.19516324975002
137;137;1449481262;2.1874349117299996;0.7149754762649999;0.0354758501053;1;True;1;2;107.19516324975002
138;138;1449481262;2.18742990494;0.71494281292;0.0354793742299;1;True;1;2;107.19516324975002
139;139;1449481262;2.1874122619599996;0.714900970459;0.035688750445800006;1;True;1;2;107.19516324975002
140;140;1449481262;2.18733406067;0.715036928654;0.0357706099749;1;True;1;2;107.19516324975002
141;141;1449481262;2.18733644485;0.714799404144;0.0357368513942;1;True;1;2;107.19516324975002
142;142;1449481262;2.18741798401;0.714802145958;0.0354236997664;1;True;1;2;107.19516324975002
143;143;1449481262;2.18742060661;0.7149570584299999;0.0353929251432;1;True;1;2;107.19516324975002
144;144;1449481262;2.18743157387;0.7151784896850001;0.035502783954099996;1;True;1;2;107.19516324975002
145;145;1449481262;2.18744015694;0.7151345610619999;0.035314168781;1;True;1;2;107.19516324975002
146;146;1449481262;2.1874320507;0.71486967802;0.035788439214199996;1;True;1;2;107.19516324975002
147;147;1449481262;2.18735027313;0.715221822262;0.0355695672333;1;True;1;2;107.19516324975002
148;148;1449481262;2.18743252754;0.7148933410639999;0.035497307777400004;1;True;1;2;107.19516324975002
149;149;1449481262;2.1874368190799998;0.715151071548;0.0353581346571;1;True;1;2;107.19516324975002
150;150;1449481262;2.18743443489;0.7149122357369999;0.0354399383068;1;True;1;2;107.19516324975002
151;151;1449481262;2.18743658066;0.7151285409929999;0.0354894138873;1;True;1;2;107.19516324975002
152;152;1449481262;2.1873998641999997;0.7147568464280001;0.0355257540941;1;True;1;2;107.19516324975002
153;153;1449481262;2.1873998641999997;0.714955925941;0.0355834811926;1;True;1;2;107.19516324975002
154;154;1449481262;2.18749094009;0.7147459387780001;0.035831101238699994;1;True;1;2;107.19516324975002
155;155;1449481262;2.1872587204;0.714802622795;0.035802513361;1;True;1;2;107.19516324975002
156;156;1449481262;2.1874229908;0.71493768692;0.035419363528499996;1;True;1;2;107.19516324975002
157;157;1449481262;2.18743991852;0.715137600899;0.035344213247300006;1;True;1;2;107.19516324975002
158;158;1449481262;2.18737530708;0.7147466540340001;0.0354986004531;1;True;1;2;107.19516324975002
159;159;1449481262;2.1874363422400003;0.714916408062;0.0353667661548;1;True;1;2;107.19516324975002
160;160;1449481262;2.18740725517;0.714927732944;0.035706397146;1;True;1;2;107.19516324975002
161;161;1449481262;2.18744587898;0.715148627758;0.035334356129199995;1;True;1;2;107.19516324975002
162;162;1449481262;2.18734288216;0.7148318886759999;0.035813130438300006;1;True;1;2;107.19516324975002
163;163;1449481262;2.1874363422400003;0.7149335742;0.035415638238199994;1;True;1;2;107.19516324975002
164;164;1449481262;2.18744969368;0.7149136066439999;0.0353750325739;1;True;1;2;107.19516324975002
165;165;1449481262;2.1872677803;0.714867651463;0.035746932029699995;1;True;1;2;107.19516324975002
166;166;1449481262;2.1874363422400003;0.715182542801;0.0354901477695;1;True;1;2;107.19516324975002
167;167;1449481262;2.18744397163;0.714712440968;0.035420045256599995;1;True;1;2;107.19516324975002
168;168;1449481262;2.18730854988;0.714944541454;0.035834062844500005;1;True;1;2;107.19516324975002
169;169;1449481262;2.18741559982;0.7149051427840001;0.035614207387;1;True;1;2;107.19516324975002
170;170;1449481262;2.1874074935900003;0.7150291800499999;0.0356123074889;1;True;1;2;107.19516324975002
171;171;1449481262;2.18735957146;0.7148991823199999;0.0356631502509;1;True;1;2;107.19516324975002
172;172;1449481262;2.1873626709000002;0.7152489423749999;0.03560667485;1;True;1;2;107.19516324975002
173;173;1449481262;2.18745708466;0.715152442455;0.0353484414518;1;True;1;2;107.19516324975002
174;174;1449481262;2.18742966652;0.7148721218109999;0.035381119698300004;1;True;1;2;107.19516324975002
175;175;1449481262;2.1874513626099996;0.715128004551;0.035331156104800004;1;True;1;2;107.19516324975002
176;176;1449481262;2.18734574318;0.714793086052;0.03572146222;1;True;1;2;107.19516324975002
177;177;1449481262;2.1874544620500003;0.7151105403899999;0.0353231877089;1;True;1;2;107.19516324975002
178;178;1449481262;2.18743944168;0.715154588223;0.0355032123625;1;True;1;2;107.19516324975002
179;179;1449481262;2.18743610382;0.7147397398950001;0.0354431085289;1;True;1;2;107.19516324975002
180;180;1449481262;2.18743848801;0.71507358551;0.035447511822000004;1;True;1;2;107.19516324975002
181;181;1449481262;2.18742060661;0.715104877949;0.0354669243097;1;True;1;2;107.19516324975002
182;182;1449481262;2.18743443489;0.714839875698;0.035405535250900004;1;True;1;2;107.19516324975002
183;183;1449481262;2.18743920326;0.7148053050040001;0.0354374982417;1;True;1;2;107.19516324975002
184;184;1449481262;2.18734931946;0.714914023876;0.035824950784400005;1;True;1;2;107.19516324975002
185;185;1449481262;2.18742084503;0.715065479279;0.0354555882514;1;True;1;2;107.19516324975002
186;186;1449481262;2.18741583824;0.715159714222;0.035451348871;1;True;1;2;107.19516324975002
187;187;1449481262;2.18740797043;0.714963972569;0.0357194244862;1;True;1;2;107.19516324975002
188;188;1449481262;2.18744325638;0.7149843573569999;0.035481419414300004;1;True;1;2;107.19516324975002
189;189;1449481262;2.18743181229;0.715112805367;0.0354541838169;1;True;1;2;107.19516324975002
190;190;1449481262;2.18738937378;0.714886367321;0.0356471836567;1;True;1;2;107.19516324975002
191;191;1449481262;2.18742465973;0.7149436473849999;0.0353288203478;1;True;1;2;107.19516324975002
192;192;1449481262;2.18737483025;0.7148992419239999;0.035685595125000004;1;True;1;2;107.19516324975002
193;193;1449481262;2.1874122619599996;0.7149419784550001;0.0354578122497;1;True;1;2;107.19516324975002
194;194;1449481262;2.1873164176900004;0.714881539345;0.0357739515603;1;True;1;2;107.19516324975002
195;195;1449481262;2.18744373322;0.715149104595;0.035314228385699996;1;True;1;2;107.19516324975002
196;196;1449481262;2.18744111061;0.7151852846150001;0.035339433699800006;1;True;1;2;107.19516324975002
197;197;1449481262;2.18742465973;0.71495038271;0.035397969186300005;1;True;1;2;107.19516324975002
198;198;1449481262;2.18743467331;0.7148845195769999;0.035580810159400005;1;True;1;2;107.19516324975002
199;199;1449481262;2.18742990494;0.714967608452;0.035390838980699994;1;True;1;2;107.19516324975002
200;200;1449481262;2.18722605705;0.7147889733310001;0.0358638800681;1;True;1;2;107.19516324975002
201;201;1449481262;2.18740653992;0.7151724100110001;0.0354509502649;1;True;1;2;107.19516324975002
202;202;1449481262;2.18741440773;0.714929401875;0.035591170191800005;1;True;1;2;107.19516324975002
203;203;1449481262;2.1873350143400003;0.715041041374;0.03578338027;1;True;1;2;107.19516324975002
204;204;1449481262;2.18739962578;0.714923083782;0.035605225712099994;1;True;1;2;107.19516324975002
205;205;1449481262;2.18744802475;0.715147137642;0.0353202782571;1;True;1;2;107.19516324975002
206;206;1449481262;2.1874277591699998;0.715052783489;0.035482987761499996;1;True;1;2;107.19516324975002
207;207;1449481262;2.1873166561099997;0.7150149941439999;0.0359708294272;1;True;1;2;107.19516324975002
208;208;1449481262;2.18742251396;0.714914262295;0.035695012658800006;1;True;1;2;107.19516324975002
209;209;1449481262;2.18738937378;0.7150058150290001;0.035484623163900005;1;True;1;2;107.19516324975002
210;210;1449481262;2.1874585151700003;0.715120494366;0.035301797092;1;True;1;2;107.19516324975002
211;211;1449481262;2.1873786449400003;0.715017557144;0.0357920788229;1;True;1;2;107.19516324975002
212;212;1449481262;2.18740916252;0.714837729931;0.0354785062373;1;True;1;2;107.19516324975002
213;213;1449481262;2.18725299835;0.71475893259;0.035861775279;1;True;1;2;107.19516324975002
214;214;1449481262;2.18729996681;0.714862644672;0.0358546674252;1;True;1;2;107.19516324975002
215;215;1449481262;2.18724060059;0.714801490307;0.035856876522300005;1;True;1;2;107.19516324975002
216;216;1449481262;2.18745017052;0.7151716947560001;0.0353502444923;1;True;1;2;107.19516324975002
217;217;1449481262;2.1873846054099997;0.7148475050929999;0.035821303725199996;1;True;1;2;107.19516324975002
218;218;1449481262;2.1872549057;0.715209364891;0.0359747484326;1;True;1;2;107.19516324975002
219;219;1449481262;2.1874229908;0.714890539646;0.035552397370300005;1;True;1;2;107.19516324975002
220;220;1449481262;2.18728733063;0.714915990829;0.035828061401800004;1;True;1;2;107.19516324975002
221;221;1449481262;2.1874306201900002;0.7148393988609999;0.0353985950351;1;True;1;2;107.19516324975002
222;222;1449481262;2.18742132187;0.7151426672939999;0.0354827158153;1;True;1;2;107.19516324975002
223;223;1449481262;2.18740987778;0.714959323406;0.0357084386051;1;True;1;2;107.19516324975002
224;224;1449481262;2.18744826317;0.7151488661769999;0.035349547863;1;True;1;2;107.19516324975002
225;225;1449481262;2.18737697601;0.7148923873899999;0.035672873258599996;1;True;1;2;107.19516324975002
226;226;1449481262;2.1873588562;0.714922785759;0.0356500558555;1;True;1;2;107.19516324975002
227;227;1449481262;2.1874127388;0.714939713478;0.0355745255947;1;True;1;2;107.19516324975002
228;228;1449481262;2.18744397163;0.715108513832;0.035318341106199996;1;True;1;2;107.19516324975002
229;229;1449481262;2.18741035461;0.7149113416670001;0.0356220826507;1;True;1;2;107.19516324975002
230;230;1449481262;2.18745183945;0.714860260487;0.0355408750474;1;True;1;2;107.19516324975002
231;231;1449481262;2.18726587296;0.7147360444069999;0.0359217114747;1;True;1;2;107.19516324975002
232;232;1449481262;2.18743157387;0.7151094675059999;0.035506505519199996;1;True;1;2;107.19516324975002
233;233;1449481262;2.18734240532;0.7147992849349999;0.0357555150986;1;True;1;2;107.19516324975002
234;234;1449481262;2.18733859062;0.7148268818860001;0.0358273647726;1;True;1;2;107.19516324975002
235;235;1449481262;2.18746852875;0.715158820152;0.035374134779;1;True;1;2;107.19516324975002
236;236;1449481262;2.1874544620500003;0.714937984943;0.035790566355;1;True;1;2;107.19516324975002
237;237;1449481262;2.18743920326;0.714947044849;0.0353348441422;1;True;1;2;107.19516324975002
238;238;1449481262;2.18744397163;0.715176165104;0.0353992991149;1;True;1;2;107.19516324975002
239;239;1449481262;2.1873898506200002;0.714981913567;0.0355264507234;1;True;1;2;107.19516324975002
240;240;1449481262;2.18734359741;0.714881300926;0.035889469087099994;1;True;1;2;107.19516324975002
241;241;1449481262;2.1874234676400004;0.714787781239;0.035573944449400006;1;True;1;2;107.19516324975002
242;242;1449481262;2.18742513657;0.714782714844;0.0354187935591;1;True;1;2;107.19516324975002
243;243;1449481262;2.1874229908;0.714887738228;0.0356083288789;1;True;1;2;107.19516324975002
244;244;1449481262;2.18743157387;0.715126216412;0.0354700125754;1;True;1;2;107.19516324975002
245;245;1449481262;2.18739509583;0.714853823185;0.035480607301;1;True;1;2;107.19516324975002
246;246;1449481262;2.1873550415;0.714858829975;0.0358506925404;1;True;1;2;107.19516324975002
247;247;1449481262;2.1874127388;0.714786052704;0.035613421350699996;1;True;1;2;107.19516324975002
248;248;1449481262;2.18742990494;0.714998781681;0.0355386175215;1;True;1;2;107.19516324975002
249;249;1449481262;2.18745517731;0.7151173353200001;0.035366967320400004;1;True;1;2;107.19516324975002
250;250;1449481262;2.1874196529400005;0.715230882168;0.035469964146599996;1;True;1;2;107.19516324975002
251;251;1449481262;2.1873011589099995;0.7147019505500001;0.0358064360917;1;True;1;2;107.19516324975002
252;252;1449481262;2.18738508224;0.7148889303210001;0.0355722568929;1;True;1;2;107.19516324975002
253;253;1449481262;2.18745875359;0.71488058567;0.035575915128;1;True;1;2;107.19516324975002
254;254;1449481262;2.1874222755400003;0.714884459972;0.0353914648294;1;True;1;2;107.19516324975002
255;255;1449481262;2.1874294281;0.714974939823;0.035395078361;1;True;1;2;107.19516324975002
256;256;1449481262;2.18742036819;0.714733064175;0.0354167036712;1;True;1;2;107.19516324975002
257;257;1449481262;2.1874499321000003;0.714881539345;0.0354018956423;1;True;1;2;107.19516324975002
258;258;1449481262;2.1874427795400004;0.715152919292;0.035300694406;1;True;1;2;107.19516324975002
259;259;1449481262;2.18732857704;0.714960753918;0.035847585648300005;1;True;1;2;107.19516324975002
260;260;1449481262;2.18743228912;0.71485888958;0.0357507914305;1;True;1;2;107.19516324975002
261;261;1449481262;2.1874222755400003;0.715046584606;0.0354990698397;1;True;1;2;107.19516324975002
262;262;1449481262;2.1873550415;0.714863955975;0.0356836877763;1;True;1;2;107.19516324975002
263;263;1449481262;2.18738627434;0.7150983810420001;0.035564105957699994;1;True;1;2;107.19516324975002
264;264;1449481262;2.18724560738;0.714538574219;0.036002438515400005;1;True;1;2;107.19516324975002
265;265;1449481262;2.18730568886;0.7148461937899999;0.035844761878300005;1;True;1;2;107.19516324975002
266;266;1449481262;2.18723464012;0.71463227272;0.035810291767099996;1;True;1;2;107.19516324975002
267;267;1449481262;2.18723654747;0.714744091034;0.0358481034636;1;True;1;2;107.19516324975002
268;268;1449481262;2.18743300438;0.714939653873;0.0353610739112;1;True;1;2;107.19516324975002
269;269;1449481262;2.1872622966799997;0.715125381947;0.0358225032687;1;True;1;2;107.19516324975002
270;270;1449481262;2.187469244;0.7151251435279999;0.035307161510000004;1;True;1;2;107.19516324975002
271;271;1449481262;2.18734908104;0.7152738571170001;0.0356108732522;1;True;1;2;107.19516324975002
272;272;1449481262;2.18744063377;0.715054094791;0.03543170541519999;1;True;1;2;107.19516324975002
273;273;1449481262;2.18742990494;0.7149692773819999;0.035475410521;1;True;1;2;107.19516324975002
274;274;1449481262;2.1874177455900004;0.7147885560989999;0.035456009209199994;1;True;1;2;107.19516324975002
275;275;1449481262;2.18745064735;0.7151287794110001;0.0353222750127;1;True;1;2;107.19516324975002
276;276;1449481262;2.18734693527;0.715277910233;0.0356133170426;1;True;1;2;107.19516324975002
277;277;1449481262;2.18733644485;0.714830160141;0.035830397158900004;1;True;1;2;107.19516324975002
278;278;1449481262;2.1873507499700002;0.714755892754;0.0359835736454;1;True;1;2;107.19516324975002
279;279;1449481262;2.18745350838;0.715175330639;0.035334013402499996;1;True;1;2;107.19516324975002
280;280;1449481262;2.1874191761;0.714970827103;0.035598531365400005;1;True;1;2;107.19516324975002
281;281;1449481262;2.18743872643;0.7150897383689999;0.035505995154400005;1;True;1;2;107.19516324975002
282;282;1449481262;2.18741297722;0.7149477601049999;0.0357524231076;1;True;1;2;107.19516324975002
283;283;1449481262;2.18743515015;0.7149738669399999;0.0355828888714;1;True;1;2;107.19516324975002
284;284;1449481262;2.1873164176900004;0.714783430099;0.0358088873327;1;True;1;2;107.19516324975002
285;285;1449481262;2.1872754097;0.7149741649629999;0.035831760615099996;1;True;1;2;107.19516324975002
286;286;1449481262;2.1873750686599998;0.71521371603;0.0356086008251;1;True;1;2;107.19516324975002
287;287;1449481262;2.1874196529400005;0.71480435133;0.0354251265526;1;True;1;2;107.19516324975002
288;288;1449481262;2.18725705147;0.714820444584;0.0358746275306;1;True;1;2;107.19516324975002
289;289;1449481262;2.18740940094;0.714970946312;0.035690147429699996;1;True;1;2;107.19516324975002
290;290;1449481262;2.18739557266;0.714876294136;0.0354590564966;1;True;1;2;107.19516324975002
291;291;1449481262;2.1874229908;0.7148871421809999;0.035599172115300004;1;True;1;2;107.19516324975002
292;292;1449481262;2.18740487099;0.7149066329000001;0.035465285182;1;True;1;2;107.19516324975002
293;293;1449481262;2.18743228912;0.715180158615;0.0353450663388;1;True;1;2;107.19516324975002
294;294;1449481262;2.18730211258;0.7148032784460001;0.035805888474;1;True;1;2;107.19516324975002
295;295;1449481262;2.1873726844799997;0.714900195599;0.035646971315099994;1;True;1;2;107.19516324975002
296;296;1449481262;2.18746185303;0.715192317963;0.035368435084800004;1;True;1;2;107.19516324975002
297;297;1449481262;2.1874327659599997;0.714838624001;0.0354427359998;1;True;1;2;107.19516324975002
298;298;1449481262;2.1874148845700003;0.714850604534;0.0354059562087;1;True;1;2;107.19516324975002
299;299;1449481262;2.1874268055;0.714881718159;0.0354676581919;1;True;1;2;107.19516324975002
300;300;1449481262;2.1873798370400004;0.714860796928;0.0356477387249;1;True;1;2;107.19516324975002
301;301;1449481262;2.18729782104;0.714850246906;0.0358270779252;1;True;1;2;107.19516324975002
302;302;1449481262;2.18742275238;0.7149085402490001;0.035378932952900004;1;True;1;2;107.19516324975002
303;303;1449481262;2.18743300438;0.71513313055;0.0354539826512;1;True;1;2;107.19516324975002
304;304;1449481262;2.18740916252;0.714898884296;0.035740669816699995;1;True;1;2;107.19516324975002
305;305;1449481262;2.18743991852;0.715139746666;0.0353413410485;1;True;1;2;107.19516324975002
306;306;1449481262;2.1874108314500003;0.7149704694750001;0.0355866700411;1;True;1;2;107.19516324975002
307;307;1449481262;2.18743133545;0.715166151524;0.03531287238;1;True;1;2;107.19516324975002
308;308;1449481262;2.1874341964700004;0.715153217316;0.035323556512599996;1;True;1;2;107.19516324975002
309;309;1449481262;2.18739795685;0.715010166168;0.0354695469141;1;True;1;2;107.19516324975002
310;310;1449481262;2.18741106987;0.715131938457;0.0354688763618;1;True;1;2;107.19516324975002
311;311;1449481262;2.18743538857;0.7151223421100001;0.035310652107000004;1;True;1;2;107.19516324975002
312;312;1449481262;2.1874599456799997;0.715148985386;0.035311739891800004;1;True;1;2;107.19516324975002
313;313;1449481262;2.1873800754499997;0.71478754282;0.035496480763;1;True;1;2;107.19516324975002
314;314;1449481262;2.18745207787;0.715137720108;0.0353354774415;1;True;1;2;107.19516324975002
315;315;1449481262;2.18732094765;0.714565813541;0.0359047204256;1;True;1;2;107.19516324975002
316;316;1449481262;2.18741106987;0.7148659825329999;0.0355028621852;1;True;1;2;107.19516324975002
317;317;1449481262;2.18741464615;0.7151032686229999;0.0354865118861;1;True;1;2;107.19516324975002
318;318;1449481262;2.1873931884799998;0.7148799300190001;0.0357042402029;1;True;1;2;107.19516324975002
319;319;1449481262;2.18743610382;0.714873373508;0.0353948883712;1;True;1;2;107.19516324975002
320;320;1449481262;2.18745779991;0.7151114344600001;0.0353368371725;1;True;1;2;107.19516324975002
321;321;1449481262;2.18743300438;0.71514081955;0.0353438518941;1;True;1;2;107.19516324975002
322;322;1449481262;2.1872787475599997;0.714776515961;0.0358553975821;1;True;1;2;107.19516324975002
323;323;1449481262;2.1874363422400003;0.715113162994;0.0354523099959;1;True;1;2;107.19516324975002
324;324;1449481262;2.18743014336;0.7150397300720001;0.0354955196381;1;True;1;2;107.19516324975002
325;325;1449481262;2.1873157024400003;0.714817047119;0.035837341099999996;1;True;1;2;107.19516324975002
326;326;1449481262;2.18745183945;0.7151643037800001;0.0353476554155;1;True;1;2;107.19516324975002
327;327;1449481262;2.18725180626;0.7148081660269999;0.0358627103269;1;True;1;2;107.19516324975002
328;328;1449481262;2.18741464615;0.7149555683140001;0.0355331972241;1;True;1;2;107.19516324975002
329;329;1449481262;2.18744897842;0.715133011341;0.0353220514953;1;True;1;2;107.19516324975002
330;330;1449481262;2.18731856346;0.714755475521;0.035828027874199996;1;True;1;2;107.19516324975002
331;331;1449481262;2.18742060661;0.7149356603620001;0.0353312343359;1;True;1;2;107.19516324975002
332;332;1449481262;2.1874778270700004;0.714829564095;0.0358164124191;1;True;1;2;107.19516324975002
333;333;1449481262;2.18742799759;0.715094804764;0.035299774259300004;1;True;1;2;107.19516324975002
334;334;1449481262;2.18740797043;0.7147632241249999;0.035591267049300004;1;True;1;2;107.19516324975002
335;335;1449481262;2.1874427795400004;0.715109109879;0.0353179089725;1;True;1;2;107.19516324975002
336;336;1449481262;2.18743824959;0.715110599995;0.035489320755;1;True;1;2;107.19516324975002
337;337;1449481262;2.1873877048500003;0.7150385975839999;0.0355326794088;1;True;1;2;107.19516324975002
338;338;1449481262;2.1874277591699998;0.714924693108;0.035724848508800006;1;True;1;2;107.19516324975002
339;339;1449481262;2.18735146523;0.714901804924;0.035703632980599996;1;True;1;2;107.19516324975002
340;340;1449481262;2.18743300438;0.714579164982;0.0357140488923;1;True;1;2;107.19516324975002
341;341;1449481262;2.18745803833;0.715111196041;0.0353267788887;1;True;1;2;107.19516324975002
342;342;1449481262;2.1874096393599998;0.714823365211;0.035416431724999996;1;True;1;2;107.19516324975002
343;343;1449481262;2.18741798401;0.7148712277410001;0.0353653468192;1;True;1;2;107.19516324975002
344;344;1449481262;2.1874372959099997;0.715178012848;0.0353773012757;1;True;1;2;107.19516324975002
345;345;1449481262;2.18745088577;0.7151663899420001;0.035343229770699994;1;True;1;2;107.19516324975002
346;346;1449481262;2.1874747276299997;0.715172708035;0.0354345887899;1;True;1;2;107.19516324975002
347;347;1449481262;2.1874032020599996;0.714779853821;0.0354433208704;1;True;1;2;107.19516324975002
348;348;1449481262;2.18729543686;0.714899003506;0.0359463319182;1;True;1;2;107.19516324975002
349;349;1449481262;2.1874308586099995;0.7149401307109999;0.0353963524103;1;True;1;2;107.19516324975002
350;350;1449481262;2.1873459816;0.715126395226;0.0355856530368;1;True;1;2;107.19516324975002
351;351;1449481262;2.1874334812200003;0.7149452567100001;0.035440541803800005;1;True;1;2;107.19516324975002
352;352;1449481262;2.18745303154;0.7152051925660001;0.035493817180400004;1;True;1;2;107.19516324975002
353;353;1449481262;2.18743228912;0.7151282429699999;0.035491190850699995;1;True;1;2;107.19516324975002
354;354;1449481262;2.18742108345;0.714845895767;0.035506397485699996;1;True;1;2;107.19516324975002
355;355;1449481262;2.18741869926;0.714887201786;0.03544934466480001;1;True;1;2;107.19516324975002
356;356;1449481262;2.18744778633;0.715161621571;0.0353465564549;1;True;1;2;107.19516324975002
357;357;1449481262;2.1874563694;0.715178966522;0.035316541791;1;True;1;2;107.19516324975002
358;358;1449481262;2.18741559982;0.7148576974869999;0.035402629524500004;1;True;1;2;107.19516324975002
359;359;1449481262;2.1874430179599997;0.714990019798;0.0354838483036;1;True;1;2;107.19516324975002
360;360;1449481262;2.1872742176099997;0.714802145958;0.035850327462;1;True;1;2;107.19516324975002
361;361;1449481262;2.1874413490299998;0.714867711067;0.035585317760699994;1;True;1;2;107.19516324975002
362;362;1449481262;2.1873588562;0.7148800492290001;0.0358284637332;1;True;1;2;107.19516324975002
363;363;1449481262;2.18741893768;0.7150349020960001;0.0354850552976;1;True;1;2;107.19516324975002
364;364;1449481262;2.18727087975;0.714819908142;0.0358223430812;1;True;1;2;107.19516324975002
365;365;1449481262;2.1874163150799997;0.714868187904;0.0354121737182;1;True;1;2;107.19516324975002
366;366;1449481263;2.18731594086;0.715113520622;0.0357717014849;2;True;1;2;107.19516324975002
367;367;1449481263;2.18744182587;0.714822411537;0.0358151271939;2;True;1;2;107.19516324975002
368;368;1449481263;2.18741059303;0.71494191885;0.0355432219803;2;True;1;2;107.19516324975002
369;369;1449481263;2.18728661537;0.714887320995;0.0359016694129;2;True;1;2;107.19516324975002
370;370;1449481263;2.1874420642900003;0.71488237381;0.0353972278535;2;True;1;2;107.19516324975002
371;371;1449481263;2.1874563694;0.715155005455;0.0353398285806;2;True;1;2;107.19516324975002
372;372;1449481263;2.18740200996;0.71516084671;0.0355185382068;2;True;1;2;107.19516324975002
373;373;1449481263;2.1874356269799997;0.714893400669;0.035390876233599995;2;True;1;2;107.19516324975002
374;374;1449481263;2.1874051094099998;0.714985370636;0.0358550436795;2;True;1;2;107.19516324975002
375;375;1449481263;2.1874370575;0.7148794531820001;0.0353738777339;2;True;1;2;107.19516324975002
376;376;1449481263;2.1873943805700002;0.714929163456;0.0358341783285;2;True;1;2;107.19516324975002
377;377;1449481263;2.1874573230700003;0.7151902318000001;0.035496931523099996;2;True;1;2;107.19516324975002
378;378;1449481263;2.1874117851299997;0.714800179005;0.0355426073074;2;True;1;2;107.19516324975002
379;379;1449481263;2.18743467331;0.7151160836220001;0.035479683429;2;True;1;2;107.19516324975002
380;380;1449481263;2.18744492531;0.7151165604590001;0.0355022959411;2;True;1;2;107.19516324975002
381;381;1449481263;2.18744897842;0.7151077389720001;0.0354770310223;2;True;1;2;107.19516324975002
382;382;1449481263;2.18742871284;0.7149284481999999;0.0355165861547;2;True;1;2;107.19516324975002
383;383;1449481263;2.18738365173;0.714883923531;0.0356451906264;2;True;1;2;107.19516324975002
384;384;1449481263;2.18734288216;0.714790940285;0.0357820503414;2;True;1;2;107.19516324975002
385;385;1449481263;2.1873223781599997;0.714660227299;0.0360104814172;2;True;1;2;107.19516324975002
386;386;1449481263;2.18743777275;0.7148724198340001;0.0358103103936;2;True;1;2;107.19516324975002
387;387;1449481263;2.1874413490299998;0.7149986028669999;0.0353815220296;2;True;1;2;107.19516324975002
388;388;1449481263;2.18741869926;0.714814662933;0.0354263037443;2;True;1;2;107.19516324975002
389;389;1449481263;2.1874153614;0.714897096157;0.0353602655232;2;True;1;2;107.19516324975002
390;390;1449481263;2.1872074604;0.714907765388;0.035887978971000004;2;True;1;2;107.19516324975002
391;391;1449481263;2.18744921684;0.715104520321;0.0353001132607;2;True;1;2;107.19516324975002
392;392;1449481263;2.18735432625;0.7147357463840001;0.035820979625;2;True;1;2;107.19516324975002
393;393;1449481263;2.18739628792;0.7148698568340001;0.0356522239745;2;True;1;2;107.19516324975002
394;394;1449481263;2.187322855;0.714879274368;0.0358194597065;2;True;1;2;107.19516324975002
395;395;1449481263;2.1872878074599997;0.714840292931;0.0358284041286;2;True;1;2;107.19516324975002
396;396;1449481263;2.18740868568;0.714935004711;0.0354002937675;2;True;1;2;107.19516324975002
397;397;1449481263;2.1874177455900004;0.71484452486;0.0355040132999;2;True;1;2;107.19516324975002
398;398;1449481263;2.1873977184299997;0.714933812618;0.035666551441;2;True;1;2;107.19516324975002
399;399;1449481263;2.1874427795400004;0.7151230573649999;0.0353158265352;2;True;1;2;107.19516324975002
400;400;1449481263;2.18740415573;0.714950621128;0.035597782582;2;True;1;2;107.19516324975002
401;401;1449481263;2.18741703033;0.715041100979;0.0354355275631;2;True;1;2;107.19516324975002
402;402;1449481263;2.1873891353599997;0.714918553829;0.035724658519;2;True;1;2;107.19516324975002
403;403;1449481263;2.1873819828;0.7149059176450001;0.0355751439929;2;True;1;2;107.19516324975002
404;404;1449481263;2.18743538857;0.71513068676;0.0353165082633;2;True;1;2;107.19516324975002
405;405;1449481263;2.18742966652;0.714863657951;0.0355415828526;2;True;1;2;107.19516324975002
406;406;1449481263;2.18741679192;0.715057730675;0.0354374349117;2;True;1;2;107.19516324975002
407;407;1449481263;2.18742990494;0.7151154279709999;0.03529061749580001;2;True;1;2;107.19516324975002
408;408;1449481263;2.18735384941;0.7148958444600001;0.0356452688575;2;True;1;2;107.19516324975002
409;409;1449481263;2.1873922348;0.714976370335;0.0354232825339;2;True;1;2;107.19516324975002
410;410;1449481263;2.18739032745;0.7149283885959999;0.0356220789254;2;True;1;2;107.19516324975002
411;411;1449481263;2.18739151955;0.714851379395;0.0354741550982;2;True;1;2;107.19516324975002
412;412;1449481263;2.1873366832700003;0.714773416519;0.0357788391411;2;True;1;2;107.19516324975002
413;413;1449481263;2.18740105629;0.7148593068119999;0.0354632921517;2;True;1;2;107.19516324975002
414;414;1449481263;2.1873552799200002;0.7149006128309999;0.0356500670314;2;True;1;2;107.19516324975002
415;415;1449481263;2.1874077320099996;0.715195655823;0.0355429686606;2;True;1;2;107.19516324975002
416;416;1449481263;2.18746328354;0.715144276619;0.0353784896433;2;True;1;2;107.19516324975002
417;417;1449481263;2.1874117851299997;0.715149104595;0.035587958991499996;2;True;1;2;107.19516324975002
418;418;1449481263;2.18739247322;0.714902937412;0.035732254385900004;2;True;1;2;107.19516324975002
419;419;1449481263;2.1873369216900005;0.714950442314;0.0358209945261;2;True;1;2;107.19516324975002
420;420;1449481263;2.1874191761;0.714972138405;0.035468116402599996;2;True;1;2;107.19516324975002
421;421;1449481263;2.1874277591699998;0.7149302363400001;0.035355031490300004;2;True;1;2;107.19516324975002
422;422;1449481263;2.18741798401;0.7149719595909999;0.035576649010199995;2;True;1;2;107.19516324975002
423;423;1449481263;2.18738627434;0.714739918709;0.0357159115374;2;True;1;2;107.19516324975002
424;424;1449481263;2.18741393089;0.715005040169;0.035592954605800003;2;True;1;2;107.19516324975002
425;425;1449481263;2.1873986721;0.714724302292;0.035538636148;2;True;1;2;107.19516324975002
426;426;1449481263;2.1873495578799997;0.714845359325;0.0358005836606;2;True;1;2;107.19516324975002
427;427;1449481263;2.1874461174;0.7148964405060001;0.0355252698064;2;True;1;2;107.19516324975002
428;428;1449481263;2.1874327659599997;0.714903354645;0.0355153903365;2;True;1;2;107.19516324975002
429;429;1449481263;2.1874468326599996;0.7151557803149999;0.0353251062334;2;True;1;2;107.19516324975002
430;430;1449481263;2.18732833862;0.715135216713;0.0355805791914;2;True;1;2;107.19516324975002
431;431;1449481263;2.18743228912;0.715136766434;0.0353238619864;2;True;1;2;107.19516324975002
432;432;1449481263;2.18741750717;0.715032041073;0.0354610718787;2;True;1;2;107.19516324975002
433;433;1449481263;2.18739461899;0.7149365544320001;0.0356686376035;2;True;1;2;107.19516324975002
434;434;1449481263;2.18741559982;0.71486222744;0.0353992469609;2;True;1;2;107.19516324975002
435;435;1449481263;2.18736624718;0.715166151524;0.0355555154383;2;True;1;2;107.19516324975002
436;436;1449481263;2.18742990494;0.714962244034;0.035463158041199996;2;True;1;2;107.19516324975002
437;437;1449481263;2.1874136924700003;0.7148892283439999;0.035370554775;2;True;1;2;107.19516324975002
438;438;1449481263;2.1873111724900003;0.714775502682;0.0357491746545;2;True;1;2;107.19516324975002
439;439;1449481263;2.18740606308;0.7149404883380001;0.0354135073721;2;True;1;2;107.19516324975002
440;440;1449481263;2.18742656708;0.714892625809;0.035371027886900004;2;True;1;2;107.19516324975002
441;441;1449481263;2.1873626709000002;0.7149006128309999;0.0356990136206;2;True;1;2;107.19516324975002
442;442;1449481263;2.18740677834;0.715133190155;0.0354787372053;2;True;1;2;107.19516324975002
443;443;1449481263;2.18743371964;0.715227365494;0.0353750549257;2;True;1;2;107.19516324975002
444;444;1449481263;2.1873958110799996;0.714953184128;0.0356617495418;2;True;1;2;107.19516324975002
445;445;1449481263;2.18739485741;0.7148984670640001;0.0355459265411;2;True;1;2;107.19516324975002
446;446;1449481263;2.1873254776;0.7149302363400001;0.0358181558549;2;True;1;2;107.19516324975002
447;447;1449481263;2.18732428551;0.714850962162;0.0358048267663;2;True;1;2;107.19516324975002
448;448;1449481263;2.18741703033;0.7151445746420001;0.035320941358800005;2;True;1;2;107.19516324975002
449;449;1449481263;2.18729019165;0.7147229909899999;0.0357837975025;2;True;1;2;107.19516324975002
450;450;1449481263;2.1873250007599996;0.7151561975480001;0.0355713404715;2;True;1;2;107.19516324975002
451;451;1449481263;2.1873991489400004;0.7146885991099999;0.0358405932784;2;True;1;2;107.19516324975002
452;452;1449481263;2.1873927116400003;0.714762568474;0.0354267880321;2;True;1;2;107.19516324975002
453;453;1449481263;2.1873440742500003;0.7148711085320001;0.0356791689992;2;True;1;2;107.19516324975002
454;454;1449481263;2.18739509583;0.714968919754;0.035528790205699996;2;True;1;2;107.19516324975002
455;455;1449481263;2.18741893768;0.715098202229;0.03528293594719999;2;True;1;2;107.19516324975002
456;456;1449481263;2.1872377395599996;0.714694261551;0.0358533002436;2;True;1;2;107.19516324975002
457;457;1449481263;2.18734240532;0.71485722065;0.0356467887759;2;True;1;2;107.19516324975002
458;458;1449481263;2.18728303909;0.714907467365;0.0358226150274;2;True;1;2;107.19516324975002
459;459;1449481263;2.1873357296;0.715084671974;0.0355499610305;2;True;1;2;107.19516324975002
460;460;1449481263;2.18741464615;0.715153038502;0.035493105649900006;2;True;1;2;107.19516324975002
461;461;1449481263;2.18725633621;0.714897871017;0.0357613451779;2;True;1;2;107.19516324975002
462;462;1449481263;2.187322855;0.714927732944;0.0357912071049;2;True;1;2;107.19516324975002
463;463;1449481263;2.1874260902400002;0.715155005455;0.035323046147800005;2;True;1;2;107.19516324975002
464;464;1449481263;2.18734359741;0.714772820473;0.0356568805873;2;True;1;2;107.19516324975002
465;465;1449481263;2.1874177455900004;0.714900493622;0.0353390462697;2;True;1;2;107.19516324975002
466;466;1449481263;2.1874136924700003;0.714793562889;0.0354379341006;2;True;1;2;107.19516324975002
467;467;1449481263;2.18745064735;0.715171635151;0.035369899123900005;2;True;1;2;107.19516324975002
468;468;1449481263;2.18738675117;0.7151174545290001;0.0355389378965;2;True;1;2;107.19516324975002
469;469;1449481263;2.1874237060499997;0.7149297595020001;0.035373058170099995;2;True;1;2;107.19516324975002
470;470;1449481263;2.1873841285699998;0.714907169342;0.0356300026178;2;True;1;2;107.19516324975002
471;471;1449481263;2.1874215602900002;0.714483261108;0.0358056463301;2;True;1;2;107.19516324975002
472;472;1449481263;2.18731713295;0.714825451374;0.035797458142;2;True;1;2;107.19516324975002
473;473;1449481263;2.18744564056;0.715113341808;0.035299193114;2;True;1;2;107.19516324975002
474;474;1449481263;2.1874177455900004;0.714919805527;0.035504259169099994;2;True;1;2;107.19516324975002
475;475;1449481263;2.1873683929400003;0.7150201201440001;0.035658236593;2;True;1;2;107.19516324975002
476;476;1449481263;2.1874089241;0.714955210686;0.035505566746;2;True;1;2;107.19516324975002
477;477;1449481263;2.18729901314;0.7148323059080001;0.0358995981514;2;True;1;2;107.19516324975002
478;478;1449481263;2.18736362457;0.7149041295049999;0.035666797310099994;2;True;1;2;107.19516324975002
479;479;1449481263;2.1872494220700003;0.7146753072740001;0.0359087996185;2;True;1;2;107.19516324975002
480;480;1449481263;2.18728041649;0.714683055878;0.0359307602048;2;True;1;2;107.19516324975002
481;481;1449481263;2.18741321564;0.7148824334139999;0.0357423275709;2;True;1;2;107.19516324975002
482;482;1449481263;2.1874573230700003;0.7151759862899999;0.0353900007904;2;True;1;2;107.19516324975002
483;483;1449481263;2.1873087883;0.7148414850229999;0.036091998219499995;2;True;1;2;107.19516324975002
484;484;1449481263;2.18743777275;0.715154588223;0.0353360138834;2;True;1;2;107.19516324975002
485;485;1449481263;2.1874177455900004;0.7149131298070001;0.0353432483971;2;True;1;2;107.19516324975002
486;486;1449481263;2.18742918968;0.715117514133;0.0353014990687;2;True;1;2;107.19516324975002
487;487;1449481263;2.18727183342;0.7148983478550001;0.035972982645;2;True;1;2;107.19516324975002
488;488;1449481263;2.18742513657;0.7149041295049999;0.0355348587036;2;True;1;2;107.19516324975002
489;489;1449481263;2.1874229908;0.715180039406;0.035341009497599996;2;True;1;2;107.19516324975002
490;490;1449481263;2.1874074935900003;0.715143859386;0.035484708845599996;2;True;1;2;107.19516324975002
491;491;1449481263;2.18734335899;0.715239107609;0.035607106983699996;2;True;1;2;107.19516324975002
492;492;1449481263;2.1874306201900002;0.7151964902879999;0.0353542454541;2;True;1;2;107.19516324975002
493;493;1449481263;2.18740272522;0.714747190475;0.0354317463934;2;True;1;2;107.19516324975002
494;494;1449481263;2.18742656708;0.714908182621;0.035370528698;2;True;1;2;107.19516324975002
495;495;1449481263;2.18740653992;0.715152740479;0.0354877263308;2;True;1;2;107.19516324975002
496;496;1449481263;2.18729758263;0.714869081974;0.035867217928199996;2;True;1;2;107.19516324975002
497;497;1449481263;2.1873507499700002;0.7145392298700001;0.035813637077800005;2;True;1;2;107.19516324975002
498;498;1449481263;2.18738746643;0.714496612549;0.035804014652999996;2;True;1;2;107.19516324975002
499;499;1449481263;2.18742418289;0.715100169182;0.0354418680072;2;True;1;2;107.19516324975002
500;500;1449481263;2.1873011589099995;0.714803576469;0.036020204424900004;2;True;1;2;107.19516324975002
501;501;1449481263;2.1873819828;0.7149349451070001;0.0356108136475;2;True;1;2;107.19516324975002
502;502;1449481263;2.18740653992;0.7149059176450001;0.0357040427625;2;True;1;2;107.19516324975002
503;503;1449481263;2.1873960494999998;0.714968204498;0.035350359976300004;2;True;1;2;107.19516324975002
504;504;1449481263;2.18725562096;0.714824140072;0.035836827009900006;2;True;1;2;107.19516324975002
505;505;1449481263;2.1874306201900002;0.715176403522;0.0353355444968;2;True;1;2;107.19516324975002
506;506;1449481263;2.18738555908;0.714880108833;0.035453017801;2;True;1;2;107.19516324975002
507;507;1449481263;2.18740105629;0.714957535267;0.0354099459946;2;True;1;2;107.19516324975002
508;508;1449481263;2.18741059303;0.7149733901019999;0.0354427807033;2;True;1;2;107.19516324975002
509;509;1449481263;2.18738150597;0.714840948582;0.0354667641222;2;True;1;2;107.19516324975002
510;510;1449481263;2.1873254776;0.715229153633;0.035602774471;2;True;1;2;107.19516324975002
511;511;1449481263;2.18742728233;0.7149184346199999;0.035448949784;2;True;1;2;107.19516324975002
512;512;1449481263;2.1874165535;0.714908361435;0.0353638380766;2;True;1;2;107.19516324975002
513;513;1449481263;2.18733048439;0.714773237705;0.0357764139771;2;True;1;2;107.19516324975002
514;514;1449481263;2.18742990494;0.7147431373600001;0.035822588950400004;2;True;1;2;107.19516324975002
515;515;1449481263;2.18742132187;0.714966475964;0.0354120023549;2;True;1;2;107.19516324975002
516;516;1449481263;2.1874499321000003;0.7151724100110001;0.035342682152999995;2;True;1;2;107.19516324975002
517;517;1449481263;2.18744540215;0.7151528596879999;0.0353369824588;2;True;1;2;107.19516324975002
518;518;1449481263;2.18742799759;0.714773237705;0.0358046814799;2;True;1;2;107.19516324975002
519;519;1449481263;2.18730950356;0.7146065831180001;0.035865701735;2;True;1;2;107.19516324975002
520;520;1449481263;2.1874525547;0.7148050665860001;0.0358069986105;2;True;1;2;107.19516324975002
521;521;1449481263;2.18746089935;0.715136170387;0.035351499915100004;2;True;1;2;107.19516324975002
522;522;1449481263;2.1872377395599996;0.714700758457;0.0359555706382;2;True;1;2;107.19516324975002
523;523;1449481263;2.18744182587;0.715167582035;0.0353603065014;2;True;1;2;107.19516324975002
524;524;1449481263;2.1874408721900003;0.7151338458059999;0.03548536449669999;2;True;1;2;107.19516324975002
525;525;1449481263;2.18744564056;0.7151215672490001;0.0354841351509;2;True;1;2;107.19516324975002
526;526;1449481263;2.1874136924700003;0.714950919151;0.035596925765300005;2;True;1;2;107.19516324975002
527;527;1449481263;2.18741607666;0.714937627316;0.035449296236;2;True;1;2;107.19516324975002
528;528;1449481263;2.18740200996;0.714775323868;0.0355334952474;2;True;1;2;107.19516324975002
529;529;1449481263;2.18744874001;0.714497864246;0.0357914455235;2;True;1;2;107.19516324975002
530;530;1449481263;2.18733048439;0.7149428725239999;0.0357996039093;2;True;1;2;107.19516324975002
531;531;1449481263;2.1873977184299997;0.715184569359;0.035578325390800004;2;True;1;2;107.19516324975002
532;532;1449481263;2.18744897842;0.7151684761049999;0.0353484489024;2;True;1;2;107.19516324975002
533;533;1449481263;2.1873104572299997;0.714595735073;0.0359024554491;2;True;1;2;107.19516324975002
534;534;1449481263;2.1874256134;0.714738368988;0.0354317873716;2;True;1;2;107.19516324975002
535;535;1449481263;2.1872067451499997;0.714924573898;0.036073502153199995;2;True;1;2;107.19516324975002
536;536;1449481263;2.18742513657;0.7150168418880001;0.035447631031300005;2;True;1;2;107.19516324975002
537;537;1449481263;2.1873884201;0.7147915959360001;0.0355221815407;2;True;1;2;107.19516324975002
538;538;1449481263;2.18745040894;0.714671432972;0.035681799054099995;2;True;1;2;107.19516324975002
539;539;1449481263;2.18742990494;0.715020656586;0.0354932546616;2;True;1;2;107.19516324975002
540;540;1449481263;2.1873757839200003;0.7148829102519999;0.0356598682702;2;True;1;2;107.19516324975002
541;541;1449481263;2.1873495578799997;0.7148392796520001;0.035760276019599996;2;True;1;2;107.19516324975002
542;542;1449481263;2.1872963905300002;0.7149047255519999;0.035836622118900006;2;True;1;2;107.19516324975002
543;543;1449481263;2.18726563454;0.714645326138;0.0358716510236;2;True;1;2;107.19516324975002
544;544;1449481263;2.18738865852;0.714961230755;0.0355565808713;2;True;1;2;107.19516324975002
545;545;1449481263;2.18739533424;0.714758753777;0.035542957484699995;2;True;1;2;107.19516324975002
546;546;1449481263;2.1874420642900003;0.71507704258;0.0354865379632;2;True;1;2;107.19516324975002
547;547;1449481263;2.18742895126;0.7150189876559999;0.0354566574097;2;True;1;2;107.19516324975002
548;548;1449481263;2.1874356269799997;0.71500903368;0.0354892201722;2;True;1;2;107.19516324975002
549;549;1449481263;2.18739700317;0.714900970459;0.0356036201119;2;True;1;2;107.19516324975002
550;550;1449481263;2.18744945526;0.7151517272;0.035338222980499996;2;True;1;2;107.19516324975002
551;551;1449481263;2.18732714653;0.714903652668;0.0358753688633;2;True;1;2;107.19516324975002
552;552;1449481263;2.18741798401;0.714974939823;0.035494171083;2;True;1;2;107.19516324975002
553;553;1449481263;2.18734693527;0.7152704596520001;0.0356108248234;2;True;1;2;107.19516324975002
554;554;1449481263;2.1874327659599997;0.7149067521100001;0.0359234176576;2;True;1;2;107.19516324975002
555;555;1449481263;2.18732142448;0.7148497104639999;0.0358083024621;2;True;1;2;107.19516324975002
556;556;1449481263;2.18745350838;0.7149589657780001;0.035773191601;2;True;1;2;107.19516324975002
557;557;1449481263;2.18743371964;0.714867472649;0.0356131158769;2;True;1;2;107.19516324975002
558;558;1449481263;2.18736457825;0.715114414692;0.0355578102171;2;True;1;2;107.19516324975002
559;559;1449481263;2.1873717308000002;0.715003788471;0.035566225647900004;2;True;1;2;107.19516324975002
560;560;1449481263;2.1874358654;0.7150222063060001;0.0355122573674;2;True;1;2;107.19516324975002
561;561;1449481263;2.18731737137;0.714836895466;0.03553649038080001;2;True;1;2;107.19516324975002
562;562;1449481263;2.18742513657;0.714961469173;0.035421743989;2;True;1;2;107.19516324975002
563;563;1449481263;2.1873357296;0.7152302265170001;0.035567119717599995;2;True;1;2;107.19516324975002
564;564;1449481263;2.1873884201;0.7149740457529999;0.0356707945466;2;True;1;2;107.19516324975002
565;565;1449481263;2.18746376038;0.714908182621;0.0357364714146;2;True;1;2;107.19516324975002
566;566;1449481263;2.18736362457;0.7148298621179999;0.0356865152717;2;True;1;2;107.19516324975002
567;567;1449481263;2.18741250038;0.7148163914679999;0.0354333519936;2;True;1;2;107.19516324975002
568;568;1449481263;2.18743371964;0.7148882746699999;0.035723824054;2;True;1;2;107.19516324975002
569;569;1449481263;2.1872074604;0.715173780918;0.0358355119824;2;True;1;2;107.19516324975002
570;570;1449481263;2.18741846085;0.714861154556;0.035416290164000004;2;True;1;2;107.19516324975002
571;571;1449481263;2.1872453689599998;0.714735686779;0.035908531397599995;2;True;1;2;107.19516324975002
572;572;1449481263;2.18741989136;0.714926600456;0.035697162151300005;2;True;1;2;107.19516324975002
573;573;1449481263;2.18741846085;0.71512901783;0.0354740582407;2;True;1;2;107.19516324975002
574;574;1449481263;2.1873409748099997;0.714832782745;0.035842515528199996;2;True;1;2;107.19516324975002
575;575;1449481263;2.1874237060499997;0.714895188808;0.0355586782098;2;True;1;2;107.19516324975002
576;576;1449481263;2.1873977184299997;0.715038657188;0.0357681103051;2;True;1;2;107.19516324975002
577;577;1449481263;2.1874420642900003;0.714949607849;0.0355434380472;2;True;1;2;107.19516324975002
578;578;1449481263;2.18741130829;0.71484798193;0.035406101495;2;True;1;2;107.19516324975002
579;579;1449481263;2.18742418289;0.714919507504;0.0353416465223;2;True;1;2;107.19516324975002
580;580;1449481263;2.18729925156;0.714767277241;0.0357343293726;2;True;1;2;107.19516324975002
581;581;1449481263;2.18746948242;0.714960575104;0.0357545092702;2;True;1;2;107.19516324975002
582;582;1449481263;2.1874234676400004;0.714808523655;0.035379819572;2;True;1;2;107.19516324975002
583;583;1449481263;2.18740558624;0.7152112126350001;0.0354774035513;2;True;1;2;107.19516324975002
584;584;1449481263;2.1874101162;0.7148807644840001;0.0354369468987;2;True;1;2;107.19516324975002
585;585;1449481263;2.1874356269799997;0.714892566204;0.035338517278400004;2;True;1;2;107.19516324975002
586;586;1449481263;2.18731999397;0.714836716652;0.035902582109;2;True;1;2;107.19516324975002
587;587;1449481263;2.1873660087599998;0.714798510075;0.0358128137887;2;True;1;2;107.19516324975002
588;588;1449481263;2.18733263016;0.7148108482359999;0.0357006676495;2;True;1;2;107.19516324975002
589;589;1449481263;2.1874356269799997;0.7151538729670001;0.035337768495099994;2;True;1;2;107.19516324975002
590;590;1449481263;2.18744397163;0.714793324471;0.035804230719800004;2;True;1;2;107.19516324975002
591;591;1449481263;2.1874511241900003;0.715119361877;0.0353185608983;2;True;1;2;107.19516324975002
592;592;1449481263;2.1873977184299997;0.714905560017;0.0356779955328;2;True;1;2;107.19516324975002
593;593;1449481263;2.1874136924700003;0.7150649428370001;0.0354468487203;2;True;1;2;107.19516324975002
594;594;1449481263;2.1873459816;0.714829385281;0.035734049975900004;2;True;1;2;107.19516324975002
595;595;1449481263;2.1874425411200003;0.7151601910590001;0.035335797816499995;2;True;1;2;107.19516324975002
596;596;1449481263;2.18735790253;0.7152011990549999;0.035568036139;2;True;1;2;107.19516324975002
597;597;1449481263;2.1874141693099998;0.714914619923;0.0355719178915;2;True;1;2;107.19516324975002
598;598;1449481263;2.1873383522;0.7151852846150001;0.035564042627800004;2;True;1;2;107.19516324975002
599;599;1449481263;2.18738150597;0.7148762345309999;0.035617478191900004;2;True;1;2;107.19516324975002
600;600;1449481263;2.18736767769;0.7147248387340001;0.0355383269489;2;True;1;2;107.19516324975002
601;601;1449481263;2.18734288216;0.71484285593;0.0358004420996;2;True;1;2;107.19516324975002
602;602;1449481263;2.18737840652;0.7149128317829999;0.035593081265699995;2;True;1;2;107.19516324975002
603;603;1449481263;2.18742537498;0.714907050133;0.0355058684945;2;True;1;2;107.19516324975002
604;604;1449481263;2.1874089241;0.7149439454080001;0.0354035943747;2;True;1;2;107.19516324975002
605;605;1449481263;2.18738293648;0.715019822121;0.0356872677803;2;True;1;2;107.19516324975002
606;606;1449481264;2.1874108314500003;0.715084373951;0.035457983612999996;3;True;1;2;107.19516324975002
