;Unnamed: 0;header_stamp_secs;pose_position_x;pose_position_y;pose_position_z;seconds;drop_values;flight_number;label;dtw
0;0;1449486697;2.1435091495500003;0.744450688362;0.0692531391978;0;True;14;1;7.314751147879995
1;1;1449486697;2.14340853691;0.744176447392;0.06937292963269999;0;True;14;1;7.314751147879995
2;2;1449486697;2.14348363876;0.744608461857;0.06933496147389999;0;True;14;1;7.314751147879995
3;3;1449486697;2.14352560043;0.744496405125;0.0692486986518;0;True;14;1;7.314751147879995
4;4;1449486697;2.14361691475;0.744550704956;0.0692905187607;0;True;14;1;7.314751147879995
5;5;1449486697;2.14357447624;0.744421243668;0.06913490593430001;0;True;14;1;7.314751147879995
6;6;1449486697;2.14356708527;0.7445265650749999;0.0692207068205;0;True;14;1;7.314751147879995
7;7;1449486698;2.14350485802;0.7445667386049999;0.0692825615406;1;True;14;1;7.314751147879995
8;8;1449486698;2.1436235904700003;0.7443755865100001;0.0691215321422;1;True;14;1;7.314751147879995
9;9;1449486698;2.14358901978;0.7445237040520001;0.0693052858114;1;True;14;1;7.314751147879995
10;10;1449486698;2.14348626137;0.7447514534;0.06920593976969999;1;True;14;1;7.314751147879995
11;11;1449486698;2.1434473991400003;0.7444180250169999;0.0692776665092;1;True;14;1;7.314751147879995
12;12;1449486698;2.14358711243;0.744516134262;0.0692668110132;1;True;14;1;7.314751147879995
13;13;1449486698;2.14354658127;0.744552254677;0.0692749395967;1;True;14;1;7.314751147879995
14;14;1449486698;2.1434597969099998;0.744937539101;0.0691879689693;1;True;14;1;7.314751147879995
15;15;1449486698;2.14356946945;0.7445617318150001;0.0691765248775;1;True;14;1;7.314751147879995
16;16;1449486698;2.14347577095;0.744498133659;0.0693821385503;1;True;14;1;7.314751147879995
17;17;1449486698;2.14349222183;0.744391560555;0.06930579245089999;1;True;14;1;7.314751147879995
18;18;1449486698;2.14350652695;0.7445960044859999;0.0693463161588;1;True;14;1;7.314751147879995
19;19;1449486698;2.1436324119599997;0.7445768117899999;0.06929718703030001;1;True;14;1;7.314751147879995
20;20;1449486698;2.1432750225099997;0.744710743427;0.06932834535839999;1;True;14;1;7.314751147879995
21;21;1449486698;2.1433486938499997;0.744869530201;0.06924880295989999;1;True;14;1;7.314751147879995
22;22;1449486698;2.14357089996;0.7445436120029999;0.06924436241389999;1;True;14;1;7.314751147879995
23;23;1449486698;2.14356565475;0.744533717632;0.06926628947260001;1;True;14;1;7.314751147879995
24;24;1449486698;2.14347982407;0.744447946548;0.06931187957530001;1;True;14;1;7.314751147879995
25;25;1449486698;2.1435451507599996;0.744502484798;0.06935022771360001;1;True;14;1;7.314751147879995
26;26;1449486698;2.14352846146;0.744326531887;0.0693108811975;1;True;14;1;7.314751147879995
27;27;1449486698;2.14350676537;0.744272649288;0.06933273375030001;1;True;14;1;7.314751147879995
28;28;1449486698;2.14349389076;0.744331181049;0.06932263076310001;1;True;14;1;7.314751147879995
29;29;1449486698;2.1436562538099997;0.744889438152;0.06917344033719999;1;True;14;1;7.314751147879995
30;30;1449486698;2.1434655189500003;0.744863450527;0.0687974914908;1;True;14;1;7.314751147879995
31;31;1449486698;2.14355015755;0.744486927986;0.0692957416177;1;True;14;1;7.314751147879995
32;32;1449486698;2.1435170173599998;0.7444432377820001;0.0693290755153;1;True;14;1;7.314751147879995
33;33;1449486698;2.14298677444;0.7447556257250001;0.06879445910450001;1;True;14;1;7.314751147879995
34;34;1449486698;2.14351820946;0.74426150322;0.0693725571036;1;True;14;1;7.314751147879995
35;35;1449486698;2.14363622665;0.744870245457;0.0692114084959;1;True;14;1;7.314751147879995
36;36;1449486698;2.1436285972599998;0.744426310062;0.0691519454122;1;True;14;1;7.314751147879995
37;37;1449486698;2.1435992717700003;0.744555175304;0.0692950859666;1;True;14;1;7.314751147879995
38;38;1449486698;2.14356184006;0.74461722374;0.069276124239;1;True;14;1;7.314751147879995
39;39;1449486698;2.14356708527;0.7445104718209999;0.0692956000566;1;True;14;1;7.314751147879995
40;40;1449486698;2.14351439476;0.7443212866779999;0.0693499967456;1;True;14;1;7.314751147879995
41;41;1449486698;2.14361310005;0.744557082653;0.0692810714245;1;True;14;1;7.314751147879995
42;42;1449486698;2.1435451507599996;0.744702160358;0.06931513547899999;1;True;14;1;7.314751147879995
43;43;1449486698;2.14350676537;0.744445800781;0.0693134963512;1;True;14;1;7.314751147879995
44;44;1449486698;2.1435520649;0.744567036629;0.06938182562589999;1;True;14;1;7.314751147879995
45;45;1449486698;2.14352369308;0.7447930574420001;0.0691573321819;1;True;14;1;7.314751147879995
46;46;1449486698;2.14354562759;0.7445837259289999;0.06940676271919999;1;True;14;1;7.314751147879995
47;47;1449486698;2.14355993271;0.744540572166;0.0693053305149;1;True;14;1;7.314751147879995
48;48;1449486698;2.14357924461;0.744748950005;0.0692406520247;1;True;14;1;7.314751147879995
49;49;1449486698;2.14357495308;0.744492948055;0.06929957866669999;1;True;14;1;7.314751147879995
50;50;1449486698;2.14359116554;0.7446490526199999;0.0692525133491;1;True;14;1;7.314751147879995
51;51;1449486698;2.14355134964;0.744617283344;0.0693013817072;1;True;14;1;7.314751147879995
52;52;1449486698;2.14349794388;0.744533717632;0.069448068738;1;True;14;1;7.314751147879995
53;53;1449486698;2.14349508286;0.744474589825;0.0693421140313;1;True;14;1;7.314751147879995
54;54;1449486698;2.14352321625;0.744407832623;0.06933987140660001;1;True;14;1;7.314751147879995
55;55;1449486698;2.1434648037;0.744417607784;0.0693348944187;1;True;14;1;7.314751147879995
56;56;1449486698;2.14352679253;0.744495511055;0.0693223327398;1;True;14;1;7.314751147879995
57;57;1449486698;2.14345145226;0.7442052960400001;0.0694465637207;1;True;14;1;7.314751147879995
58;58;1449486698;2.14354848862;0.74463313818;0.069309912622;1;True;14;1;7.314751147879995
59;59;1449486698;2.14350342751;0.744339942932;0.0693669393659;1;True;14;1;7.314751147879995
60;60;1449486698;2.1435887813599996;0.74457514286;0.069307923317;1;True;14;1;7.314751147879995
61;61;1449486698;2.14359283447;0.744582295418;0.0692286640406;1;True;14;1;7.314751147879995
62;62;1449486698;2.1435854435;0.744495630264;0.0693649575114;1;True;14;1;7.314751147879995
63;63;1449486698;2.1435058116900003;0.744341254234;0.0693387687206;1;True;14;1;7.314751147879995
64;64;1449486698;2.14360976219;0.744548797607;0.0692565962672;1;True;14;1;7.314751147879995
65;65;1449486698;2.1435341835;0.7446210980419999;0.0693473443389;1;True;14;1;7.314751147879995
66;66;1449486698;2.14354419708;0.7445847392080001;0.06942474097010001;1;True;14;1;7.314751147879995
67;67;1449486698;2.1436471939099997;0.7449263334270001;0.06918034702539999;1;True;14;1;7.314751147879995
68;68;1449486698;2.14348506927;0.744445979595;0.06938257813450001;1;True;14;1;7.314751147879995
69;69;1449486698;2.14361286163;0.7445176839830001;0.0692347809672;1;True;14;1;7.314751147879995
70;70;1449486698;2.1435482502000003;0.744500100613;0.06928660720589999;1;True;14;1;7.314751147879995
71;71;1449486698;2.1434955596900003;0.7445000410079999;0.0693653672934;1;True;14;1;7.314751147879995
72;72;1449486698;2.14361715317;0.7446284890170001;0.069235958159;1;True;14;1;7.314751147879995
73;73;1449486698;2.14344191551;0.7444159388539999;0.06932372599839999;1;True;14;1;7.314751147879995
74;74;1449486698;2.14350652695;0.7444843053820001;0.0692971721292;1;True;14;1;7.314751147879995
75;75;1449486698;2.14352035522;0.744292736053;0.06934663653369999;1;True;14;1;7.314751147879995
76;76;1449486698;2.14356541634;0.7445321679119999;0.0692325308919;1;True;14;1;7.314751147879995
77;77;1449486698;2.14359140396;0.744487643242;0.0692154169083;1;True;14;1;7.314751147879995
78;78;1449486698;2.1435799598700003;0.744662702084;0.069279409945;1;True;14;1;7.314751147879995
79;79;1449486698;2.1435160636900004;0.744276404381;0.069347165525;1;True;14;1;7.314751147879995
80;80;1449486698;2.14363431931;0.744862914085;0.06911472231150001;1;True;14;1;7.314751147879995
81;81;1449486698;2.14385843277;0.744933664799;0.0692359507084;1;True;14;1;7.314751147879995
82;82;1449486698;2.14361357689;0.744488954544;0.0692123696208;1;True;14;1;7.314751147879995
83;83;1449486698;2.1436111927;0.744913220406;0.0691878199577;1;True;14;1;7.314751147879995
84;84;1449486698;2.14370012283;0.7446537017820001;0.06929786503310001;1;True;14;1;7.314751147879995
85;85;1449486698;2.1438794136;0.744927942753;0.06920699775219999;1;True;14;1;7.314751147879995
86;86;1449486698;2.14356040955;0.744542598724;0.06923633068799999;1;True;14;1;7.314751147879995
87;87;1449486698;2.14351129532;0.7446052432060001;0.06935517489910001;1;True;14;1;7.314751147879995
88;88;1449486698;2.14357590675;0.744572520256;0.06916951388119999;1;True;14;1;7.314751147879995
89;89;1449486698;2.1438579559299997;0.74490326643;0.0691950768232;1;True;14;1;7.314751147879995
90;90;1449486698;2.14350962639;0.744296371937;0.0693022459745;1;True;14;1;7.314751147879995
91;91;1449486698;2.14361596107;0.744558155537;0.0692800432444;1;True;14;1;7.314751147879995
92;92;1449486698;2.14304709435;0.744990706444;0.06843921542169999;1;True;14;1;7.314751147879995
93;93;1449486698;2.14357733727;0.744589447975;0.06917375326160001;1;True;14;1;7.314751147879995
94;94;1449486698;2.14336681366;0.7443329691889999;0.06933429837230001;1;True;14;1;7.314751147879995
95;95;1449486698;2.14327597618;0.7448514699940001;0.0691174715757;1;True;14;1;7.314751147879995
96;96;1449486698;2.14312028885;0.7448899149889999;0.0690528601408;1;True;14;1;7.314751147879995
97;97;1449486698;2.14360380173;0.74487143755;0.0691092014313;1;True;14;1;7.314751147879995
98;98;1449486698;2.14277148247;0.744500637054;0.0683784633875;1;True;14;1;7.314751147879995
99;99;1449486698;2.14344501495;0.74437636137;0.0692878291011;1;True;14;1;7.314751147879995
100;100;1449486698;2.14348006248;0.744770348072;0.0691210925579;1;True;14;1;7.314751147879995
101;101;1449486698;2.1435542106599996;0.744535446167;0.0692396014929;1;True;14;1;7.314751147879995
102;102;1449486698;2.14329648018;0.7449699640270001;0.0683939605951;1;True;14;1;7.314751147879995
103;103;1449486698;2.14296722412;0.7445247769359999;0.0682892128825;1;True;14;1;7.314751147879995
104;104;1449486698;2.14362168312;0.744849324226;0.0690722316504;1;True;14;1;7.314751147879995
105;105;1449486698;2.1436948776199998;0.744469225407;0.06969315558669999;1;True;14;1;7.314751147879995
106;106;1449486698;2.14289975166;0.74483692646;0.0689910277724;1;True;14;1;7.314751147879995
107;107;1449486698;2.1433703899400003;0.744766056538;0.069053940475;1;True;14;1;7.314751147879995
108;108;1449486698;2.14352297783;0.7443121671680001;0.06927315890789999;1;True;14;1;7.314751147879995
109;109;1449486698;2.1433346271500002;0.7448449730869999;0.0692981481552;1;True;14;1;7.314751147879995
110;110;1449486698;2.14391446114;0.744709551334;0.06914952397350001;1;True;14;1;7.314751147879995
111;111;1449486698;2.14355492592;0.7447333931919999;0.0691538751125;1;True;14;1;7.314751147879995
112;112;1449486698;2.14317178726;0.7444264292720001;0.0698301643133;1;True;14;1;7.314751147879995
113;113;1449486698;2.1435132026700003;0.744898736477;0.0690343752503;1;True;14;1;7.314751147879995
114;114;1449486698;2.1429655551900004;0.74451982975;0.06917224079369999;1;True;14;1;7.314751147879995
115;115;1449486698;2.14307928085;0.745278894901;0.06897582113739999;1;True;14;1;7.314751147879995
116;116;1449486698;2.14383816719;0.744947195053;0.06914664804939999;1;True;14;1;7.314751147879995
117;117;1449486698;2.14307308197;0.744620680809;0.0690955072641;1;True;14;1;7.314751147879995
118;118;1449486698;2.14368319511;0.74478071928;0.0691901817918;1;True;14;1;7.314751147879995
119;119;1449486698;2.14321374893;0.744962394238;0.0685775056481;1;True;14;1;7.314751147879995
120;120;1449486698;2.14348268509;0.7443400025370001;0.0694027915597;1;True;14;1;7.314751147879995
121;121;1449486698;2.14264059067;0.7446059584620001;0.06908228993419999;1;True;14;1;7.314751147879995
122;122;1449486698;2.1434855461099995;0.744280040264;0.06940385699269999;1;True;14;1;7.314751147879995
123;123;1449486698;2.14369392395;0.7446393966670001;0.0693982541561;1;True;14;1;7.314751147879995
124;124;1449486698;2.1435418129;0.744406461716;0.069279037416;1;True;14;1;7.314751147879995
125;125;1449486698;2.14355754852;0.744749903679;0.0691851750016;1;True;14;1;7.314751147879995
126;126;1449486698;2.14351820946;0.744282007217;0.06935057789089999;1;True;14;1;7.314751147879995
127;127;1449486698;2.1435408592200003;0.744612693787;0.0693105608225;1;True;14;1;7.314751147879995
128;128;1449486698;2.14353203773;0.744611799717;0.0692629516125;1;True;14;1;7.314751147879995
129;129;1449486698;2.14346766472;0.744519948959;0.0693323984742;1;True;14;1;7.314751147879995
130;130;1449486698;2.14355778694;0.744504213333;0.06929915398360001;1;True;14;1;7.314751147879995
131;131;1449486698;2.1435983181;0.744740366936;0.06921420991419999;1;True;14;1;7.314751147879995
132;132;1449486698;2.14353585243;0.744467616081;0.06931637972589999;1;True;14;1;7.314751147879995
133;133;1449486698;2.14365339279;0.744862020016;0.0691967085004;1;True;14;1;7.314751147879995
134;134;1449486698;2.14277601242;0.744441986084;0.06886360794310001;1;True;14;1;7.314751147879995
135;135;1449486698;2.14356207848;0.744415044785;0.06929014623169999;1;True;14;1;7.314751147879995
136;136;1449486698;2.1435291767099995;0.744357764721;0.0693592205644;1;True;14;1;7.314751147879995
137;137;1449486698;2.14347481728;0.744502544403;0.0693647041917;1;True;14;1;7.314751147879995
138;138;1449486698;2.14365434647;0.744868993759;0.0692339763045;1;True;14;1;7.314751147879995
139;139;1449486698;2.14354348183;0.7447824478149999;0.069269195199;1;True;14;1;7.314751147879995
140;140;1449486698;2.1436121463799997;0.7445499897;0.06924267113210002;1;True;14;1;7.314751147879995
141;141;1449486698;2.14355540276;0.744585990906;0.06931409239769999;1;True;14;1;7.314751147879995
142;142;1449486698;2.14367175102;0.744828701019;0.0692052394152;1;True;14;1;7.314751147879995
143;143;1449486698;2.14342355728;0.7444437146189999;0.0694511905313;1;True;14;1;7.314751147879995
144;144;1449486698;2.14328289032;0.7445482015610001;0.0693685859442;1;True;14;1;7.314751147879995
145;145;1449486698;2.14356279373;0.7445005774500001;0.0693262144923;1;True;14;1;7.314751147879995
146;146;1449486698;2.14356160164;0.744612634182;0.06937186419960001;1;True;14;1;7.314751147879995
147;147;1449486698;2.1435747146599997;0.744551181793;0.06933276355269999;1;True;14;1;7.314751147879995
148;148;1449486698;2.1436429023700003;0.744522094727;0.0693654343486;1;True;14;1;7.314751147879995
149;149;1449486698;2.14349126816;0.744426965714;0.069368198514;1;True;14;1;7.314751147879995
150;150;1449486698;2.14355278015;0.744615674019;0.06939855217930001;1;True;14;1;7.314751147879995
151;151;1449486698;2.14364147186;0.744450211525;0.0692501813173;1;True;14;1;7.314751147879995
152;152;1449486698;2.1435542106599996;0.744519412518;0.0693683996797;1;True;14;1;7.314751147879995
153;153;1449486698;2.1435556411700003;0.744422256947;0.06939750909810001;1;True;14;1;7.314751147879995
154;154;1449486698;2.14351511002;0.7445150613779999;0.06937342882160001;1;True;14;1;7.314751147879995
155;155;1449486698;2.1436166763299997;0.7445110678669999;0.0692969709635;1;True;14;1;7.314751147879995
156;156;1449486698;2.14358258247;0.7446099519730001;0.0693483576179;1;True;14;1;7.314751147879995
157;157;1449486698;2.1434597969099998;0.7443878650669999;0.0693525075912;1;True;14;1;7.314751147879995
158;158;1449486698;2.1436355114;0.744983136654;0.0692520365119;1;True;14;1;7.314751147879995
159;159;1449486698;2.14350032806;0.744425475597;0.06932184845210002;1;True;14;1;7.314751147879995
160;160;1449486698;2.1435482502000003;0.744568288326;0.069286853075;1;True;14;1;7.314751147879995
161;161;1449486698;2.1434874534599997;0.7443117499349999;0.06944245845080001;1;True;14;1;7.314751147879995
162;162;1449486698;2.14350938797;0.744501590729;0.069504365325;1;True;14;1;7.314751147879995
163;163;1449486698;2.14351940155;0.7445524930949999;0.06940013170239999;1;True;14;1;7.314751147879995
164;164;1449486698;2.1434919834099997;0.7444681525229999;0.069360293448;1;True;14;1;7.314751147879995
165;165;1449486698;2.14352369308;0.7442763447759999;0.0693801492453;1;True;14;1;7.314751147879995
166;166;1449486698;2.14354610443;0.7447581291200001;0.0693215057254;1;True;14;1;7.314751147879995
167;167;1449486698;2.1434972286200003;0.745121359825;0.06900541484360001;1;True;14;1;7.314751147879995
168;168;1449486698;2.14350891113;0.7445163130760001;0.0694237202406;1;True;14;1;7.314751147879995
169;169;1449486698;2.14361929893;0.7445027828219999;0.06936267763380001;1;True;14;1;7.314751147879995
170;170;1449486698;2.14354252815;0.7446075081829999;0.0694128647447;1;True;14;1;7.314751147879995
171;171;1449486698;2.14354467392;0.7445240020749999;0.0693341195583;1;True;14;1;7.314751147879995
172;172;1449486698;2.14343762398;0.744508743286;0.0694172009826;1;True;14;1;7.314751147879995
173;173;1449486698;2.1434688568099998;0.744618713856;0.06938106566669999;1;True;14;1;7.314751147879995
174;174;1449486698;2.14355301857;0.744611680508;0.0693495497108;1;True;14;1;7.314751147879995
175;175;1449486698;2.14353895187;0.744346261024;0.0693010985851;1;True;14;1;7.314751147879995
176;176;1449486698;2.14333772659;0.744692802429;0.0691585615277;1;True;14;1;7.314751147879995
177;177;1449486698;2.1433119773900002;0.7450166940690001;0.0688847899437;1;True;14;1;7.314751147879995
178;178;1449486698;2.14349985123;0.744525492191;0.06926488876339999;1;True;14;1;7.314751147879995
179;179;1449486698;2.14354681969;0.744448900223;0.06930024921889999;1;True;14;1;7.314751147879995
180;180;1449486698;2.1435945034;0.7445905208589999;0.0691629499197;1;True;14;1;7.314751147879995
181;181;1449486698;2.1433362960799998;0.744833290577;0.0691594779491;1;True;14;1;7.314751147879995
182;182;1449486698;2.14357209206;0.744441866875;0.0691547691822;1;True;14;1;7.314751147879995
183;183;1449486698;2.14296102524;0.7452595233920001;0.06873423606160001;1;True;14;1;7.314751147879995
184;184;1449486698;2.14336895943;0.744872033596;0.0690322518349;1;True;14;1;7.314751147879995
185;185;1449486698;2.14350438118;0.7448264956470001;0.069240950048;1;True;14;1;7.314751147879995
186;186;1449486698;2.1438632011400003;0.744887173176;0.06920016556979999;1;True;14;1;7.314751147879995
187;187;1449486698;2.14317536354;0.7449620366099999;0.0691141486168;1;True;14;1;7.314751147879995
188;188;1449486698;2.14383363724;0.7449456453319999;0.06918873637910002;1;True;14;1;7.314751147879995
189;189;1449486698;2.1432416439099997;0.7446926832199999;0.0691403821111;1;True;14;1;7.314751147879995
190;190;1449486698;2.1435215473199998;0.7447091937070001;0.06931949406860001;1;True;14;1;7.314751147879995
191;191;1449486698;2.14335680008;0.7448843121529999;0.069221816957;1;True;14;1;7.314751147879995
192;192;1449486698;2.1434333324400003;0.744913637638;0.0691783428192;1;True;14;1;7.314751147879995
193;193;1449486698;2.14327454567;0.745123326778;0.0687843710184;1;True;14;1;7.314751147879995
194;194;1449486698;2.14355611801;0.744507372379;0.0692372769117;1;True;14;1;7.314751147879995
195;195;1449486698;2.14356088638;0.7445551156999999;0.06922765076160001;1;True;14;1;7.314751147879995
196;196;1449486698;2.14372467995;0.7448344826700001;0.0690687000751;1;True;14;1;7.314751147879995
197;197;1449486698;2.14351773262;0.744300186634;0.0692399069667;1;True;14;1;7.314751147879995
198;198;1449486698;2.14320087433;0.744890272617;0.06902695447210001;1;True;14;1;7.314751147879995
199;199;1449486698;2.1435160636900004;0.744474828243;0.06920990347860001;1;True;14;1;7.314751147879995
200;200;1449486698;2.14358639717;0.7444943785670001;0.0691569000483;1;True;14;1;7.314751147879995
201;201;1449486698;2.14333748817;0.744918048382;0.06899723410610001;1;True;14;1;7.314751147879995
202;202;1449486698;2.14312672615;0.7449188232420001;0.0690482854843;1;True;14;1;7.314751147879995
203;203;1449486698;2.14329791069;0.7445591092110001;0.0693410262465;1;True;14;1;7.314751147879995
204;204;1449486698;2.14322924614;0.7448692917820001;0.0691403672099;1;True;14;1;7.314751147879995
205;205;1449486698;2.14359259605;0.744627654552;0.06927572935819999;1;True;14;1;7.314751147879995
206;206;1449486698;2.1441347599;0.745119214058;0.06925775110719999;1;True;14;1;7.314751147879995
207;207;1449486698;2.14356589317;0.744541525841;0.0692495033145;1;True;14;1;7.314751147879995
208;208;1449486698;2.14309358597;0.745060741901;0.0685046240687;1;True;14;1;7.314751147879995
209;209;1449486698;2.1432988643599997;0.745184421539;0.06881236284969999;1;True;14;1;7.314751147879995
210;210;1449486698;2.14334821701;0.744675636292;0.0691762194037;1;True;14;1;7.314751147879995
211;211;1449486698;2.14369893074;0.744696259499;0.0691708177328;1;True;14;1;7.314751147879995
212;212;1449486698;2.1434609890000003;0.7447171211239999;0.0693034753203;1;True;14;1;7.314751147879995
213;213;1449486698;2.14355444908;0.744713246822;0.0691749900579;1;True;14;1;7.314751147879995
214;214;1449486698;2.14332699776;0.745003938675;0.068634621799;1;True;14;1;7.314751147879995
215;215;1449486698;2.1435761451700004;0.744267582893;0.0691850185394;1;True;14;1;7.314751147879995
216;216;1449486698;2.1435680389400003;0.744663536549;0.069235406816;1;True;14;1;7.314751147879995
217;217;1449486698;2.1435012817400003;0.744446218014;0.0692365318537;1;True;14;1;7.314751147879995
218;218;1449486698;2.14355778694;0.744665443897;0.0692515820265;1;True;14;1;7.314751147879995
219;219;1449486698;2.1435556411700003;0.7445358634;0.0692142546177;1;True;14;1;7.314751147879995
220;220;1449486698;2.1435174941999997;0.744367063046;0.0692669078708;1;True;14;1;7.314751147879995
221;221;1449486698;2.1435832977300002;0.7446447610860001;0.0692440494895;1;True;14;1;7.314751147879995
222;222;1449486698;2.14348340034;0.744270980358;0.06937161087989999;1;True;14;1;7.314751147879995
223;223;1449486698;2.1435761451700004;0.744686067104;0.06928568333389999;1;True;14;1;7.314751147879995
224;224;1449486698;2.14357566833;0.744527459145;0.0693248659372;1;True;14;1;7.314751147879995
225;225;1449486698;2.14352488518;0.744432508945;0.0693370103836;1;True;14;1;7.314751147879995
226;226;1449486698;2.1435060501099996;0.7444618940350001;0.0693304911256;1;True;14;1;7.314751147879995
227;227;1449486698;2.14351630211;0.744566977024;0.0694112628698;1;True;14;1;7.314751147879995
228;228;1449486698;2.14352273941;0.744760215282;0.06934101879599999;1;True;14;1;7.314751147879995
229;229;1449486698;2.1435084343;0.744582176208;0.0693543925881;1;True;14;1;7.314751147879995
230;230;1449486698;2.14342784882;0.744516968727;0.0693976134062;1;True;14;1;7.314751147879995
231;231;1449486698;2.14356708527;0.744504988194;0.0692736953497;1;True;14;1;7.314751147879995
232;232;1449486698;2.1435136795;0.744567573071;0.06932645291089999;1;True;14;1;7.314751147879995
233;233;1449486698;2.14354014397;0.744337439537;0.06931649893519999;1;True;14;1;7.314751147879995
234;234;1449486698;2.1435251236000004;0.7447488307950001;0.0692708790302;1;True;14;1;7.314751147879995
235;235;1449486698;2.14347290993;0.7445104718209999;0.0693082362413;1;True;14;1;7.314751147879995
236;236;1449486698;2.1435551643400004;0.744522213936;0.069316893816;1;True;14;1;7.314751147879995
237;237;1449486698;2.14349007607;0.7443300485609999;0.06930004805329999;1;True;14;1;7.314751147879995
238;238;1449486698;2.14350867271;0.744266867638;0.0693823099136;1;True;14;1;7.314751147879995
239;239;1449486698;2.14355707169;0.74452662468;0.06928822398189999;1;True;14;1;7.314751147879995
240;240;1449486698;2.1435685157799997;0.744511246681;0.0693281814456;1;True;14;1;7.314751147879995
241;241;1449486698;2.14354896545;0.744434177876;0.0692868307233;1;True;14;1;7.314751147879995
242;242;1449486698;2.14353132248;0.7443736195559999;0.06931404769419999;1;True;14;1;7.314751147879995
243;243;1449486698;2.1435842513999996;0.7445735335349999;0.0693296641111;1;True;14;1;7.314751147879995
244;244;1449486698;2.1435873508500003;0.7445994615549999;0.0692950412631;1;True;14;1;7.314751147879995
245;245;1449486698;2.14352631569;0.744279265404;0.0694055184722;1;True;14;1;7.314751147879995
246;246;1449486699;2.14344954491;0.744200229645;0.0694591701031;2;True;14;1;7.314751147879995
247;247;1449486699;2.1435992717700003;0.744422852993;0.0693077594042;2;True;14;1;7.314751147879995
248;248;1449486699;2.1436150074;0.744540035725;0.069326877594;2;True;14;1;7.314751147879995
249;249;1449486699;2.14351630211;0.7442556619640001;0.0694149211049;2;True;14;1;7.314751147879995
250;250;1449486699;2.14350748062;0.7442658543590001;0.0694206729531;2;True;14;1;7.314751147879995
251;251;1449486699;2.1436078548400004;0.744543790817;0.0692529603839;2;True;14;1;7.314751147879995
252;252;1449486699;2.14352822304;0.744549393654;0.0694128274918;2;True;14;1;7.314751147879995
253;253;1449486699;2.1436085701;0.744536817074;0.0692347735167;2;True;14;1;7.314751147879995
254;254;1449486699;2.14360260963;0.744578778744;0.06927505880589999;2;True;14;1;7.314751147879995
255;255;1449486699;2.14354276657;0.74428153038;0.06934509426360001;2;True;14;1;7.314751147879995
256;256;1449486699;2.1435873508500003;0.744718849659;0.069212898612;2;True;14;1;7.314751147879995
257;257;1449486699;2.1436264514900003;0.7445257902150001;0.0692336782813;2;True;14;1;7.314751147879995
258;258;1449486699;2.1436352729799997;0.7445001602169999;0.0693397521973;2;True;14;1;7.314751147879995
259;259;1449486699;2.14348196983;0.744416117668;0.0693055689335;2;True;14;1;7.314751147879995
260;260;1449486699;2.14346146584;0.744525671005;0.0693460926414;2;True;14;1;7.314751147879995
261;261;1449486699;2.14357161522;0.744601666927;0.06926845759150001;2;True;14;1;7.314751147879995
262;262;1449486699;2.14362812042;0.7445756196979999;0.069293551147;2;True;14;1;7.314751147879995
263;263;1449486699;2.1435244083400002;0.7446211576459999;0.0694694295526;2;True;14;1;7.314751147879995
264;264;1449486699;2.14368128777;0.7448552846909999;0.0691289305687;2;True;14;1;7.314751147879995
265;265;1449486699;2.14303040504;0.745046973228;0.0687741339207;2;True;14;1;7.314751147879995
266;266;1449486699;2.14351511002;0.7444199323649999;0.0694270953536;2;True;14;1;7.314751147879995
267;267;1449486699;2.14362168312;0.744517922401;0.06926199048760001;2;True;14;1;7.314751147879995
268;268;1449486699;2.14360690117;0.744532287121;0.0692833587527;2;True;14;1;7.314751147879995
269;269;1449486699;2.14358067513;0.744604885578;0.0692601203918;2;True;14;1;7.314751147879995
270;270;1449486699;2.14348316193;0.74441409111;0.0693145617843;2;True;14;1;7.314751147879995
271;271;1449486699;2.1435799598700003;0.744375228882;0.06928989291189999;2;True;14;1;7.314751147879995
272;272;1449486699;2.14360594749;0.7445468306540001;0.06922850757839999;2;True;14;1;7.314751147879995
273;273;1449486699;2.14358592033;0.7444432377820001;0.06927137821910001;2;True;14;1;7.314751147879995
274;274;1449486699;2.14358568192;0.7445257902150001;0.06923732161519999;2;True;14;1;7.314751147879995
275;275;1449486699;2.14355707169;0.744444608688;0.0692863464355;2;True;14;1;7.314751147879995
276;276;1449486699;2.14357447624;0.7446114420890001;0.0692544579506;2;True;14;1;7.314751147879995
277;277;1449486699;2.14353299141;0.7442673444750001;0.0693571418524;2;True;14;1;7.314751147879995
278;278;1449486699;2.1435408592200003;0.7445818185809999;0.0693027451634;2;True;14;1;7.314751147879995
279;279;1449486699;2.14360952377;0.744789779186;0.0692169368267;2;True;14;1;7.314751147879995
280;280;1449486699;2.14346814156;0.744567990303;0.0694054067135;2;True;14;1;7.314751147879995
281;281;1449486699;2.14336252213;0.744480729103;0.0693954378366;2;True;14;1;7.314751147879995
282;282;1449486699;2.14356136322;0.7446643710140001;0.0692499727011;2;True;14;1;7.314751147879995
283;283;1449486699;2.14398241043;0.7447307109829999;0.06921875476839999;2;True;14;1;7.314751147879995
284;284;1449486699;2.14363908768;0.744863331318;0.0692078098655;2;True;14;1;7.314751147879995
285;285;1449486699;2.14359903336;0.7445686459540001;0.0693035572767;2;True;14;1;7.314751147879995
286;286;1449486699;2.14364004135;0.744610726833;0.0691630393267;2;True;14;1;7.314751147879995
287;287;1449486699;2.14350891113;0.74447029829;0.0693191438913;2;True;14;1;7.314751147879995
288;288;1449486699;2.14352726936;0.7447552084919999;0.06925676763060001;2;True;14;1;7.314751147879995
289;289;1449486699;2.14353871346;0.7444199323649999;0.0693197026849;2;True;14;1;7.314751147879995
290;290;1449486699;2.1434428691900003;0.7441796064380001;0.06942532211539999;2;True;14;1;7.314751147879995
291;291;1449486699;2.14360117912;0.7445445060729999;0.06926220655439999;2;True;14;1;7.314751147879995
292;292;1449486699;2.14357066154;0.7445684075360001;0.0693453401327;2;True;14;1;7.314751147879995
293;293;1449486699;2.14361095428;0.7444850802420001;0.069302983582;2;True;14;1;7.314751147879995
294;294;1449486699;2.14342808723;0.744169235229;0.0693953558803;2;True;14;1;7.314751147879995
295;295;1449486699;2.14347195625;0.7442624568940001;0.069357983768;2;True;14;1;7.314751147879995
296;296;1449486699;2.14346075058;0.7444311380390001;0.0693296641111;2;True;14;1;7.314751147879995
297;297;1449486699;2.1435346603400003;0.7446026802060001;0.0692476555705;2;True;14;1;7.314751147879995
298;298;1449486699;2.14361071587;0.744614899158;0.06914167851210001;2;True;14;1;7.314751147879995
299;299;1449486699;2.14354658127;0.744521737099;0.069276817143;2;True;14;1;7.314751147879995
300;300;1449486699;2.1435804367099998;0.744493246078;0.0692426413298;2;True;14;1;7.314751147879995
301;301;1449486699;2.1435973644299997;0.744507610798;0.06931556016210001;2;True;14;1;7.314751147879995
302;302;1449486699;2.14350056648;0.7446163296699999;0.0693513303995;2;True;14;1;7.314751147879995
303;303;1449486699;2.14347147942;0.744330346584;0.0693213269114;2;True;14;1;7.314751147879995
304;304;1449486699;2.1436252594;0.744898676872;0.06917199492449999;2;True;14;1;7.314751147879995
305;305;1449486699;2.1435725688900003;0.744766175747;0.0692275241017;2;True;14;1;7.314751147879995
306;306;1449486699;2.14347338676;0.7443988323209999;0.0694310590625;2;True;14;1;7.314751147879995
307;307;1449486699;2.1436021328;0.7444546222689999;0.0691771507263;2;True;14;1;7.314751147879995
308;308;1449486699;2.14347195625;0.744543254375;0.069336630404;2;True;14;1;7.314751147879995
309;309;1449486699;2.14357066154;0.744527339935;0.069286338985;2;True;14;1;7.314751147879995
310;310;1449486699;2.14350938797;0.7446335554119999;0.0693414360285;2;True;14;1;7.314751147879995
311;311;1449486699;2.1436080932599997;0.7445353269580001;0.0693227946758;2;True;14;1;7.314751147879995
312;312;1449486699;2.1435739994;0.7445700764659999;0.0692340582609;2;True;14;1;7.314751147879995
313;313;1449486699;2.14351272583;0.744398057461;0.0692578181624;2;True;14;1;7.314751147879995
314;314;1449486699;2.14358925819;0.7448611855509999;0.0691640600562;2;True;14;1;7.314751147879995
315;315;1449486699;2.1435611247999997;0.744631409645;0.0692394599319;2;True;14;1;7.314751147879995
316;316;1449486699;2.1435992717700003;0.7445856332780001;0.0692980885506;2;True;14;1;7.314751147879995
317;317;1449486699;2.1435101032299997;0.744654357433;0.0693030804396;2;True;14;1;7.314751147879995
318;318;1449486699;2.1434769630400003;0.744428694248;0.06936938315630001;2;True;14;1;7.314751147879995
319;319;1449486699;2.14360666275;0.7445709109309999;0.0692796111107;2;True;14;1;7.314751147879995
320;320;1449486699;2.1435751915;0.74458605051;0.0691787451506;2;True;14;1;7.314751147879995
321;321;1449486699;2.14352583885;0.7448776960369999;0.0692004710436;2;True;14;1;7.314751147879995
322;322;1449486699;2.1435289382900002;0.7445268034929999;0.06922073662280001;2;True;14;1;7.314751147879995
323;323;1449486699;2.1435546875;0.7445956468580001;0.06927071511749999;2;True;14;1;7.314751147879995
324;324;1449486699;2.14354848862;0.744656741619;0.0692403018475;2;True;14;1;7.314751147879995
325;325;1449486699;2.14345431328;0.744335711002;0.06933318823580001;2;True;14;1;7.314751147879995
326;326;1449486699;2.1434972286200003;0.744744002819;0.0692931637168;2;True;14;1;7.314751147879995
327;327;1449486699;2.14359545708;0.7446381449699999;0.0692384168506;2;True;14;1;7.314751147879995
328;328;1449486699;2.1435918808000003;0.744626402855;0.06922005116939998;2;True;14;1;7.314751147879995
329;329;1449486699;2.1435642242400004;0.744588077068;0.069189041853;2;True;14;1;7.314751147879995
330;330;1449486699;2.14357876778;0.744521915913;0.06921831518410002;2;True;14;1;7.314751147879995
331;331;1449486699;2.14293885231;0.7449948787690001;0.06870286166669999;2;True;14;1;7.314751147879995
332;332;1449486699;2.14351511002;0.744784653187;0.069293834269;2;True;14;1;7.314751147879995
333;333;1449486699;2.1435585022;0.7447851300239999;0.0691629201174;2;True;14;1;7.314751147879995
334;334;1449486699;2.1435363292700003;0.74453496933;0.0692402720451;2;True;14;1;7.314751147879995
335;335;1449486699;2.14350748062;0.744639515877;0.06931648403410001;2;True;14;1;7.314751147879995
336;336;1449486699;2.1434173584000002;0.7444203495980001;0.0692796632648;2;True;14;1;7.314751147879995
337;337;1449486699;2.14345121384;0.7444289326669999;0.0692466124892;2;True;14;1;7.314751147879995
338;338;1449486699;2.14346718788;0.7444633245469999;0.069368340075;2;True;14;1;7.314751147879995
339;339;1449486699;2.1433994770099996;0.744385659695;0.06935706734660001;2;True;14;1;7.314751147879995
340;340;1449486699;2.1435596942900004;0.744562983513;0.0691880732775;2;True;14;1;7.314751147879995
341;341;1449486699;2.14331150055;0.744218528271;0.0695726722479;2;True;14;1;7.314751147879995
342;342;1449486699;2.1438488960299997;0.7449306249619999;0.0692047476768;2;True;14;1;7.314751147879995
343;343;1449486699;2.14358925819;0.744564592838;0.0692575722933;2;True;14;1;7.314751147879995
344;344;1449486699;2.14384365082;0.744679570198;0.069179572165;2;True;14;1;7.314751147879995
345;345;1449486699;2.14359855652;0.744527518749;0.06929302215580001;2;True;14;1;7.314751147879995
346;346;1449486699;2.14315366745;0.744693160057;0.0687407776713;2;True;14;1;7.314751147879995
347;347;1449486699;2.14354801178;0.744534254074;0.069287545979;2;True;14;1;7.314751147879995
348;348;1449486699;2.14359402657;0.7445113658910001;0.06933850795030001;2;True;14;1;7.314751147879995
349;349;1449486699;2.14328575134;0.7446504831309999;0.0683971345425;2;True;14;1;7.314751147879995
350;350;1449486699;2.14355611801;0.744631111622;0.06930039078;2;True;14;1;7.314751147879995
351;351;1449486699;2.14347720146;0.744677007198;0.06923037767410001;2;True;14;1;7.314751147879995
352;352;1449486699;2.14364981651;0.7448523640629999;0.0690744668245;2;True;14;1;7.314751147879995
353;353;1449486699;2.1434724330900004;0.744442820549;0.06937780976300001;2;True;14;1;7.314751147879995
354;354;1449486699;2.1435894966099998;0.744527578354;0.0692192092538;2;True;14;1;7.314751147879995
355;355;1449486699;2.14280223846;0.7447558045389999;0.0687879621983;2;True;14;1;7.314751147879995
356;356;1449486699;2.14360070229;0.744531452656;0.0691992640495;2;True;14;1;7.314751147879995
357;357;1449486699;2.14358353615;0.744572877884;0.0692477598786;2;True;14;1;7.314751147879995
358;358;1449486699;2.1435551643400004;0.744607925415;0.0692739486694;2;True;14;1;7.314751147879995
359;359;1449486699;2.14343190193;0.744201242924;0.0693838223815;2;True;14;1;7.314751147879995
360;360;1449486699;2.1435511112200003;0.744527041912;0.0692581608891;2;True;14;1;7.314751147879995
361;361;1449486699;2.14363670349;0.744887053967;0.06917554140089999;2;True;14;1;7.314751147879995
362;362;1449486699;2.14344143867;0.744192063808;0.0694063231349;2;True;14;1;7.314751147879995
363;363;1449486699;2.14350700378;0.7445591092110001;0.0693855732679;2;True;14;1;7.314751147879995
364;364;1449486699;2.14356994629;0.744621217251;0.0692879706621;2;True;14;1;7.314751147879995
365;365;1449486699;2.14345693588;0.744470000267;0.06941842287779999;2;True;14;1;7.314751147879995
366;366;1449486699;2.14351844788;0.744506657124;0.06930521875620001;2;True;14;1;7.314751147879995
367;367;1449486699;2.14356708527;0.7446066737170001;0.06928414851430001;2;True;14;1;7.314751147879995
368;368;1449486699;2.14355444908;0.744503080845;0.06930586695669999;2;True;14;1;7.314751147879995
369;369;1449486699;2.14360404015;0.744486033916;0.0693519562483;2;True;14;1;7.314751147879995
370;370;1449486699;2.14355587959;0.7446242570880001;0.0693529099226;2;True;14;1;7.314751147879995
371;371;1449486699;2.1434466838799997;0.7445495128630001;0.06942483037710001;2;True;14;1;7.314751147879995
372;372;1449486699;2.1434853076900002;0.744831502438;0.0693206563592;2;True;14;1;7.314751147879995
373;373;1449486699;2.1436123848;0.744547247887;0.0692473575473;2;True;14;1;7.314751147879995
374;374;1449486699;2.1434044838;0.744468927383;0.06939332932230001;2;True;14;1;7.314751147879995
375;375;1449486699;2.14349293709;0.7442773580550001;0.0694288685918;2;True;14;1;7.314751147879995
376;376;1449486699;2.14361763;0.744599282742;0.0692760720849;2;True;14;1;7.314751147879995
377;377;1449486699;2.14349365234;0.7442932724950001;0.0694313496351;2;True;14;1;7.314751147879995
378;378;1449486699;2.14360690117;0.744500219822;0.06932302564380001;2;True;14;1;7.314751147879995
379;379;1449486699;2.14350700378;0.744319140911;0.06935099512339998;2;True;14;1;7.314751147879995
380;380;1449486699;2.14347338676;0.7445225119589999;0.06937945634130001;2;True;14;1;7.314751147879995
381;381;1449486699;2.1435790062;0.744643390179;0.069276869297;2;True;14;1;7.314751147879995
382;382;1449486699;2.14362716675;0.744546294212;0.0692876949906;2;True;14;1;7.314751147879995
383;383;1449486699;2.1435878276800002;0.744538784027;0.0693039372563;2;True;14;1;7.314751147879995
384;384;1449486699;2.14356946945;0.744397163391;0.0693118050694;2;True;14;1;7.314751147879995
385;385;1449486699;2.1434817314099996;0.744123578072;0.0693840384483;2;True;14;1;7.314751147879995
386;386;1449486699;2.14359593391;0.744678676128;0.06934220343830001;2;True;14;1;7.314751147879995
387;387;1449486699;2.14361023903;0.744597554207;0.0693099573255;2;True;14;1;7.314751147879995
388;388;1449486699;2.14354777336;0.744759380817;0.0693540126085;2;True;14;1;7.314751147879995
389;389;1449486699;2.14355921745;0.74433773756;0.0693260580301;2;True;14;1;7.314751147879995
390;390;1449486699;2.1434738636;0.744393467903;0.06936647742989999;2;True;14;1;7.314751147879995
391;391;1449486699;2.14361143112;0.744520366192;0.0692739337683;2;True;14;1;7.314751147879995
392;392;1449486699;2.1436138153099997;0.7445952892300001;0.06927849352360001;2;True;14;1;7.314751147879995
393;393;1449486699;2.14355611801;0.7444107532500001;0.06928117573260001;2;True;14;1;7.314751147879995
394;394;1449486699;2.1435260772699998;0.7446137070659999;0.0693607330322;2;True;14;1;7.314751147879995
395;395;1449486699;2.1435277462;0.7445783019069999;0.0693958178163;2;True;14;1;7.314751147879995
396;396;1449486699;2.14354896545;0.744508326054;0.06928690522910001;2;True;14;1;7.314751147879995
397;397;1449486699;2.1434903144799997;0.7444993853569999;0.0693867355585;2;True;14;1;7.314751147879995
398;398;1449486699;2.14359784126;0.744554936886;0.0692234486341;2;True;14;1;7.314751147879995
399;399;1449486699;2.14344406128;0.7443112730979999;0.0694664120674;2;True;14;1;7.314751147879995
400;400;1449486699;2.14355301857;0.744585335255;0.0692800208926;2;True;14;1;7.314751147879995
401;401;1449486699;2.14355635643;0.744538486004;0.0692989975214;2;True;14;1;7.314751147879995
402;402;1449486699;2.14358639717;0.744510769844;0.06934092938900001;2;True;14;1;7.314751147879995
403;403;1449486699;2.1435418129;0.744735777378;0.0692691281438;2;True;14;1;7.314751147879995
404;404;1449486699;2.1435220241499997;0.744299590588;0.06937671452760001;2;True;14;1;7.314751147879995
405;405;1449486699;2.14342689514;0.744382560253;0.0693474635482;2;True;14;1;7.314751147879995
406;406;1449486699;2.14359664917;0.7446374297139999;0.069205775857;2;True;14;1;7.314751147879995
407;407;1449486699;2.14356613159;0.744540393353;0.06929692626;2;True;14;1;7.314751147879995
408;408;1449486699;2.14352035522;0.744478225708;0.06930544227360001;2;True;14;1;7.314751147879995
409;409;1449486699;2.1435573101;0.744659721851;0.0692720115185;2;True;14;1;7.314751147879995
410;410;1449486699;2.1435880661;0.744539022446;0.0692295208573;2;True;14;1;7.314751147879995
411;411;1449486699;2.14359641075;0.7445144057269999;0.069356918335;2;True;14;1;7.314751147879995
412;412;1449486699;2.1435585022;0.7447583675380001;0.0691876783967;2;True;14;1;7.314751147879995
413;413;1449486699;2.14355897903;0.7445577979090001;0.06931547075510001;2;True;14;1;7.314751147879995
414;414;1449486699;2.14356970787;0.744564294815;0.0692615434527;2;True;14;1;7.314751147879995
415;415;1449486699;2.1435365676900004;0.7444922924040001;0.0692689791322;2;True;14;1;7.314751147879995
416;416;1449486699;2.14363956451;0.744687259197;0.0692324787378;2;True;14;1;7.314751147879995
417;417;1449486699;2.1438472271;0.7449054121969999;0.0692060366273;2;True;14;1;7.314751147879995
418;418;1449486699;2.14387631416;0.7448773980140001;0.0692038089037;2;True;14;1;7.314751147879995
419;419;1449486699;2.1440246105200003;0.7447830438609999;0.06919379532339999;2;True;14;1;7.314751147879995
420;420;1449486699;2.14357733727;0.744549453259;0.06922632455830001;2;True;14;1;7.314751147879995
421;421;1449486699;2.14350533485;0.744938254356;0.0697394758463;2;True;14;1;7.314751147879995
422;422;1449486699;2.1436994075799998;0.744690835476;0.06916945427660001;2;True;14;1;7.314751147879995
423;423;1449486699;2.14317011833;0.745064735413;0.06903082877399999;2;True;14;1;7.314751147879995
424;424;1449486699;2.1435730457299997;0.744519948959;0.0692503228784;2;True;14;1;7.314751147879995
425;425;1449486699;2.14356565475;0.744551002979;0.06925553828480001;2;True;14;1;7.314751147879995
426;426;1449486699;2.1435265541099997;0.744688928127;0.06925333291289999;2;True;14;1;7.314751147879995
427;427;1449486699;2.14355063438;0.74458950758;0.06931016594169999;2;True;14;1;7.314751147879995
428;428;1449486699;2.14333558083;0.7450209856029999;0.0691843703389;2;True;14;1;7.314751147879995
429;429;1449486699;2.1436035633099997;0.7445300221439999;0.0692994222045;2;True;14;1;7.314751147879995
430;430;1449486699;2.14354777336;0.744526207447;0.06922786682839999;2;True;14;1;7.314751147879995
431;431;1449486699;2.14317584038;0.7449923753740001;0.0690664127469;2;True;14;1;7.314751147879995
432;432;1449486699;2.14360165596;0.7444451451299999;0.0691081658006;2;True;14;1;7.314751147879995
433;433;1449486699;2.14357376099;0.744509756565;0.0691939666867;2;True;14;1;7.314751147879995
434;434;1449486699;2.14364075661;0.744671583176;0.06907276809219999;2;True;14;1;7.314751147879995
435;435;1449486699;2.14350295067;0.744538426399;0.0692699179053;2;True;14;1;7.314751147879995
436;436;1449486699;2.14321541786;0.744745254517;0.06900906562810001;2;True;14;1;7.314751147879995
437;437;1449486699;2.1441864967299997;0.745115280151;0.0692058131099;2;True;14;1;7.314751147879995
438;438;1449486699;2.14351344109;0.7447690367700001;0.069299697876;2;True;14;1;7.314751147879995
439;439;1449486699;2.1434054374700002;0.744372367859;0.06935817748310001;2;True;14;1;7.314751147879995
440;440;1449486699;2.1435961723299997;0.744619369507;0.06914898008110001;2;True;14;1;7.314751147879995
441;441;1449486699;2.14346766472;0.744274377823;0.0693141743541;2;True;14;1;7.314751147879995
442;442;1449486699;2.14351892471;0.744649410248;0.06925128400330001;2;True;14;1;7.314751147879995
443;443;1449486699;2.1433560848199997;0.7447150945659999;0.06910551339389999;2;True;14;1;7.314751147879995
444;444;1449486699;2.14348101616;0.74475467205;0.0692976713181;2;True;14;1;7.314751147879995
445;445;1449486699;2.1434955596900003;0.7444950938220001;0.06935861706730001;2;True;14;1;7.314751147879995
446;446;1449486699;2.14346408844;0.744806289673;0.06928362697360001;2;True;14;1;7.314751147879995
447;447;1449486699;2.14351034164;0.7445808649060001;0.0692380741239;2;True;14;1;7.314751147879995
448;448;1449486699;2.1435084343;0.744513273239;0.0692571252584;2;True;14;1;7.314751147879995
449;449;1449486699;2.14332938194;0.7444884181020001;0.0693307295442;2;True;14;1;7.314751147879995
450;450;1449486699;2.1433916091900005;0.7441861033439999;0.0693707764149;2;True;14;1;7.314751147879995
451;451;1449486699;2.14343738556;0.744508445263;0.0693494156003;2;True;14;1;7.314751147879995
452;452;1449486699;2.1434867382;0.744608581066;0.0693207681179;2;True;14;1;7.314751147879995
453;453;1449486699;2.1435542106599996;0.744433045387;0.0691374316812;2;True;14;1;7.314751147879995
454;454;1449486699;2.1434042453799997;0.7444489598270001;0.0693146437407;2;True;14;1;7.314751147879995
455;455;1449486699;2.1434829235099997;0.744581341743;0.0693469420075;2;True;14;1;7.314751147879995
456;456;1449486699;2.14359664917;0.744853019714;0.069140098989;2;True;14;1;7.314751147879995
457;457;1449486699;2.14346051216;0.744443953037;0.0693811550736;2;True;14;1;7.314751147879995
458;458;1449486699;2.1435644626599997;0.744497060776;0.0692928656936;2;True;14;1;7.314751147879995
459;459;1449486699;2.14356088638;0.744487345219;0.0692245364189;2;True;14;1;7.314751147879995
460;460;1449486699;2.14354753494;0.744532585144;0.06924931705;2;True;14;1;7.314751147879995
461;461;1449486699;2.1439883709;0.7447488904;0.06919430941339999;2;True;14;1;7.314751147879995
462;462;1449486699;2.14354896545;0.74464738369;0.0692943781614;2;True;14;1;7.314751147879995
463;463;1449486699;2.14359068871;0.744501233101;0.069208458066;2;True;14;1;7.314751147879995
464;464;1449486699;2.14357662201;0.7444674372669999;0.0692592710257;2;True;14;1;7.314751147879995
465;465;1449486699;2.1434700489;0.744252920151;0.06939997524019999;2;True;14;1;7.314751147879995
466;466;1449486699;2.14375782013;0.744886636734;0.0691747963428;2;True;14;1;7.314751147879995
467;467;1449486699;2.1435368061099997;0.744609832764;0.0692307800055;2;True;14;1;7.314751147879995
468;468;1449486699;2.14355611801;0.7446461915970001;0.06932120770219999;2;True;14;1;7.314751147879995
469;469;1449486699;2.14357447624;0.744469702244;0.0692663267255;2;True;14;1;7.314751147879995
470;470;1449486699;2.14357376099;0.7445455789569999;0.06926609575749999;2;True;14;1;7.314751147879995
471;471;1449486699;2.14346337318;0.744837522507;0.06914720684289999;2;True;14;1;7.314751147879995
472;472;1449486699;2.1436517238599997;0.744654357433;0.0690812096;2;True;14;1;7.314751147879995
473;473;1449486699;2.14359688759;0.74453663826;0.0692235156894;2;True;14;1;7.314751147879995
474;474;1449486699;2.1432414054900004;0.744991183281;0.069098636508;2;True;14;1;7.314751147879995
475;475;1449486699;2.1434919834099997;0.744288146496;0.0693627521396;2;True;14;1;7.314751147879995
476;476;1449486699;2.14351534843;0.744753777981;0.069304600358;2;True;14;1;7.314751147879995
477;477;1449486699;2.1435015201599996;0.7444841861720001;0.0693981871009;2;True;14;1;7.314751147879995
478;478;1449486699;2.1434829235099997;0.744481384754;0.0693429037929;2;True;14;1;7.314751147879995
479;479;1449486699;2.1435351371799998;0.744605302811;0.06928508728739999;2;True;14;1;7.314751147879995
480;480;1449486699;2.1435365676900004;0.744681239128;0.069268964231;2;True;14;1;7.314751147879995
481;481;1449486699;2.1435687542;0.744757950306;0.0691921487451;2;True;14;1;7.314751147879995
482;482;1449486699;2.14343643188;0.7443836331370001;0.0693242326379;2;True;14;1;7.314751147879995
483;483;1449486700;2.14363718033;0.744588375092;0.06917126476760001;3;True;14;1;7.314751147879995
484;484;1449486700;2.1435260772699998;0.7443687319760001;0.06931958347560001;3;True;14;1;7.314751147879995
485;485;1449486700;2.14357185364;0.7443838119509999;0.06928110867739999;3;True;14;1;7.314751147879995
486;486;1449486700;2.14357185364;0.744506418705;0.0692644044757;3;True;14;1;7.314751147879995
487;487;1449486700;2.14362335205;0.7445135116580001;0.0693320259452;3;True;14;1;7.314751147879995
488;488;1449486700;2.14364552498;0.744856774807;0.0691846981645;3;True;14;1;7.314751147879995
489;489;1449486700;2.14352416992;0.7445922493930001;0.0693783089519;3;True;14;1;7.314751147879995
490;490;1449486700;2.14357328415;0.744560837746;0.0692888200283;3;True;14;1;7.314751147879995
491;491;1449486700;2.14347290993;0.7444899678229999;0.06931260228160001;3;True;14;1;7.314751147879995
492;492;1449486700;2.14355039597;0.744746387005;0.0692899301648;3;True;14;1;7.314751147879995
493;493;1449486700;2.1435315609;0.744535386562;0.0693182125688;3;True;14;1;7.314751147879995
494;494;1449486700;2.14346337318;0.744423091412;0.0693471059203;3;True;14;1;7.314751147879995
495;495;1449486700;2.14349341393;0.7443259358409999;0.069334462285;3;True;14;1;7.314751147879995
496;496;1449486700;2.14342904091;0.744148254395;0.069413498044;3;True;14;1;7.314751147879995
497;497;1449486700;2.14345431328;0.744416892529;0.0693354979157;3;True;14;1;7.314751147879995
498;498;1449486700;2.14355397224;0.744521439075;0.06937188655139999;3;True;14;1;7.314751147879995
499;499;1449486700;2.14349961281;0.744284749031;0.0694284141064;3;True;14;1;7.314751147879995
500;500;1449486700;2.14353966713;0.7444651722910001;0.069304227829;3;True;14;1;7.314751147879995
501;501;1449486700;2.1434724330900004;0.744559705257;0.0693506747484;3;True;14;1;7.314751147879995
502;502;1449486700;2.1436033248900004;0.7446755766869999;0.0692721530795;3;True;14;1;7.314751147879995
503;503;1449486700;2.1436541080500002;0.744864225388;0.0692106336355;3;True;14;1;7.314751147879995
504;504;1449486700;2.14356565475;0.744531333447;0.06925553828480001;3;True;14;1;7.314751147879995
505;505;1449486700;2.14357733727;0.744601488113;0.06933676451439999;3;True;14;1;7.314751147879995
506;506;1449486700;2.1435353756;0.744249939919;0.0694145262241;3;True;14;1;7.314751147879995
507;507;1449486700;2.14355158806;0.744577169418;0.0693626627326;3;True;14;1;7.314751147879995
508;508;1449486700;2.14351773262;0.744301855564;0.0694267824292;3;True;14;1;7.314751147879995
509;509;1449486700;2.1435568332700004;0.744330823421;0.06933320313689999;3;True;14;1;7.314751147879995
510;510;1449486700;2.14347863197;0.7444097399709999;0.06931231915950001;3;True;14;1;7.314751147879995
511;511;1449486700;2.1436033248900004;0.7446402311329999;0.0692153126001;3;True;14;1;7.314751147879995
512;512;1449486700;2.1436123848;0.744547307491;0.0692536458373;3;True;14;1;7.314751147879995
513;513;1449486700;2.14362812042;0.744514167309;0.06925899535419999;3;True;14;1;7.314751147879995
514;514;1449486700;2.14363884926;0.74460965395;0.069237858057;3;True;14;1;7.314751147879995
515;515;1449486700;2.1435551643400004;0.744795024395;0.06932061910630001;3;True;14;1;7.314751147879995
516;516;1449486700;2.1434743404400005;0.7442159056659999;0.06941813230510001;3;True;14;1;7.314751147879995
517;517;1449486700;2.14354228973;0.744279325008;0.0693780109286;3;True;14;1;7.314751147879995
518;518;1449486700;2.14354777336;0.744622409344;0.06931883096689999;3;True;14;1;7.314751147879995
519;519;1449486700;2.14351844788;0.744412183762;0.0693443268538;3;True;14;1;7.314751147879995
520;520;1449486700;2.14353299141;0.744274020195;0.0693853795528;3;True;14;1;7.314751147879995
521;521;1449486700;2.14361548424;0.744563698769;0.069230183959;3;True;14;1;7.314751147879995
522;522;1449486700;2.1435072422;0.744441211224;0.0693608373404;3;True;14;1;7.314751147879995
523;523;1449486700;2.1435832977300002;0.7446775436399999;0.06931966543200001;3;True;14;1;7.314751147879995
524;524;1449486700;2.1436495780900002;0.7446557283399999;0.069178044796;3;True;14;1;7.314751147879995
525;525;1449486700;2.1434738636;0.744274735451;0.06935665011410001;3;True;14;1;7.314751147879995
526;526;1449486700;2.1434960365299998;0.7444365620610001;0.06931228935719999;3;True;14;1;7.314751147879995
527;527;1449486700;2.14360880852;0.7445590496060001;0.0692538321018;3;True;14;1;7.314751147879995
528;528;1449486700;2.14353847504;0.744699478149;0.0692878216505;3;True;14;1;7.314751147879995
529;529;1449486700;2.14358210564;0.7444972991940001;0.06931363791230001;3;True;14;1;7.314751147879995
530;530;1449486700;2.14348363876;0.7448107600210001;0.06930854916569999;3;True;14;1;7.314751147879995
531;531;1449486700;2.14359641075;0.7445235848430001;0.06921179592610001;3;True;14;1;7.314751147879995
532;532;1449486700;2.1435310840599997;0.744536280632;0.0692829489708;3;True;14;1;7.314751147879995
533;533;1449486700;2.14358115196;0.7445574998860001;0.0692379176617;3;True;14;1;7.314751147879995
534;534;1449486700;2.14358139038;0.744681298733;0.0692741796374;3;True;14;1;7.314751147879995
535;535;1449486700;2.1435084343;0.744446575642;0.0692933574319;3;True;14;1;7.314751147879995
536;536;1449486700;2.1435778141;0.744549572468;0.0692405551672;3;True;14;1;7.314751147879995
537;537;1449486700;2.1436071395900003;0.744515538216;0.06927697360519999;3;True;14;1;7.314751147879995
538;538;1449486700;2.1435585022;0.7445911765100001;0.06919828057289999;3;True;14;1;7.314751147879995
539;539;1449486700;2.1435842513999996;0.744558930397;0.06924904137849999;3;True;14;1;7.314751147879995
540;540;1449486700;2.14347052574;0.7443951368330001;0.0692845582962;3;True;14;1;7.314751147879995
541;541;1449486700;2.14357185364;0.7445203065870001;0.06924607604739999;3;True;14;1;7.314751147879995
542;542;1449486700;2.14346671104;0.7442811131479999;0.0693787708879;3;True;14;1;7.314751147879995
543;543;1449486700;2.14363479614;0.744427502155;0.0691039934754;3;True;14;1;7.314751147879995
544;544;1449486700;2.1431732177700002;0.7447957992550001;0.0690338015556;3;True;14;1;7.314751147879995
545;545;1449486700;2.1435790062;0.7445685267450001;0.0691701695323;3;True;14;1;7.314751147879995
546;546;1449486700;2.14353060722;0.744506537914;0.06929972022769999;3;True;14;1;7.314751147879995
547;547;1449486700;2.1435365676900004;0.744531333447;0.0692388117313;3;True;14;1;7.314751147879995
548;548;1449486700;2.14342689514;0.74460709095;0.0693021640182;3;True;14;1;7.314751147879995
549;549;1449486700;2.14351677895;0.7446099519730001;0.0692919865251;3;True;14;1;7.314751147879995
550;550;1449486700;2.14359116554;0.744498968124;0.0693107247353;3;True;14;1;7.314751147879995
551;551;1449486700;2.14349389076;0.744478166103;0.0692550167441;3;True;14;1;7.314751147879995
552;552;1449486700;2.14362001419;0.744847178459;0.06908250600100001;3;True;14;1;7.314751147879995
553;553;1449486700;2.14350509644;0.7443503141399999;0.06926412135360001;3;True;14;1;7.314751147879995
554;554;1449486700;2.14360833168;0.744776427746;0.06907435506580001;3;True;14;1;7.314751147879995
555;555;1449486700;2.14341545105;0.745177507401;0.06892511248589998;3;True;14;1;7.314751147879995
556;556;1449486700;2.14359045029;0.7445934414859999;0.06910340487960001;3;True;14;1;7.314751147879995
557;557;1449486700;2.1430995464300002;0.7447245120999999;0.0691277384758;3;True;14;1;7.314751147879995
558;558;1449486700;2.14347863197;0.7445075511929999;0.0692705586553;3;True;14;1;7.314751147879995
559;559;1449486700;2.14342355728;0.744416594505;0.0692416578531;3;True;14;1;7.314751147879995
560;560;1449486700;2.1435754299200003;0.744981944561;0.0691540762782;3;True;14;1;7.314751147879995
561;561;1449486700;2.1434905529;0.7449735403059999;0.0684108585119;3;True;14;1;7.314751147879995
562;562;1449486700;2.14356470108;0.744591593742;0.0691944360733;3;True;14;1;7.314751147879995
563;563;1449486700;2.14340162277;0.744625389576;0.06925431638960002;3;True;14;1;7.314751147879995
564;564;1449486700;2.14356732368;0.744393587112;0.0691341683269;3;True;14;1;7.314751147879995
565;565;1449486700;2.14376282692;0.7447476983069999;0.0691836997867;3;True;14;1;7.314751147879995
566;566;1449486700;2.14356994629;0.744499146938;0.0691827684641;3;True;14;1;7.314751147879995
567;567;1449486700;2.14334154129;0.744470000267;0.06933990120889999;3;True;14;1;7.314751147879995
568;568;1449486700;2.1431705951700004;0.7447447180750001;0.06913917511699999;3;True;14;1;7.314751147879995
569;569;1449486700;2.14354777336;0.744545280933;0.06923476606610002;3;True;14;1;7.314751147879995
570;570;1449486700;2.14374947548;0.744798183441;0.06913953274489999;3;True;14;1;7.314751147879995
571;571;1449486700;2.14317584038;0.7447599172589999;0.0690708905458;3;True;14;1;7.314751147879995
572;572;1449486700;2.14354300499;0.744560778141;0.06925256550310001;3;True;14;1;7.314751147879995
573;573;1449486700;2.14381623268;0.744787633419;0.0691544786096;3;True;14;1;7.314751147879995
574;574;1449486700;2.14347529411;0.744270384312;0.06935726851219999;3;True;14;1;7.314751147879995
575;575;1449486700;2.14354681969;0.7445393800740001;0.0692675337195;3;True;14;1;7.314751147879995
576;576;1449486700;2.14351153374;0.744534432888;0.069370739162;3;True;14;1;7.314751147879995
577;577;1449486700;2.14356637001;0.7444775104520001;0.0692695379257;3;True;14;1;7.314751147879995
578;578;1449486700;2.14361810684;0.744413495064;0.0691249892116;3;True;14;1;7.314751147879995
579;579;1449486700;2.14364552498;0.7448834180830001;0.069164827466;3;True;14;1;7.314751147879995
580;580;1449486700;2.1435101032299997;0.744268894196;0.0693512707949;3;True;14;1;7.314751147879995
581;581;1449486700;2.14346385002;0.744416534901;0.06928917765619999;3;True;14;1;7.314751147879995
582;582;1449486700;2.14351916313;0.744365513325;0.0693132057786;3;True;14;1;7.314751147879995
583;583;1449486700;2.14363908768;0.7445738315579999;0.0693096145988;3;True;14;1;7.314751147879995
584;584;1449486700;2.1435215473199998;0.744593501091;0.0693766996264;3;True;14;1;7.314751147879995
585;585;1449486700;2.14349579811;0.744338929653;0.0694212391973;3;True;14;1;7.314751147879995
586;586;1449486700;2.14351153374;0.744271099567;0.06934884935619999;3;True;14;1;7.314751147879995
587;587;1449486700;2.14356684685;0.744480013847;0.0692868381739;3;True;14;1;7.314751147879995
588;588;1449486700;2.14356684685;0.7446211576459999;0.0692849010229;3;True;14;1;7.314751147879995
589;589;1449486700;2.14349651337;0.744433283806;0.0694173425436;3;True;14;1;7.314751147879995
590;590;1449486700;2.1435408592200003;0.7446273565289999;0.06934946775439998;3;True;14;1;7.314751147879995
591;591;1449486700;2.14354729652;0.744509339333;0.0693461820483;3;True;14;1;7.314751147879995
592;592;1449486700;2.14349007607;0.744375884533;0.0693586394191;3;True;14;1;7.314751147879995
593;593;1449486700;2.14358305931;0.744555234909;0.06926209479569999;3;True;14;1;7.314751147879995
594;594;1449486700;2.1435642242400004;0.7445157766339999;0.06929715722799999;3;True;14;1;7.314751147879995
595;595;1449486700;2.14355278015;0.7445006966590001;0.0693062767386;3;True;14;1;7.314751147879995
596;596;1449486700;2.14353966713;0.744334757328;0.069343291223;3;True;14;1;7.314751147879995
597;597;1449486700;2.14361476898;0.744584679604;0.06923371553419999;3;True;14;1;7.314751147879995
598;598;1449486700;2.14351391792;0.744260489941;0.0693836137652;3;True;14;1;7.314751147879995
599;599;1449486700;2.14350104332;0.744223177433;0.06941727548839999;3;True;14;1;7.314751147879995
600;600;1449486700;2.14350247383;0.7444754838940001;0.0693210363388;3;True;14;1;7.314751147879995
601;601;1449486700;2.14359068871;0.744556903839;0.0692818686366;3;True;14;1;7.314751147879995
602;602;1449486700;2.14362502098;0.7445012927060001;0.069368518889;3;True;14;1;7.314751147879995
603;603;1449486700;2.1435391902900003;0.7445932626719999;0.06940249353649999;3;True;14;1;7.314751147879995
604;604;1449486700;2.1435208320599997;0.7442934513089999;0.06936665624379999;3;True;14;1;7.314751147879995
605;605;1449486700;2.14353489876;0.7443758249279999;0.0693716928363;3;True;14;1;7.314751147879995
606;606;1449486700;2.14356040955;0.744540572166;0.06937741488219999;3;True;14;1;7.314751147879995
607;607;1449486700;2.1435260772699998;0.7445572018619999;0.0693574398756;3;True;14;1;7.314751147879995
