;Unnamed: 0;header_stamp_secs;pose_position_x;pose_position_y;pose_position_z;seconds;drop_values;flight_number;label;dtw
0;0;1449487485;2.1278424263;0.790615200996;0.0684522688389;0;True;17;1;28.238719463690018
1;1;1449487485;2.12774658203;0.790572285652;0.0684272423387;0;True;17;1;28.238719463690018
2;2;1449487485;2.1277503967299998;0.790539562702;0.06842673569919999;0;True;17;1;28.238719463690018
3;3;1449487485;2.127784729;0.790669739246;0.0684534311295;0;True;17;1;28.238719463690018
4;4;1449487485;2.12784433365;0.790673017502;0.0683359503746;0;True;17;1;28.238719463690018
5;5;1449487485;2.12775063515;0.7905386686329999;0.0684561952949;0;True;17;1;28.238719463690018
6;6;1449487485;2.12783169746;0.790606379509;0.0683267191052;0;True;17;1;28.238719463690018
7;7;1449487485;2.12773537636;0.7904745936390001;0.068443082273;0;True;17;1;28.238719463690018
8;8;1449487485;2.1277387142200004;0.790552556515;0.0684707909822;0;True;17;1;28.238719463690018
9;9;1449487485;2.1278398037;0.79061961174;0.06832837313409999;0;True;17;1;28.238719463690018
10;10;1449487485;2.12780070305;0.7905555367470001;0.0684487968683;0;True;17;1;28.238719463690018
11;11;1449487485;2.12777352333;0.790640115738;0.06843467056750001;0;True;17;1;28.238719463690018
12;12;1449487485;2.1278128624;0.790575861931;0.068437948823;0;True;17;1;28.238719463690018
13;13;1449487485;2.1277782917;0.79067504406;0.0684331133962;0;True;17;1;28.238719463690018
14;14;1449487485;2.12777686119;0.7905636429790001;0.0684044957161;0;True;17;1;28.238719463690018
15;15;1449487485;2.12780642509;0.79062461853;0.0684166029096;0;True;17;1;28.238719463690018
16;16;1449487485;2.12777495384;0.790451169014;0.0684098526835;0;True;17;1;28.238719463690018
17;17;1449487485;2.12777233124;0.790614902973;0.06845181435349999;0;True;17;1;28.238719463690018
18;18;1449487485;2.12768268585;0.790515780449;0.06845235824580001;0;True;17;1;28.238719463690018
19;19;1449487485;2.12769293785;0.7907406091689999;0.0685047656298;0;True;17;1;28.238719463690018
20;20;1449487485;2.1277151107799996;0.7904976010320001;0.0684396550059;0;True;17;1;28.238719463690018
21;21;1449487485;2.1277475357099997;0.7905645370479999;0.0684375911951;0;True;17;1;28.238719463690018
22;22;1449487485;2.12775540352;0.790632009506;0.0684430003166;0;True;17;1;28.238719463690018
23;23;1449487485;2.12778568268;0.790603458881;0.06845089793209999;0;True;17;1;28.238719463690018
24;24;1449487485;2.12777733803;0.790625274181;0.06843462586400001;0;True;17;1;28.238719463690018
25;25;1449487485;2.12768912315;0.7905220985410001;0.0684698373079;0;True;17;1;28.238719463690018
26;26;1449487485;2.12774586678;0.7905930280689999;0.0684461891651;0;True;17;1;28.238719463690018
27;27;1449487485;2.12780213356;0.790792703629;0.0683929100633;0;True;17;1;28.238719463690018
28;28;1449487485;2.12775802612;0.790621578693;0.0684372335672;0;True;17;1;28.238719463690018
29;29;1449487485;2.12781214714;0.790657103062;0.0684224888682;0;True;17;1;28.238719463690018
30;30;1449487485;2.12774062157;0.790576338768;0.068455465138;0;True;17;1;28.238719463690018
31;31;1449487485;2.12784409523;0.790748417377;0.0684144049883;0;True;17;1;28.238719463690018
32;32;1449487485;2.1277759075200002;0.790550470352;0.06846626102919999;0;True;17;1;28.238719463690018
33;33;1449487485;2.12782526016;0.79073381424;0.0683586969972;0;True;17;1;28.238719463690018
34;34;1449487485;2.1277227401700003;0.790562570095;0.0684531852603;0;True;17;1;28.238719463690018
35;35;1449487485;2.12780165672;0.790678322315;0.0684264674783;0;True;17;1;28.238719463690018
36;36;1449487485;2.12781214714;0.790634274483;0.0683121010661;0;True;17;1;28.238719463690018
37;37;1449487485;2.12773370743;0.7906798720360001;0.0684471800923;0;True;17;1;28.238719463690018
38;38;1449487485;2.12776017189;0.7905934453010001;0.06845413148400001;0;True;17;1;28.238719463690018
39;39;1449487485;2.12776064873;0.79060280323;0.0684292912483;0;True;17;1;28.238719463690018
40;40;1449487485;2.12782001495;0.790674030781;0.0683828368783;0;True;17;1;28.238719463690018
41;41;1449487485;2.1277396678900002;0.7906528115270001;0.0684600844979;0;True;17;1;28.238719463690018
42;42;1449487485;2.1277010440799997;0.790490746498;0.06846610456709999;0;True;17;1;28.238719463690018
43;43;1449487485;2.1276838779400005;0.790556490421;0.06847802549599999;0;True;17;1;28.238719463690018
44;44;1449487485;2.1276819706;0.79052400589;0.06848384439949999;0;True;17;1;28.238719463690018
45;45;1449487485;2.12773752213;0.790585100651;0.0684649348259;0;True;17;1;28.238719463690018
46;46;1449487485;2.1277384758;0.790559947491;0.0684361457825;0;True;17;1;28.238719463690018
47;47;1449487485;2.12772154808;0.790572762489;0.0684521496296;0;True;17;1;28.238719463690018
48;48;1449487485;2.12783789635;0.790792703629;0.0683635994792;0;True;17;1;28.238719463690018
49;49;1449487485;2.1277616024;0.79052066803;0.06840601563450001;0;True;17;1;28.238719463690018
50;50;1449487485;2.12773442268;0.790567517281;0.06847645342349999;0;True;17;1;28.238719463690018
51;51;1449487485;2.1277861595200003;0.7906274795530001;0.06840675324199999;0;True;17;1;28.238719463690018
52;52;1449487485;2.1277747154199997;0.790664613247;0.0683998316526;0;True;17;1;28.238719463690018
53;53;1449487485;2.1276841163599998;0.790540337563;0.0684729740024;0;True;17;1;28.238719463690018
54;54;1449487485;2.12766432762;0.790480196476;0.0684674754739;0;True;17;1;28.238719463690018
55;55;1449487485;2.12779402733;0.790651798248;0.068389877677;0;True;17;1;28.238719463690018
56;56;1449487485;2.1277844905900003;0.7905846238140001;0.0683605521917;0;True;17;1;28.238719463690018
57;57;1449487485;2.12769007683;0.7905234098430001;0.06847918033599999;0;True;17;1;28.238719463690018
58;58;1449487485;2.1277692318;0.790596604347;0.06844194233419999;0;True;17;1;28.238719463690018
59;59;1449487485;2.12767553329;0.7905023694040001;0.0684923827648;0;True;17;1;28.238719463690018
60;60;1449487485;2.1278131008099996;0.79060280323;0.06832267344;0;True;17;1;28.238719463690018
61;61;1449487485;2.1277422905;0.790647149086;0.0684628561139;0;True;17;1;28.238719463690018
62;62;1449487485;2.12776947021;0.790602266788;0.0684163346887;0;True;17;1;28.238719463690018
63;63;1449487485;2.1276910305000003;0.7904974818230001;0.0684348493814;0;True;17;1;28.238719463690018
64;64;1449487485;2.1277804374700002;0.7907066941259999;0.0683647617698;0;True;17;1;28.238719463690018
65;65;1449487485;2.12773680687;0.7906577587129999;0.06842564046380001;0;True;17;1;28.238719463690018
66;66;1449487485;2.12764310837;0.790515244007;0.0684634968638;0;True;17;1;28.238719463690018
67;67;1449487485;2.1277463436099997;0.79055917263;0.06840871274469999;0;True;17;1;28.238719463690018
68;68;1449487485;2.12779927254;0.7906344532969999;0.0682919174433;0;True;17;1;28.238719463690018
69;69;1449487485;2.12771320343;0.79041236639;0.06842091679569999;0;True;17;1;28.238719463690018
70;70;1449487485;2.12777638435;0.790654599667;0.0683848634362;0;True;17;1;28.238719463690018
71;71;1449487485;2.12782120705;0.790517866611;0.0684886723757;0;True;17;1;28.238719463690018
72;72;1449487485;2.12782764435;0.790706157684;0.0683309286833;0;True;17;1;28.238719463690018
73;73;1449487485;2.1277861595200003;0.790646374226;0.0684083327651;0;True;17;1;28.238719463690018
74;74;1449487485;2.1277818679799996;0.7906970977779999;0.0684001147747;0;True;17;1;28.238719463690018
75;75;1449487485;2.12771248817;0.7904887795450001;0.0684226676822;0;True;17;1;28.238719463690018
76;76;1449487485;2.1277747154199997;0.790645480156;0.0684151053429;0;True;17;1;28.238719463690018
77;77;1449487485;2.12771630287;0.7905427217479999;0.0684291273355;0;True;17;1;28.238719463690018
78;78;1449487485;2.12776780128;0.790579855442;0.0683925524354;0;True;17;1;28.238719463690018
79;79;1449487485;2.1277356147799997;0.790506958961;0.06843206286430001;0;True;17;1;28.238719463690018
80;80;1449487485;2.12778782845;0.790624916553;0.06836396455760001;0;True;17;1;28.238719463690018
81;81;1449487485;2.1277282238;0.790424466133;0.0684787109494;0;True;17;1;28.238719463690018
82;82;1449487485;2.12775373459;0.790682852268;0.0684125050902;0;True;17;1;28.238719463690018
83;83;1449487485;2.12775969505;0.790593266487;0.06842400878669999;0;True;17;1;28.238719463690018
84;84;1449487485;2.12774920464;0.790818810463;0.0684681981802;0;True;17;1;28.238719463690018
85;85;1449487485;2.1278095245400004;0.790628790855;0.06833633035419999;0;True;17;1;28.238719463690018
86;86;1449487485;2.12775635719;0.790617823601;0.0684227198362;0;True;17;1;28.238719463690018
87;87;1449487485;2.1277577877000002;0.79067081213;0.068439565599;0;True;17;1;28.238719463690018
88;88;1449487485;2.1277217865;0.7905555367470001;0.0684473291039;0;True;17;1;28.238719463690018
89;89;1449487485;2.12766456604;0.7904760241509999;0.0684455633163;0;True;17;1;28.238719463690018
90;90;1449487485;2.1276950836200004;0.790408313274;0.0684379041195;0;True;17;1;28.238719463690018
91;91;1449487485;2.12770032883;0.790524423122;0.0684484690428;0;True;17;1;28.238719463690018
92;92;1449487485;2.1277513504;0.790566146374;0.0684250444174;0;True;17;1;28.238719463690018
93;93;1449487485;2.12769126892;0.790513515472;0.0684481337667;0;True;17;1;28.238719463690018
94;94;1449487485;2.12776255608;0.7906673550609999;0.0684218257666;0;True;17;1;28.238719463690018
95;95;1449487485;2.12773656845;0.790561974049;0.0684195533395;0;True;17;1;28.238719463690018
96;96;1449487485;2.12768507004;0.790529727936;0.0684341862798;0;True;17;1;28.238719463690018
97;97;1449487485;2.1277499198900003;0.79069852829;0.0684225335717;0;True;17;1;28.238719463690018
98;98;1449487485;2.12777137756;0.7905276417730001;0.0683673098683;0;True;17;1;28.238719463690018
99;99;1449487485;2.12764239311;0.790464043617;0.0684724748135;0;True;17;1;28.238719463690018
100;100;1449487485;2.12778878212;0.7906827330589999;0.0683821886778;0;True;17;1;28.238719463690018
101;101;1449487485;2.1276841163599998;0.7905059456829999;0.06843627244230001;0;True;17;1;28.238719463690018
102;102;1449487485;2.12772059441;0.7906868457790001;0.06845675408839999;0;True;17;1;28.238719463690018
103;103;1449487485;2.1277804374700002;0.790607213974;0.068381048739;0;True;17;1;28.238719463690018
104;104;1449487485;2.1276915073400002;0.790632605553;0.0685195699334;0;True;17;1;28.238719463690018
105;105;1449487485;2.1278109550499997;0.79066324234;0.068356141448;0;True;17;1;28.238719463690018
106;106;1449487485;2.12781906128;0.790685594082;0.0683835446835;0;True;17;1;28.238719463690018
107;107;1449487485;2.12770032883;0.790470898151;0.06847589462999999;0;True;17;1;28.238719463690018
108;108;1449487485;2.12769913673;0.790517508984;0.0684554874897;0;True;17;1;28.238719463690018
109;109;1449487485;2.12769699097;0.7905356884;0.06844362616539999;0;True;17;1;28.238719463690018
110;110;1449487485;2.12773942947;0.7905547022820001;0.0684223473072;0;True;17;1;28.238719463690018
111;111;1449487485;2.12769007683;0.790519237518;0.0684649124742;0;True;17;1;28.238719463690018
112;112;1449487485;2.12774133682;0.790569067001;0.0683852657676;0;True;17;1;28.238719463690018
113;113;1449487485;2.1278405189500003;0.790722668171;0.06841096282010001;0;True;17;1;28.238719463690018
114;114;1449487485;2.12775850296;0.790649950504;0.0684468522668;0;True;17;1;28.238719463690018
115;115;1449487485;2.1277618408200003;0.7906569838519999;0.06844805926080001;0;True;17;1;28.238719463690018
116;116;1449487485;2.12772798538;0.7905536890029999;0.0684485211968;0;True;17;1;28.238719463690018
117;117;1449487486;2.1277978420299997;0.790617763996;0.06842717528339999;1;True;17;1;28.238719463690018
118;118;1449487486;2.1277384758;0.7904688715929999;0.0684254616499;1;True;17;1;28.238719463690018
119;119;1449487486;2.12772989273;0.7906547784810001;0.06852979212999999;1;True;17;1;28.238719463690018
120;120;1449487486;2.12783765793;0.7906773090360001;0.0683697611094;1;True;17;1;28.238719463690018
121;121;1449487486;2.12779712677;0.790690362453;0.068425424397;1;True;17;1;28.238719463690018
122;122;1449487486;2.1277894973800002;0.7906186580660001;0.0684325024486;1;True;17;1;28.238719463690018
123;123;1449487486;2.12783837318;0.790675938129;0.06837932765480001;1;True;17;1;28.238719463690018
124;124;1449487486;2.1276679039;0.7905269861220001;0.0684988498688;1;True;17;1;28.238719463690018
125;125;1449487486;2.12776422501;0.790568053722;0.0684510394931;1;True;17;1;28.238719463690018
126;126;1449487486;2.1276988983200003;0.7905226945880001;0.0684975683689;1;True;17;1;28.238719463690018
127;127;1449487486;2.12782788277;0.790668129921;0.06844782829280001;1;True;17;1;28.238719463690018
128;128;1449487486;2.1278328895599996;0.790661096573;0.0683882981539;1;True;17;1;28.238719463690018
129;129;1449487486;2.12779259682;0.7906570434569999;0.06840156018730001;1;True;17;1;28.238719463690018
130;130;1449487486;2.12777543068;0.79057854414;0.06841569393869999;1;True;17;1;28.238719463690018
131;131;1449487486;2.12779998779;0.790621399879;0.0684283077717;1;True;17;1;28.238719463690018
132;132;1449487486;2.12775683403;0.790590524673;0.06845299154519999;1;True;17;1;28.238719463690018
133;133;1449487486;2.12776398659;0.790675997734;0.0684662759304;1;True;17;1;28.238719463690018
134;134;1449487486;2.12775182724;0.790586709976;0.0684121847153;1;True;17;1;28.238719463690018
135;135;1449487486;2.12781858444;0.790628194809;0.0684058666229;1;True;17;1;28.238719463690018
136;136;1449487486;2.1278333663900004;0.790698230267;0.0684294328094;1;True;17;1;28.238719463690018
137;137;1449487486;2.12782764435;0.790673911572;0.0683801695704;1;True;17;1;28.238719463690018
138;138;1449487486;2.12771248817;0.790532946587;0.0684744268656;1;True;17;1;28.238719463690018
139;139;1449487486;2.1277744770099996;0.7906494140620001;0.06843888014550001;1;True;17;1;28.238719463690018
140;140;1449487486;2.12779211998;0.790533840656;0.06841273605819999;1;True;17;1;28.238719463690018
141;141;1449487486;2.12775826454;0.7907021045679999;0.0684701576829;1;True;17;1;28.238719463690018
142;142;1449487486;2.12781858444;0.7906698584559999;0.0684385150671;1;True;17;1;28.238719463690018
143;143;1449487486;2.12774777412;0.790584385395;0.0684597343206;1;True;17;1;28.238719463690018
144;144;1449487486;2.12774133682;0.790470778942;0.0684734508395;1;True;17;1;28.238719463690018
145;145;1449487486;2.12771892548;0.790646374226;0.0684421733022;1;True;17;1;28.238719463690018
146;146;1449487486;2.12774372101;0.790580868721;0.068478859961;1;True;17;1;28.238719463690018
147;147;1449487486;2.12772798538;0.790548563004;0.0684805065393;1;True;17;1;28.238719463690018
148;148;1449487486;2.12768602371;0.790505468845;0.0684611126781;1;True;17;1;28.238719463690018
149;149;1449487486;2.12773799896;0.790588974953;0.0684711933136;1;True;17;1;28.238719463690018
150;150;1449487486;2.1277797222099997;0.7907343506810001;0.0684199333191;1;True;17;1;28.238719463690018
151;151;1449487486;2.12776899338;0.7905814051629999;0.0683779120445;1;True;17;1;28.238719463690018
152;152;1449487486;2.1278181076;0.790704846382;0.0684309080243;1;True;17;1;28.238719463690018
153;153;1449487486;2.12777018547;0.790745854378;0.06849747896189999;1;True;17;1;28.238719463690018
154;154;1449487486;2.12776851654;0.790672719479;0.0684581249952;1;True;17;1;28.238719463690018
155;155;1449487486;2.12767529488;0.790504872799;0.06848640739919999;1;True;17;1;28.238719463690018
156;156;1449487486;2.1277852058400004;0.790662407875;0.0683858022094;1;True;17;1;28.238719463690018
157;157;1449487486;2.12769532204;0.790534675121;0.06846733391280001;1;True;17;1;28.238719463690018
158;158;1449487486;2.1277911663099998;0.790607273579;0.06840579211709999;1;True;17;1;28.238719463690018
159;159;1449487486;2.12774181366;0.79067504406;0.0684514939785;1;True;17;1;28.238719463690018
160;160;1449487486;2.1277594566299998;0.7905949354170001;0.0684466212988;1;True;17;1;28.238719463690018
161;161;1449487486;2.1276910305000003;0.79053747654;0.0684552937746;1;True;17;1;28.238719463690018
162;162;1449487486;2.12772250175;0.790532171726;0.06850562989709999;1;True;17;1;28.238719463690018
163;163;1449487486;2.12774062157;0.790445506573;0.0684566125274;1;True;17;1;28.238719463690018
164;164;1449487486;2.12776875496;0.790591061115;0.0684559941292;1;True;17;1;28.238719463690018
165;165;1449487486;2.1277415752400004;0.790645122528;0.06831910461190001;1;True;17;1;28.238719463690018
166;166;1449487486;2.1276936531099997;0.7905160188670001;0.0684836283326;1;True;17;1;28.238719463690018
167;167;1449487486;2.12781023979;0.7906413674349999;0.0684444084764;1;True;17;1;28.238719463690018
168;168;1449487486;2.1277153492;0.790534377098;0.06848892569540001;1;True;17;1;28.238719463690018
169;169;1449487486;2.12766504288;0.7904711961750001;0.0685410797596;1;True;17;1;28.238719463690018
170;170;1449487486;2.12775969505;0.790580153465;0.068448074162;1;True;17;1;28.238719463690018
171;171;1449487486;2.12779903412;0.7905986309049999;0.06837359070780001;1;True;17;1;28.238719463690018
172;172;1449487486;2.12774586678;0.790677785873;0.0684509649873;1;True;17;1;28.238719463690018
173;173;1449487486;2.12777280807;0.790554583073;0.0684364959598;1;True;17;1;28.238719463690018
174;174;1449487486;2.1277017593400003;0.790545523167;0.0684558227658;1;True;17;1;28.238719463690018
175;175;1449487486;2.12775087357;0.790539324284;0.06838877499099999;1;True;17;1;28.238719463690018
176;176;1449487486;2.12776041031;0.7905500531199999;0.0684475302696;1;True;17;1;28.238719463690018
177;177;1449487486;2.1276965141299997;0.790525138378;0.0684680640697;1;True;17;1;28.238719463690018
178;178;1449487486;2.12769532204;0.790501534939;0.0684930756688;1;True;17;1;28.238719463690018
179;179;1449487486;2.12779188156;0.790642499924;0.0683755651116;1;True;17;1;28.238719463690018
180;180;1449487486;2.12769985199;0.7905427217479999;0.0684707164764;1;True;17;1;28.238719463690018
181;181;1449487486;2.12780618668;0.7906751036640001;0.0684086158872;1;True;17;1;28.238719463690018
182;182;1449487486;2.12775635719;0.790589809418;0.0684408172965;1;True;17;1;28.238719463690018
183;183;1449487486;2.12786793709;0.7906929850579999;0.0685484856367;1;True;17;1;28.238719463690018
184;184;1449487486;2.12776088715;0.790596306324;0.0684433057904;1;True;17;1;28.238719463690018
185;185;1449487486;2.12773323059;0.7906064391140001;0.068471737206;1;True;17;1;28.238719463690018
186;186;1449487486;2.1277618408200003;0.790512382984;0.0684180036187;1;True;17;1;28.238719463690018
187;187;1449487486;2.1277594566299998;0.790604054928;0.0684391781688;1;True;17;1;28.238719463690018
188;188;1449487486;2.12773656845;0.790700674057;0.06846935302019999;1;True;17;1;28.238719463690018
189;189;1449487486;2.1277346611000003;0.7905759811399999;0.06844116747380001;1;True;17;1;28.238719463690018
190;190;1449487486;2.1277647018400003;0.790605604649;0.0683608576655;1;True;17;1;28.238719463690018
191;191;1449487486;2.12766623497;0.790529429913;0.0684864297509;1;True;17;1;28.238719463690018
192;192;1449487486;2.12776780128;0.790737509727;0.0684163570404;1;True;17;1;28.238719463690018
193;193;1449487486;2.1276552677200002;0.7905660271639999;0.0684263184667;1;True;17;1;28.238719463690018
194;194;1449487486;2.12779164314;0.790668308735;0.0683970600367;1;True;17;1;28.238719463690018
195;195;1449487486;2.12767529488;0.790455341339;0.0684565603733;1;True;17;1;28.238719463690018
196;196;1449487486;2.12767028809;0.790523946285;0.0684690177441;1;True;17;1;28.238719463690018
197;197;1449487486;2.12772965431;0.790609955788;0.0684494972229;1;True;17;1;28.238719463690018
198;198;1449487486;2.12779188156;0.7906481027600001;0.0683811455965;1;True;17;1;28.238719463690018
199;199;1449487486;2.12775993347;0.790582180023;0.0684083178639;1;True;17;1;28.238719463690018
200;200;1449487486;2.12770724297;0.790611922741;0.06844145804639999;1;True;17;1;28.238719463690018
201;201;1449487486;2.12778139114;0.790613889694;0.06842780858280001;1;True;17;1;28.238719463690018
202;202;1449487486;2.12770581245;0.7905625104899999;0.06846181303259999;1;True;17;1;28.238719463690018
203;203;1449487486;2.1276671886400003;0.7905043959620001;0.068477243185;1;True;17;1;28.238719463690018
204;204;1449487486;2.12776088715;0.790597558022;0.0684026628733;1;True;17;1;28.238719463690018
205;205;1449487486;2.1277179718;0.7904906868930001;0.0685075819492;1;True;17;1;28.238719463690018
206;206;1449487486;2.12782001495;0.7906699180600001;0.0683649033308;1;True;17;1;28.238719463690018
207;207;1449487486;2.1278285980200002;0.790818929672;0.0683292225003;1;True;17;1;28.238719463690018
208;208;1449487486;2.1277718544;0.790635704994;0.0684033930302;1;True;17;1;28.238719463690018
209;209;1449487486;2.12778282166;0.7906276583670001;0.0684123039246;1;True;17;1;28.238719463690018
210;210;1449487486;2.12779736519;0.7906990647319999;0.0683911517262;1;True;17;1;28.238719463690018
211;211;1449487486;2.12783074379;0.790664732456;0.06831078976390001;1;True;17;1;28.238719463690018
212;212;1449487486;2.12780451775;0.7906673550609999;0.0683528482914;1;True;17;1;28.238719463690018
213;213;1449487486;2.1277658939400004;0.790589809418;0.0684133023024;1;True;17;1;28.238719463690018
214;214;1449487486;2.1276884079;0.790548205376;0.06845089793209999;1;True;17;1;28.238719463690018
215;215;1449487486;2.1277780532799997;0.790539085865;0.0684651061893;1;True;17;1;28.238719463690018
216;216;1449487486;2.1277756691;0.790641605854;0.06837784498930001;1;True;17;1;28.238719463690018
217;217;1449487486;2.1277742385900003;0.790609478951;0.0684199407697;1;True;17;1;28.238719463690018
218;218;1449487486;2.12769007683;0.790539443493;0.0684921741486;1;True;17;1;28.238719463690018
219;219;1449487486;2.1276781559;0.790528059006;0.0684364438057;1;True;17;1;28.238719463690018
220;220;1449487486;2.12782359123;0.790721535683;0.0683686062694;1;True;17;1;28.238719463690018
221;221;1449487486;2.1278138160699998;0.7906398773190001;0.0683604702353;1;True;17;1;28.238719463690018
222;222;1449487486;2.12772393227;0.790538966656;0.0684544593096;1;True;17;1;28.238719463690018
223;223;1449487486;2.1277122497599996;0.790526747704;0.06846565753219999;1;True;17;1;28.238719463690018
224;224;1449487486;2.1277821063999998;0.790640175343;0.0683898851275;1;True;17;1;28.238719463690018
225;225;1449487486;2.12784814835;0.790696144104;0.0682956501842;1;True;17;1;28.238719463690018
226;226;1449487486;2.1277759075200002;0.790614187717;0.06839554756880001;1;True;17;1;28.238719463690018
227;227;1449487486;2.12770557404;0.790500164032;0.0684306845069;1;True;17;1;28.238719463690018
228;228;1449487486;2.1277782917;0.790516614914;0.0683755427599;1;True;17;1;28.238719463690018
229;229;1449487486;2.12774181366;0.790536820889;0.06836987286809999;1;True;17;1;28.238719463690018
230;230;1449487486;2.1277804374700002;0.790658414364;0.0684039965272;1;True;17;1;28.238719463690018
231;231;1449487486;2.12773633003;0.7906481027600001;0.0684677064419;1;True;17;1;28.238719463690018
232;232;1449487486;2.12783646584;0.790689170361;0.068362429738;1;True;17;1;28.238719463690018
233;233;1449487486;2.12772250175;0.7905657887459999;0.06844230741259999;1;True;17;1;28.238719463690018
234;234;1449487486;2.12773489952;0.7905576229100001;0.0684527531266;1;True;17;1;28.238719463690018
235;235;1449487486;2.12773251534;0.790509164333;0.0684094578028;1;True;17;1;28.238719463690018
236;236;1449487486;2.12769079208;0.7905134558679999;0.0684599205852;1;True;17;1;28.238719463690018
237;237;1449487486;2.1277222633400004;0.790548145771;0.0684465020895;1;True;17;1;28.238719463690018
238;238;1449487486;2.12779140472;0.790640771389;0.0684246942401;1;True;17;1;28.238719463690018
239;239;1449487486;2.12773919106;0.7906870841979999;0.06844964623449999;1;True;17;1;28.238719463690018
240;240;1449487486;2.12770581245;0.790529429913;0.0684726163745;1;True;17;1;28.238719463690018
241;241;1449487486;2.12776255608;0.7905432581899999;0.0684202164412;1;True;17;1;28.238719463690018
242;242;1449487486;2.1277849674200002;0.790618300438;0.0683979168534;1;True;17;1;28.238719463690018
243;243;1449487486;2.1277837753299997;0.790673851967;0.0684138387442;1;True;17;1;28.238719463690018
244;244;1449487486;2.12782001495;0.790644109249;0.0683721899986;1;True;17;1;28.238719463690018
245;245;1449487486;2.12770462036;0.790513813496;0.06846610456709999;1;True;17;1;28.238719463690018
246;246;1449487486;2.12777304649;0.7906155586239999;0.06843230128290001;1;True;17;1;28.238719463690018
247;247;1449487486;2.12777614594;0.790631711483;0.0683781653643;1;True;17;1;28.238719463690018
248;248;1449487486;2.1277573108700003;0.790609180927;0.0684352889657;1;True;17;1;28.238719463690018
249;249;1449487486;2.1277978420299997;0.790630340576;0.0684261843562;1;True;17;1;28.238719463690018
250;250;1449487486;2.1276807785;0.7904830574989999;0.068447984755;1;True;17;1;28.238719463690018
251;251;1449487486;2.12778687477;0.7905986309049999;0.0683750063181;1;True;17;1;28.238719463690018
252;252;1449487486;2.1277425289200003;0.7906365394589999;0.0684395059943;1;True;17;1;28.238719463690018
253;253;1449487486;2.1277520656599997;0.790576756001;0.06843624263999999;1;True;17;1;28.238719463690018
254;254;1449487486;2.12769675255;0.790562093258;0.06845878809690001;1;True;17;1;28.238719463690018
255;255;1449487486;2.12781000137;0.7906371355060001;0.0685553997755;1;True;17;1;28.238719463690018
256;256;1449487486;2.1276884079;0.79055327177;0.0684540048242;1;True;17;1;28.238719463690018
257;257;1449487486;2.12766194344;0.790489137173;0.068489484489;1;True;17;1;28.238719463690018
258;258;1449487486;2.1277697086300003;0.790594160557;0.0683960616589;1;True;17;1;28.238719463690018
259;259;1449487486;2.12779712677;0.790624201298;0.0684048831463;1;True;17;1;28.238719463690018
260;260;1449487486;2.1277544498400003;0.790583312511;0.0684366822243;1;True;17;1;28.238719463690018
261;261;1449487486;2.12778425217;0.7906457781790001;0.06840983033180001;1;True;17;1;28.238719463690018
262;262;1449487486;2.1277866363499998;0.79056340456;0.0684508606791;1;True;17;1;28.238719463690018
263;263;1449487486;2.12768530846;0.7905207872390001;0.0684585496783;1;True;17;1;28.238719463690018
264;264;1449487486;2.12770462036;0.79046022892;0.0684590265155;1;True;17;1;28.238719463690018
265;265;1449487486;2.1277217865;0.790428102016;0.0684099346399;1;True;17;1;28.238719463690018
266;266;1449487486;2.1277704238900004;0.790574133396;0.0684318095446;1;True;17;1;28.238719463690018
267;267;1449487486;2.12780737877;0.7906371355060001;0.0683896318078;1;True;17;1;28.238719463690018
268;268;1449487486;2.1277096271500002;0.790550410748;0.06843478977680001;1;True;17;1;28.238719463690018
269;269;1449487486;2.12773799896;0.790562272072;0.0684581026435;1;True;17;1;28.238719463690018
270;270;1449487486;2.12775421143;0.790614366531;0.0684423372149;1;True;17;1;28.238719463690018
271;271;1449487486;2.12778067589;0.790640175343;0.0684332028031;1;True;17;1;28.238719463690018
272;272;1449487486;2.12780809402;0.7906513810160001;0.06840704381469999;1;True;17;1;28.238719463690018
273;273;1449487486;2.12778425217;0.790596485138;0.0684103667736;1;True;17;1;28.238719463690018
274;274;1449487486;2.12767338753;0.790402889252;0.06846550107;1;True;17;1;28.238719463690018
275;275;1449487486;2.12769842148;0.7904796600339999;0.06844732165339999;1;True;17;1;28.238719463690018
276;276;1449487486;2.12768125534;0.790483415127;0.0684834718704;1;True;17;1;28.238719463690018
277;277;1449487486;2.12772965431;0.790622711182;0.06843098998069999;1;True;17;1;28.238719463690018
278;278;1449487486;2.12776827812;0.7906834483149999;0.06839698553090001;1;True;17;1;28.238719463690018
279;279;1449487486;2.12778878212;0.7907093763349999;0.0683536082506;1;True;17;1;28.238719463690018
280;280;1449487486;2.12780690193;0.790693104267;0.0683860629797;1;True;17;1;28.238719463690018
281;281;1449487486;2.12787985802;0.790626525879;0.0682622343302;1;True;17;1;28.238719463690018
282;282;1449487486;2.1277935504900003;0.790725469589;0.0683359950781;1;True;17;1;28.238719463690018
283;283;1449487486;2.12781715393;0.790683090687;0.0683315619826;1;True;17;1;28.238719463690018
284;284;1449487486;2.1277244091;0.790540635586;0.0684459805489;1;True;17;1;28.238719463690018
285;285;1449487486;2.1277980804400003;0.790653347969;0.0683424472809;1;True;17;1;28.238719463690018
286;286;1449487486;2.12772154808;0.7904004454610001;0.0683952942491;1;True;17;1;28.238719463690018
287;287;1449487486;2.12773442268;0.790543794632;0.0684340819716;1;True;17;1;28.238719463690018
288;288;1449487486;2.12776947021;0.790590405464;0.06838776171210001;1;True;17;1;28.238719463690018
289;289;1449487486;2.1277270317099997;0.790551126003;0.0684361308813;1;True;17;1;28.238719463690018
290;290;1449487486;2.12768578529;0.7905071973800001;0.06844389438630001;1;True;17;1;28.238719463690018
291;291;1449487486;2.12778425217;0.7906076312070001;0.068379573524;1;True;17;1;28.238719463690018
292;292;1449487486;2.12768554688;0.790489554405;0.0684394985437;1;True;17;1;28.238719463690018
293;293;1449487486;2.12773823738;0.790599346161;0.0684692487121;1;True;17;1;28.238719463690018
294;294;1449487486;2.12772965431;0.790526032448;0.0683497190475;1;True;17;1;28.238719463690018
295;295;1449487486;2.12776613235;0.790654718876;0.0683797076344;1;True;17;1;28.238719463690018
296;296;1449487486;2.12772035599;0.7905765175820001;0.0684189200401;1;True;17;1;28.238719463690018
297;297;1449487486;2.12774658203;0.7904869318009999;0.06841956079009999;1;True;17;1;28.238719463690018
298;298;1449487486;2.12772130966;0.790532827377;0.0683717876673;1;True;17;1;28.238719463690018
299;299;1449487486;2.12776780128;0.790684759617;0.0684136375785;1;True;17;1;28.238719463690018
300;300;1449487486;2.12774515152;0.790546238422;0.06840787082909999;1;True;17;1;28.238719463690018
301;301;1449487486;2.1277849674200002;0.790614902973;0.0683915764093;1;True;17;1;28.238719463690018
302;302;1449487486;2.1277408599900003;0.7905862927439999;0.0684724897146;1;True;17;1;28.238719463690018
303;303;1449487486;2.12773418427;0.7905888557430001;0.0684139430523;1;True;17;1;28.238719463690018
304;304;1449487486;2.1278090477;0.790561497211;0.0683003440499;1;True;17;1;28.238719463690018
305;305;1449487486;2.12768983841;0.790541052818;0.0684539377689;1;True;17;1;28.238719463690018
306;306;1449487486;2.1276915073400002;0.7905052304269999;0.0684812963009;1;True;17;1;28.238719463690018
307;307;1449487486;2.12769818306;0.790537655354;0.0684485211968;1;True;17;1;28.238719463690018
308;308;1449487486;2.12769579887;0.790536940098;0.0684449747205;1;True;17;1;28.238719463690018
309;309;1449487486;2.1276841163599998;0.790506601334;0.068472482264;1;True;17;1;28.238719463690018
310;310;1449487486;2.1277306079900002;0.790551066399;0.0684578046203;1;True;17;1;28.238719463690018
311;311;1449487486;2.12782359123;0.790714383125;0.0683960095048;1;True;17;1;28.238719463690018
312;312;1449487486;2.1277050972;0.790489196777;0.0684373453259;1;True;17;1;28.238719463690018
313;313;1449487486;2.1277356147799997;0.790519893169;0.0684121102095;1;True;17;1;28.238719463690018
314;314;1449487486;2.12772536278;0.7905485033990001;0.0684441998601;1;True;17;1;28.238719463690018
315;315;1449487486;2.12783908844;0.790638923645;0.0683729872108;1;True;17;1;28.238719463690018
316;316;1449487486;2.1277894973800002;0.790677964687;0.0683924034238;1;True;17;1;28.238719463690018
317;317;1449487486;2.12781333923;0.790630638599;0.0683669671416;1;True;17;1;28.238719463690018
318;318;1449487486;2.1277463436099997;0.7904644012450001;0.0684150010347;1;True;17;1;28.238719463690018
319;319;1449487486;2.1277697086300003;0.7905769348139999;0.0684436932206;1;True;17;1;28.238719463690018
320;320;1449487486;2.12774181366;0.790603280067;0.0684515759349;1;True;17;1;28.238719463690018
321;321;1449487486;2.12772011757;0.790545284748;0.0684724748135;1;True;17;1;28.238719463690018
322;322;1449487486;2.12773180008;0.790552258492;0.068462587893;1;True;17;1;28.238719463690018
323;323;1449487486;2.1277408599900003;0.790434956551;0.0684830546379;1;True;17;1;28.238719463690018
324;324;1449487486;2.12772846222;0.790562570095;0.0684707984328;1;True;17;1;28.238719463690018
325;325;1449487486;2.1278014183000002;0.790629386902;0.0684424117208;1;True;17;1;28.238719463690018
326;326;1449487486;2.1277611255599997;0.7905644774439999;0.0684744417667;1;True;17;1;28.238719463690018
327;327;1449487486;2.127784729;0.7906071543690001;0.0684665516019;1;True;17;1;28.238719463690018
328;328;1449487486;2.12783432007;0.79063898325;0.06838751584290001;1;True;17;1;28.238719463690018
329;329;1449487486;2.1277821063999998;0.790622830391;0.0684414282441;1;True;17;1;28.238719463690018
330;330;1449487486;2.1278142929099997;0.7905691862109999;0.0684061571956;1;True;17;1;28.238719463690018
331;331;1449487486;2.1277267932900004;0.790502071381;0.0685575529933;1;True;17;1;28.238719463690018
332;332;1449487486;2.12781143188;0.7905737161640001;0.0684199556708;1;True;17;1;28.238719463690018
333;333;1449487486;2.12784218788;0.790638923645;0.0683907046914;1;True;17;1;28.238719463690018
334;334;1449487486;2.12772798538;0.790527284145;0.0684984400868;1;True;17;1;28.238719463690018
335;335;1449487486;2.12766551971;0.790328085423;0.0685066059232;1;True;17;1;28.238719463690018
336;336;1449487486;2.12782025337;0.7906564474109999;0.0684281811118;1;True;17;1;28.238719463690018
337;337;1449487486;2.12772870064;0.790525734425;0.0684754624963;1;True;17;1;28.238719463690018
338;338;1449487486;2.12786579132;0.7908643484119999;0.0683521926403;1;True;17;1;28.238719463690018
339;339;1449487486;2.1277618408200003;0.790552437305;0.0684663578868;1;True;17;1;28.238719463690018
340;340;1449487486;2.12772464752;0.7905454039569999;0.0684969872236;1;True;17;1;28.238719463690018
341;341;1449487486;2.12769341469;0.7905392646789999;0.068481631577;1;True;17;1;28.238719463690018
342;342;1449487486;2.1277987957;0.79056417942;0.068526275456;1;True;17;1;28.238719463690018
343;343;1449487486;2.12779521942;0.790567457676;0.0684947296977;1;True;17;1;28.238719463690018
344;344;1449487486;2.1277673244499997;0.7906521558759999;0.0684583187103;1;True;17;1;28.238719463690018
345;345;1449487486;2.12771868706;0.790532171726;0.0684842467308;1;True;17;1;28.238719463690018
346;346;1449487486;2.1278653144799997;0.790824711323;0.068318374455;1;True;17;1;28.238719463690018
347;347;1449487486;2.12780165672;0.7905726432800001;0.0685053020716;1;True;17;1;28.238719463690018
348;348;1449487486;2.12778019905;0.790567934513;0.0684120506048;1;True;17;1;28.238719463690018
349;349;1449487486;2.1277706623099997;0.790612399578;0.0684593617916;1;True;17;1;28.238719463690018
350;350;1449487486;2.12781190872;0.790653347969;0.0684300512075;1;True;17;1;28.238719463690018
351;351;1449487486;2.12774395943;0.7906240820880001;0.0684626623988;1;True;17;1;28.238719463690018
352;352;1449487486;2.1277742385900003;0.790672838688;0.06843633204699999;1;True;17;1;28.238719463690018
353;353;1449487486;2.12771916389;0.7905203700069999;0.0684912502766;1;True;17;1;28.238719463690018
354;354;1449487486;2.12783408165;0.790708482265;0.0683728158474;1;True;17;1;28.238719463690018
355;355;1449487487;2.1278109550499997;0.79063051939;0.068416275084;2;True;17;1;28.238719463690018
356;356;1449487487;2.12773418427;0.7905473113060001;0.068483620882;2;True;17;1;28.238719463690018
357;357;1449487487;2.1277270317099997;0.7905303239820001;0.06847921013830001;2;True;17;1;28.238719463690018
358;358;1449487487;2.12780666351;0.7906322479250001;0.0684337168932;2;True;17;1;28.238719463690018
359;359;1449487487;2.1277818679799996;0.7905672192569999;0.0684793964028;2;True;17;1;28.238719463690018
360;360;1449487487;2.12773442268;0.790442228317;0.0684156566858;2;True;17;1;28.238719463690018
361;361;1449487487;2.12773251534;0.790550231934;0.0684582218528;2;True;17;1;28.238719463690018
362;362;1449487487;2.1277129650099997;0.790487587452;0.06850834935899999;2;True;17;1;28.238719463690018
363;363;1449487487;2.12773132324;0.790508985519;0.0685016512871;2;True;17;1;28.238719463690018
364;364;1449487487;2.12779021263;0.790614485741;0.0684511438012;2;True;17;1;28.238719463690018
365;365;1449487487;2.12777686119;0.790587961674;0.0684471279383;2;True;17;1;28.238719463690018
366;366;1449487487;2.12774920464;0.790433645248;0.0684546679258;2;True;17;1;28.238719463690018
367;367;1449487487;2.12782216072;0.79063397646;0.0683929547668;2;True;17;1;28.238719463690018
368;368;1449487487;2.12777853012;0.790594756603;0.0684559494257;2;True;17;1;28.238719463690018
369;369;1449487487;2.1277704238900004;0.790662050247;0.06846176832909999;2;True;17;1;28.238719463690018
370;370;1449487487;2.1277549266799998;0.7906618714329999;0.06844130158419999;2;True;17;1;28.238719463690018
371;371;1449487487;2.12774896622;0.7906727790829999;0.0684607103467;2;True;17;1;28.238719463690018
372;372;1449487487;2.12774515152;0.7905849218369999;0.0684716850519;2;True;17;1;28.238719463690018
373;373;1449487487;2.1277153492;0.7905442118639999;0.0684681609273;2;True;17;1;28.238719463690018
374;374;1449487487;2.1277546882599996;0.790628194809;0.0685650706291;2;True;17;1;28.238719463690018
375;375;1449487487;2.1277647018400003;0.790591418743;0.06838843971490001;2;True;17;1;28.238719463690018
376;376;1449487487;2.12772798538;0.790534555912;0.0684857144952;2;True;17;1;28.238719463690018
377;377;1449487487;2.12768578529;0.7905135750769999;0.06847734749319999;2;True;17;1;28.238719463690018
378;378;1449487487;2.12780618668;0.790659606457;0.0684411376715;2;True;17;1;28.238719463690018
379;379;1449487487;2.12783432007;0.790681242943;0.0684331730008;2;True;17;1;28.238719463690018
380;380;1449487487;2.12775397301;0.7906553745270001;0.0685017257929;2;True;17;1;28.238719463690018
381;381;1449487487;2.1276588439900004;0.790474116802;0.0685185343027;2;True;17;1;28.238719463690018
382;382;1449487487;2.12772011757;0.790529310703;0.0684796497226;2;True;17;1;28.238719463690018
383;383;1449487487;2.1277260780300002;0.7905105948450001;0.0684361979365;2;True;17;1;28.238719463690018
384;384;1449487487;2.1277112960799998;0.7905434966089999;0.0684746131301;2;True;17;1;28.238719463690018
385;385;1449487487;2.12779402733;0.7904354333879999;0.0683748573065;2;True;17;1;28.238719463690018
386;386;1449487487;2.12774944305;0.7906297445300001;0.0684665516019;2;True;17;1;28.238719463690018
387;387;1449487487;2.12780308723;0.7906106710430001;0.0684121921659;2;True;17;1;28.238719463690018
388;388;1449487487;2.12776780128;0.7904812693600001;0.06843142956500001;2;True;17;1;28.238719463690018
389;389;1449487487;2.12776994705;0.7905727028849999;0.0684579089284;2;True;17;1;28.238719463690018
390;390;1449487487;2.12778878212;0.790602207184;0.0684226900339;2;True;17;1;28.238719463690018
391;391;1449487487;2.12780451775;0.790692150593;0.0683813169599;2;True;17;1;28.238719463690018
392;392;1449487487;2.12778282166;0.7905113101010001;0.0683976188302;2;True;17;1;28.238719463690018
393;393;1449487487;2.12776231766;0.790482997894;0.0683984681964;2;True;17;1;28.238719463690018
394;394;1449487487;2.12783503532;0.790654420853;0.068380728364;2;True;17;1;28.238719463690018
395;395;1449487487;2.127815485;0.790697395802;0.06839659810069999;2;True;17;1;28.238719463690018
396;396;1449487487;2.12776398659;0.790614187717;0.0684900134802;2;True;17;1;28.238719463690018
397;397;1449487487;2.12778925896;0.790500104427;0.0684621855617;2;True;17;1;28.238719463690018
398;398;1449487487;2.1277034282700003;0.7905046343800001;0.06848110258580001;2;True;17;1;28.238719463690018
399;399;1449487487;2.12781524658;0.7906235456470001;0.0684046000242;2;True;17;1;28.238719463690018
400;400;1449487487;2.1278188228599997;0.790660560131;0.0684267580509;2;True;17;1;28.238719463690018
401;401;1449487487;2.1277706623099997;0.7905175685879999;0.06841071695090001;2;True;17;1;28.238719463690018
402;402;1449487487;2.1278128624;0.790661275387;0.06838139146569999;2;True;17;1;28.238719463690018
403;403;1449487487;2.12767624855;0.79046022892;0.0684896036983;2;True;17;1;28.238719463690018
404;404;1449487487;2.12785959244;0.790693283081;0.0683742761612;2;True;17;1;28.238719463690018
405;405;1449487487;2.12775421143;0.7905290722849999;0.0684202611446;2;True;17;1;28.238719463690018
406;406;1449487487;2.1278097629499997;0.790775179863;0.06838848441840001;2;True;17;1;28.238719463690018
407;407;1449487487;2.1278717517900003;0.790849864483;0.0683160945773;2;True;17;1;28.238719463690018
408;408;1449487487;2.1277737617500003;0.7905679941179999;0.06840704381469999;2;True;17;1;28.238719463690018
409;409;1449487487;2.12773323059;0.7905323505399999;0.0684483721852;2;True;17;1;28.238719463690018
410;410;1449487487;2.12777757645;0.7905631065369999;0.06841313093899999;2;True;17;1;28.238719463690018
411;411;1449487487;2.1278178691900003;0.790683329105;0.0684208869934;2;True;17;1;28.238719463690018
412;412;1449487487;2.1277797222099997;0.790655136108;0.06843896955249999;2;True;17;1;28.238719463690018
413;413;1449487487;2.12783074379;0.7906911969179999;0.068404391408;2;True;17;1;28.238719463690018
414;414;1449487487;2.1277666091900005;0.7904671430589999;0.0684242323041;2;True;17;1;28.238719463690018
415;415;1449487487;2.12779140472;0.790625333786;0.06843290477990001;2;True;17;1;28.238719463690018
416;416;1449487487;2.12785840034;0.790793120861;0.0683441162109;2;True;17;1;28.238719463690018
417;417;1449487487;2.12777209282;0.7906434535979999;0.0684415251017;2;True;17;1;28.238719463690018
418;418;1449487487;2.12773227692;0.790452301502;0.06848097592590001;2;True;17;1;28.238719463690018
419;419;1449487487;2.12783169746;0.7906656861310001;0.06839635968209999;2;True;17;1;28.238719463690018
420;420;1449487487;2.1277558803599996;0.7906066179279999;0.0684173330665;2;True;17;1;28.238719463690018
421;421;1449487487;2.12768745422;0.79051232338;0.06845317035910001;2;True;17;1;28.238719463690018
422;422;1449487487;2.12778782845;0.7906351685519999;0.0684127658606;2;True;17;1;28.238719463690018
423;423;1449487487;2.12778282166;0.7905983328820001;0.0683994591236;2;True;17;1;28.238719463690018
424;424;1449487487;2.1277561187700003;0.790518343449;0.0683816820383;2;True;17;1;28.238719463690018
425;425;1449487487;2.1277680397;0.790602982044;0.06839831918480001;2;True;17;1;28.238719463690018
426;426;1449487487;2.1277611255599997;0.7905725240710001;0.0684333816171;2;True;17;1;28.238719463690018
427;427;1449487487;2.12779402733;0.790670633316;0.06840052455659999;2;True;17;1;28.238719463690018
428;428;1449487487;2.1277306079900002;0.790578007698;0.0684313997626;2;True;17;1;28.238719463690018
429;429;1449487487;2.12784552574;0.7907003760340001;0.0683452561498;2;True;17;1;28.238719463690018
430;430;1449487487;2.12780880928;0.790747642517;0.0683874338865;2;True;17;1;28.238719463690018
431;431;1449487487;2.12776017189;0.790739715099;0.06842478364709999;2;True;17;1;28.238719463690018
432;432;1449487487;2.12769842148;0.790530800819;0.06846853345630001;2;True;17;1;28.238719463690018
433;433;1449487487;2.1277217865;0.7906553745270001;0.0684327185154;2;True;17;1;28.238719463690018
434;434;1449487487;2.12771725655;0.7905663251880001;0.0684401392937;2;True;17;1;28.238719463690018
435;435;1449487487;2.1277346611000003;0.790566861629;0.0683716312051;2;True;17;1;28.238719463690018
436;436;1449487487;2.1278026104;0.790644824505;0.0683620199561;2;True;17;1;28.238719463690018
437;437;1449487487;2.12781214714;0.790852129459;0.0683517232537;2;True;17;1;28.238719463690018
438;438;1449487487;2.1277821063999998;0.790665984154;0.0683915317059;2;True;17;1;28.238719463690018
439;439;1449487487;2.1277122497599996;0.790624976158;0.0684560984373;2;True;17;1;28.238719463690018
440;440;1449487487;2.12766885757;0.790509700775;0.068465448916;2;True;17;1;28.238719463690018
441;441;1449487487;2.12773537636;0.790470898151;0.0684323832393;2;True;17;1;28.238719463690018
442;442;1449487487;2.12772798538;0.7906255126;0.068444557488;2;True;17;1;28.238719463690018
443;443;1449487487;2.12776064873;0.790630698204;0.0683939233422;2;True;17;1;28.238719463690018
444;444;1449487487;2.1277821063999998;0.790646791458;0.0684212446213;2;True;17;1;28.238719463690018
445;445;1449487487;2.12772917747;0.790650904179;0.0684378519654;2;True;17;1;28.238719463690018
446;446;1449487487;2.12776207924;0.790669441223;0.0683728158474;2;True;17;1;28.238719463690018
447;447;1449487487;2.12765264511;0.7905004024510001;0.0684699267149;2;True;17;1;28.238719463690018
448;448;1449487487;2.12777137756;0.790607511997;0.06840248405930001;2;True;17;1;28.238719463690018
449;449;1449487487;2.12772941589;0.7906835675239999;0.0684407129884;2;True;17;1;28.238719463690018
450;450;1449487487;2.1277744770099996;0.790590882301;0.0683222040534;2;True;17;1;28.238719463690018
451;451;1449487487;2.1276574134799997;0.7905127406119999;0.06847091764209999;2;True;17;1;28.238719463690018
452;452;1449487487;2.12767195702;0.790529310703;0.0684346482158;2;True;17;1;28.238719463690018
453;453;1449487487;2.12776303291;0.790650606155;0.06840368360280001;2;True;17;1;28.238719463690018
454;454;1449487487;2.1277463436099997;0.790766894817;0.0684382021427;2;True;17;1;28.238719463690018
455;455;1449487487;2.12776613235;0.79058855772;0.0683857873082;2;True;17;1;28.238719463690018
456;456;1449487487;2.12780308723;0.7906950712199999;0.0683935508132;2;True;17;1;28.238719463690018
457;457;1449487487;2.12773251534;0.790736794472;0.0684240013361;2;True;17;1;28.238719463690018
458;458;1449487487;2.1276774406400003;0.7905187010770001;0.0684680864215;2;True;17;1;28.238719463690018
459;459;1449487487;2.1276972293900003;0.790552079678;0.068438090384;2;True;17;1;28.238719463690018
460;460;1449487487;2.12778306007;0.7906617522239999;0.0684058219194;2;True;17;1;28.238719463690018
461;461;1449487487;2.1277666091900005;0.790630280972;0.0685419812799;2;True;17;1;28.238719463690018
462;462;1449487487;2.1276671886400003;0.790534436703;0.06846205145119999;2;True;17;1;28.238719463690018
463;463;1449487487;2.12768220901;0.790517687798;0.0684710741043;2;True;17;1;28.238719463690018
464;464;1449487487;2.12780714035;0.790664255619;0.0683777704835;2;True;17;1;28.238719463690018
465;465;1449487487;2.12772059441;0.7905425429340001;0.0684733092785;2;True;17;1;28.238719463690018
466;466;1449487487;2.12769460678;0.790550947189;0.0684728473425;2;True;17;1;28.238719463690018
467;467;1449487487;2.1277532577500002;0.790563166142;0.06843998283149999;2;True;17;1;28.238719463690018
468;468;1449487487;2.1277174949599997;0.790552258492;0.0684831663966;2;True;17;1;28.238719463690018
469;469;1449487487;2.12772321701;0.7905133962630001;0.0684664547443;2;True;17;1;28.238719463690018
470;470;1449487487;2.12782931328;0.7907016277310001;0.0683576241136;2;True;17;1;28.238719463690018
471;471;1449487487;2.12774777412;0.7906404733660001;0.068472571671;2;True;17;1;28.238719463690018
472;472;1449487487;2.1277463436099997;0.790582954884;0.0684616342187;2;True;17;1;28.238719463690018
473;473;1449487487;2.12772059441;0.790529847145;0.0684709325433;2;True;17;1;28.238719463690018
474;474;1449487487;2.1277692318;0.790532171726;0.0684558600187;2;True;17;1;28.238719463690018
475;475;1449487487;2.1278109550499997;0.7904644012450001;0.0682925283909;2;True;17;1;28.238719463690018
476;476;1449487487;2.12781500816;0.7905955314640001;0.0684553608298;2;True;17;1;28.238719463690018
477;477;1449487487;2.12779164314;0.790555655956;0.0684115365148;2;True;17;1;28.238719463690018
478;478;1449487487;2.12776708603;0.790592074394;0.06844984740019999;2;True;17;1;28.238719463690018
479;479;1449487487;2.12770700455;0.7905235886570001;0.0685044974089;2;True;17;1;28.238719463690018
480;480;1449487487;2.12779903412;0.7907379865649999;0.0684004798532;2;True;17;1;28.238719463690018
481;481;1449487487;2.1277546882599996;0.790627062321;0.068416967988;2;True;17;1;28.238719463690018
482;482;1449487487;2.12776994705;0.79064977169;0.0684357732534;2;True;17;1;28.238719463690018
483;483;1449487487;2.1277122497599996;0.790552377701;0.0684681236744;2;True;17;1;28.238719463690018
484;484;1449487487;2.1278283596;0.790723085403;0.0684199780226;2;True;17;1;28.238719463690018
485;485;1449487487;2.12775754929;0.7905715107919999;0.0684507489204;2;True;17;1;28.238719463690018
486;486;1449487487;2.1277112960799998;0.790535449982;0.0684594884515;2;True;17;1;28.238719463690018
487;487;1449487487;2.12775683403;0.790623009205;0.06847645342349999;2;True;17;1;28.238719463690018
488;488;1449487487;2.12782979012;0.790681421757;0.0683914870024;2;True;17;1;28.238719463690018
489;489;1449487487;2.12774968147;0.7904442548749999;0.06844873726369999;2;True;17;1;28.238719463690018
490;490;1449487487;2.1277859211;0.790639221668;0.0684495940804;2;True;17;1;28.238719463690018
491;491;1449487487;2.1277463436099997;0.790565848351;0.0684298053384;2;True;17;1;28.238719463690018
492;492;1449487487;2.1277356147799997;0.7905105352399999;0.0684521943331;2;True;17;1;28.238719463690018
493;493;1449487487;2.1278142929099997;0.7906636595730001;0.068437539041;2;True;17;1;28.238719463690018
494;494;1449487487;2.1278233528099997;0.790671646595;0.068445160985;2;True;17;1;28.238719463690018
495;495;1449487487;2.1277463436099997;0.7906622886660001;0.0684994310141;2;True;17;1;28.238719463690018
496;496;1449487487;2.1277487278;0.790678024292;0.06844984740019999;2;True;17;1;28.238719463690018
497;497;1449487487;2.12775230408;0.7905386686329999;0.0683993324637;2;True;17;1;28.238719463690018
498;498;1449487487;2.12773942947;0.7905011177060001;0.0684592649341;2;True;17;1;28.238719463690018
499;499;1449487487;2.12775707245;0.79069674015;0.0684600919485;2;True;17;1;28.238719463690018
500;500;1449487487;2.12779068947;0.7905862331389999;0.0684351325035;2;True;17;1;28.238719463690018
501;501;1449487487;2.1278283596;0.790689647198;0.068382114172;2;True;17;1;28.238719463690018
502;502;1449487487;2.12779593468;0.790623426437;0.0684293806553;2;True;17;1;28.238719463690018
503;503;1449487487;2.12773656845;0.790683984756;0.06846062839030001;2;True;17;1;28.238719463690018
504;504;1449487487;2.1276948452;0.790563881397;0.0684344619513;2;True;17;1;28.238719463690018
505;505;1449487487;2.1277122497599996;0.7905521988869999;0.06848952919239999;2;True;17;1;28.238719463690018
506;506;1449487487;2.1277415752400004;0.790540277958;0.06838537007569999;2;True;17;1;28.238719463690018
507;507;1449487487;2.12774062157;0.790588021278;0.0684126913548;2;True;17;1;28.238719463690018
508;508;1449487487;2.12777996063;0.790549516678;0.0684110596776;2;True;17;1;28.238719463690018
509;509;1449487487;2.12777280807;0.7906227707860001;0.0684525817633;2;True;17;1;28.238719463690018
510;510;1449487487;2.1277525425;0.790540039539;0.0683994367719;2;True;17;1;28.238719463690018
511;511;1449487487;2.1276948452;0.79053401947;0.0684791356325;2;True;17;1;28.238719463690018
512;512;1449487487;2.12778544426;0.7907003760340001;0.0683879628778;2;True;17;1;28.238719463690018
513;513;1449487487;2.1276721954299997;0.790389180183;0.0684642344713;2;True;17;1;28.238719463690018
514;514;1449487487;2.1277561187700003;0.790535032749;0.0683971717954;2;True;17;1;28.238719463690018
515;515;1449487487;2.1277821063999998;0.7906079292300001;0.0684302672744;2;True;17;1;28.238719463690018
516;516;1449487487;2.1277968883500002;0.7906635999680001;0.06842342764140001;2;True;17;1;28.238719463690018
517;517;1449487487;2.1277372837099997;0.7905386090279999;0.06842535734180001;2;True;17;1;28.238719463690018
518;518;1449487487;2.12779760361;0.7906615734100001;0.0684188380837;2;True;17;1;28.238719463690018
519;519;1449487487;2.12768220901;0.7905254960060001;0.0684798881412;2;True;17;1;28.238719463690018
520;520;1449487487;2.1277222633400004;0.790590465069;0.0684478208423;2;True;17;1;28.238719463690018
521;521;1449487487;2.12775087357;0.7905429005619999;0.0684312433004;2;True;17;1;28.238719463690018
522;522;1449487487;2.12770676613;0.790532052517;0.06844591349359999;2;True;17;1;28.238719463690018
523;523;1449487487;2.12778759003;0.79047703743;0.06833486258980001;2;True;17;1;28.238719463690018
524;524;1449487487;2.1277141571000002;0.7905583977699999;0.0684605017304;2;True;17;1;28.238719463690018
525;525;1449487487;2.12769532204;0.7905250787729999;0.0684582516551;2;True;17;1;28.238719463690018
526;526;1449487487;2.1277923584000002;0.79054838419;0.068481631577;2;True;17;1;28.238719463690018
527;527;1449487487;2.12769770622;0.790525436401;0.068468876183;2;True;17;1;28.238719463690018
528;528;1449487487;2.12770938873;0.7905575037;0.0684405937791;2;True;17;1;28.238719463690018
529;529;1449487487;2.12782120705;0.790566384792;0.0684478506446;2;True;17;1;28.238719463690018
530;530;1449487487;2.12786817551;0.7906590104100001;0.06853812932969999;2;True;17;1;28.238719463690018
531;531;1449487487;2.12781214714;0.7906727790829999;0.06834924221040001;2;True;17;1;28.238719463690018
532;532;1449487487;2.12776517868;0.7906227707860001;0.0683567970991;2;True;17;1;28.238719463690018
533;533;1449487487;2.12773656845;0.7905893325810001;0.0684339851141;2;True;17;1;28.238719463690018
534;534;1449487487;2.12776279449;0.7905626297;0.0684048086405;2;True;17;1;28.238719463690018
535;535;1449487487;2.1276936531099997;0.790547370911;0.0685448870063;2;True;17;1;28.238719463690018
536;536;1449487487;2.12778306007;0.790549814701;0.0684786438942;2;True;17;1;28.238719463690018
537;537;1449487487;2.12771010399;0.7905276417730001;0.0684280693531;2;True;17;1;28.238719463690018
538;538;1449487487;2.1277997493700003;0.7906581759450001;0.0683777332306;2;True;17;1;28.238719463690018
539;539;1449487487;2.1278433799700003;0.7906907796860001;0.0683925300837;2;True;17;1;28.238719463690018
540;540;1449487487;2.12781596184;0.7905631065369999;0.0684580504894;2;True;17;1;28.238719463690018
541;541;1449487487;2.12771248817;0.790509164333;0.06844432652;2;True;17;1;28.238719463690018
542;542;1449487487;2.12774944305;0.7906201481820001;0.06845085322859999;2;True;17;1;28.238719463690018
543;543;1449487487;2.1277565956099997;0.790672302246;0.0684368088841;2;True;17;1;28.238719463690018
544;544;1449487487;2.12782025337;0.79065990448;0.06835839152340001;2;True;17;1;28.238719463690018
545;545;1449487487;2.1277997493700003;0.7905719280239999;0.0684114992619;2;True;17;1;28.238719463690018
546;546;1449487487;2.1277210712400003;0.7905487418170001;0.0684424564242;2;True;17;1;28.238719463690018
547;547;1449487487;2.1276972293900003;0.790539681911;0.0684498399496;2;True;17;1;28.238719463690018
548;548;1449487487;2.1276950836200004;0.7905215024950001;0.0684465020895;2;True;17;1;28.238719463690018
549;549;1449487487;2.12764716148;0.790455520153;0.0685646086931;2;True;17;1;28.238719463690018
550;550;1449487487;2.12783837318;0.790704131126;0.0683455988765;2;True;17;1;28.238719463690018
551;551;1449487487;2.12777256966;0.790606677532;0.06843201816080001;2;True;17;1;28.238719463690018
552;552;1449487487;2.12784004211;0.790684223175;0.0683533996344;2;True;17;1;28.238719463690018
553;553;1449487487;2.1276917457599995;0.790529668331;0.0684513896704;2;True;17;1;28.238719463690018
554;554;1449487487;2.1276652813;0.7904829382899999;0.0684896185994;2;True;17;1;28.238719463690018
555;555;1449487487;2.12779307365;0.7905789017679999;0.0684406086802;2;True;17;1;28.238719463690018
556;556;1449487487;2.1277122497599996;0.7905371189120001;0.0684504136443;2;True;17;1;28.238719463690018
557;557;1449487487;2.12772393227;0.790567517281;0.0684280321002;2;True;17;1;28.238719463690018
558;558;1449487487;2.12770748138;0.790505051613;0.0684312358499;2;True;17;1;28.238719463690018
559;559;1449487487;2.12770462036;0.790561556816;0.06845044344659999;2;True;17;1;28.238719463690018
560;560;1449487487;2.1276791095700003;0.790514409542;0.06846312433480001;2;True;17;1;28.238719463690018
561;561;1449487487;2.12774324417;0.790625751019;0.0684210136533;2;True;17;1;28.238719463690018
562;562;1449487487;2.1277897357900004;0.790701508522;0.068393714726;2;True;17;1;28.238719463690018
563;563;1449487487;2.12776279449;0.7905936837199999;0.0684404596686;2;True;17;1;28.238719463690018
564;564;1449487487;2.12782454491;0.790668547153;0.0683587193489;2;True;17;1;28.238719463690018
565;565;1449487487;2.12768220901;0.790513038635;0.0684629455209;2;True;17;1;28.238719463690018
566;566;1449487487;2.1276652813;0.7904936075210001;0.06847631931300001;2;True;17;1;28.238719463690018
567;567;1449487487;2.1277096271500002;0.790530562401;0.0684266760945;2;True;17;1;28.238719463690018
568;568;1449487487;2.12771344185;0.790564835072;0.0684229135513;2;True;17;1;28.238719463690018
569;569;1449487487;2.1276819706;0.7904968857770001;0.0684360638261;2;True;17;1;28.238719463690018
570;570;1449487487;2.12773418427;0.790569603443;0.06842432916159999;2;True;17;1;28.238719463690018
571;571;1449487487;2.12764906883;0.790441215038;0.0685257837176;2;True;17;1;28.238719463690018
572;572;1449487487;2.12767529488;0.790534198284;0.06844595819709999;2;True;17;1;28.238719463690018
573;573;1449487487;2.1277358532;0.790637373924;0.0684740021825;2;True;17;1;28.238719463690018
574;574;1449487487;2.12773799896;0.790556967258;0.0684596151114;2;True;17;1;28.238719463690018
575;575;1449487487;2.12767624855;0.790493905544;0.06848295032980001;2;True;17;1;28.238719463690018
576;576;1449487487;2.12771868706;0.7905728220939999;0.0684256330132;2;True;17;1;28.238719463690018
577;577;1449487487;2.12781262398;0.790557563305;0.06846513599159999;2;True;17;1;28.238719463690018
578;578;1449487487;2.12774801254;0.790677011013;0.0684528872371;2;True;17;1;28.238719463690018
579;579;1449487487;2.12772631645;0.790611386299;0.068489998579;2;True;17;1;28.238719463690018
580;580;1449487487;2.12779283524;0.7907589077949999;0.0683936700225;2;True;17;1;28.238719463690018
581;581;1449487487;2.12772512436;0.790621042252;0.0684558078647;2;True;17;1;28.238719463690018
582;582;1449487487;2.1277897357900004;0.790554463863;0.0684236288071;2;True;17;1;28.238719463690018
583;583;1449487487;2.1277751922599997;0.790677130222;0.06834094226359999;2;True;17;1;28.238719463690018
584;584;1449487487;2.1277565956099997;0.790675699711;0.0684477388859;2;True;17;1;28.238719463690018
585;585;1449487487;2.12782263756;0.79063898325;0.0683607235551;2;True;17;1;28.238719463690018
586;586;1449487487;2.12778162956;0.7905201911929999;0.068487174809;2;True;17;1;28.238719463690018
587;587;1449487487;2.1277573108700003;0.790528833866;0.0684416592121;2;True;17;1;28.238719463690018
588;588;1449487487;2.1276774406400003;0.790613651276;0.06839261949059999;2;True;17;1;28.238719463690018
589;589;1449487487;2.1278414726299997;0.790704786777;0.0684073641896;2;True;17;1;28.238719463690018
590;590;1449487487;2.12776207924;0.7906774878499999;0.0684313997626;2;True;17;1;28.238719463690018
591;591;1449487487;2.12779307365;0.790566384792;0.0684104785323;2;True;17;1;28.238719463690018
592;592;1449487487;2.12775063515;0.7905672192569999;0.0683863982558;2;True;17;1;28.238719463690018
593;593;1449487487;2.12774801254;0.7905693054199999;0.06843531131740001;2;True;17;1;28.238719463690018
594;594;1449487487;2.12773227692;0.7906929850579999;0.06849539279939999;2;True;17;1;28.238719463690018
595;595;1449487488;2.12781572342;0.7906262874600001;0.0683165788651;3;True;17;1;28.238719463690018
596;596;1449487488;2.1277561187700003;0.790682852268;0.0684639513493;3;True;17;1;28.238719463690018
597;597;1449487488;2.12770295143;0.790525436401;0.068477705121;3;True;17;1;28.238719463690018
598;598;1449487488;2.1277301311500003;0.7906017303470001;0.0684538930655;3;True;17;1;28.238719463690018
599;599;1449487488;2.12769699097;0.7904992699619999;0.0684899315238;3;True;17;1;28.238719463690018
600;600;1449487488;2.1276872158099995;0.790536463261;0.0684912130237;3;True;17;1;28.238719463690018
601;601;1449487488;2.12776708603;0.7905594110490001;0.06842170655730001;3;True;17;1;28.238719463690018
602;602;1449487488;2.12771463394;0.790554046631;0.0684789866209;3;True;17;1;28.238719463690018
603;603;1449487488;2.12768650055;0.790512382984;0.06847649812699999;3;True;17;1;28.238719463690018
