;Unnamed: 0;header_stamp_secs;pose_position_x;pose_position_y;pose_position_z;seconds;drop_values;flight_number;label;dtw
0;0;1449487921;2.15093827248;0.756375610828;0.0689175352454;0;True;19;1;24.79677438747999
1;1;1449487921;2.1513864994;0.7561211586;0.0689264386892;0;True;19;1;24.79677438747999
2;2;1449487921;2.15142154694;0.7560587525370001;0.0689992010593;0;True;19;1;24.79677438747999
3;3;1449487921;2.1516084671;0.755674958229;0.06907782703639999;0;True;19;1;24.79677438747999
4;4;1449487921;2.1513044834099997;0.75581997633;0.0692530348897;0;True;19;1;24.79677438747999
5;5;1449487921;2.1512093544;0.7561638951299999;0.0687282755971;0;True;19;1;24.79677438747999
6;6;1449487921;2.15104365349;0.7559813857080001;0.06894645839930001;0;True;19;1;24.79677438747999
7;7;1449487921;2.15144658089;0.755886673927;0.0691205635667;0;True;19;1;24.79677438747999
8;8;1449487921;2.1519412994400002;0.7561936974529999;0.0691279470921;0;True;19;1;24.79677438747999
9;9;1449487921;2.15116643906;0.75623857975;0.0688952878118;0;True;19;1;24.79677438747999
10;10;1449487921;2.1511156559;0.7558720111849999;0.0690485388041;0;True;19;1;24.79677438747999
11;11;1449487921;2.15167355537;0.755619943142;0.0691067054868;0;True;19;1;24.79677438747999
12;12;1449487921;2.1510426998099996;0.7559815645219999;0.069096647203;0;True;19;1;24.79677438747999
13;13;1449487921;2.15107584;0.755885779858;0.06907363981010001;0;True;19;1;24.79677438747999
14;14;1449487921;2.15149569511;0.755979180336;0.0690729171038;0;True;19;1;24.79677438747999
15;15;1449487921;2.1512241363499998;0.7557876706119999;0.0690497234464;0;True;19;1;24.79677438747999
16;16;1449487921;2.15135550499;0.755539059639;0.06948605179789999;0;True;19;1;24.79677438747999
17;17;1449487921;2.15131640434;0.756076514721;0.0690403059125;0;True;19;1;24.79677438747999
18;18;1449487921;2.1511969566299998;0.7559860944750001;0.0690031424165;0;True;19;1;24.79677438747999
19;19;1449487921;2.15169930458;0.755973696709;0.06905277818439999;0;True;19;1;24.79677438747999
20;20;1449487921;2.1516828537;0.7556814551350001;0.0691139474511;0;True;19;1;24.79677438747999
21;21;1449487921;2.1515448093400003;0.755737483501;0.0690025687218;0;True;19;1;24.79677438747999
22;22;1449487921;2.15154910088;0.7560548782350001;0.0690814331174;0;True;19;1;24.79677438747999
23;23;1449487921;2.15147066116;0.755715310574;0.0693001523614;0;True;19;1;24.79677438747999
24;24;1449487921;2.15118145943;0.755868911743;0.0691021233797;0;True;19;1;24.79677438747999
25;25;1449487921;2.1518847942400003;0.7561280727390001;0.0691257417202;0;True;19;1;24.79677438747999
26;26;1449487921;2.15142726898;0.7556822896;0.0696049779654;0;True;19;1;24.79677438747999
27;27;1449487921;2.1516003608700003;0.7558952569959999;0.06906701624389999;0;True;19;1;24.79677438747999
28;28;1449487921;2.1515996456099997;0.755933523178;0.06903796643019999;0;True;19;1;24.79677438747999
29;29;1449487921;2.1515007019;0.7559930682179999;0.06915388256310001;0;True;19;1;24.79677438747999
30;30;1449487921;2.1515519619;0.755858063698;0.0691153332591;0;True;19;1;24.79677438747999
31;31;1449487922;2.15149688721;0.7557461857800001;0.0690879523754;1;True;19;1;24.79677438747999
32;32;1449487922;2.15157032013;0.755872905254;0.06911677867169999;1;True;19;1;24.79677438747999
33;33;1449487922;2.15160703659;0.7558597326279999;0.06913895159960001;1;True;19;1;24.79677438747999
34;34;1449487922;2.15163135529;0.755849301815;0.0690554231405;1;True;19;1;24.79677438747999
35;35;1449487922;2.15159988403;0.755937755108;0.0690983831882;1;True;19;1;24.79677438747999
36;36;1449487922;2.15122318268;0.756049990654;0.06898383796219999;1;True;19;1;24.79677438747999
37;37;1449487922;2.15165400505;0.7559475898739999;0.0690747052431;1;True;19;1;24.79677438747999
38;38;1449487922;2.1515271663699997;0.7558963894840001;0.0692013651133;1;True;19;1;24.79677438747999
39;39;1449487922;2.15166425705;0.7560592293739999;0.0690016821027;1;True;19;1;24.79677438747999
40;40;1449487922;2.15153288841;0.7558379769329999;0.0691015720367;1;True;19;1;24.79677438747999
41;41;1449487922;2.15107679367;0.755503177643;0.06929162889719999;1;True;19;1;24.79677438747999
42;42;1449487922;2.1512632369999998;0.755953609943;0.0690850690007;1;True;19;1;24.79677438747999
43;43;1449487922;2.15160250664;0.755859434605;0.0691077262163;1;True;19;1;24.79677438747999
44;44;1449487922;2.15113711357;0.7564222216609999;0.0686085596681;1;True;19;1;24.79677438747999
45;45;1449487922;2.15126013756;0.7557882666590001;0.06908208131789999;1;True;19;1;24.79677438747999
46;46;1449487922;2.15158009529;0.7557523250579999;0.0690416842699;1;True;19;1;24.79677438747999
47;47;1449487922;2.1511182785;0.75592815876;0.06900935620069999;1;True;19;1;24.79677438747999
48;48;1449487922;2.15164041519;0.756042063236;0.0690180882812;1;True;19;1;24.79677438747999
49;49;1449487922;2.1516387462599997;0.756288290024;0.0690620243549;1;True;19;1;24.79677438747999
50;50;1449487922;2.1511425972;0.756137549877;0.0689693391323;1;True;19;1;24.79677438747999
51;51;1449487922;2.15121650696;0.7558323144910001;0.0690710917115;1;True;19;1;24.79677438747999
52;52;1449487922;2.15127444267;0.75593906641;0.0691640004516;1;True;19;1;24.79677438747999
53;53;1449487922;2.15093111992;0.756223320961;0.0690063983202;1;True;19;1;24.79677438747999
54;54;1449487922;2.151283741;0.7557678818699999;0.0691042840481;1;True;19;1;24.79677438747999
55;55;1449487922;2.15118455887;0.7560515403749999;0.0691987350583;1;True;19;1;24.79677438747999
56;56;1449487922;2.15104484558;0.755822896957;0.06886750459669999;1;True;19;1;24.79677438747999
57;57;1449487922;2.1509437561;0.756102442741;0.06914575397969999;1;True;19;1;24.79677438747999
58;58;1449487922;2.1516020298;0.7559794783589999;0.06904685497280001;1;True;19;1;24.79677438747999
59;59;1449487922;2.1516387462599997;0.756127119064;0.0690217986703;1;True;19;1;24.79677438747999
60;60;1449487922;2.15136528015;0.7559685707089999;0.06925299018619999;1;True;19;1;24.79677438747999
61;61;1449487922;2.1512312889099996;0.7559624910349999;0.0692225620151;1;True;19;1;24.79677438747999
62;62;1449487922;2.1517333984400002;0.755977869034;0.06908306479450001;1;True;19;1;24.79677438747999
63;63;1449487922;2.15107083321;0.75615799427;0.06833920627830001;1;True;19;1;24.79677438747999
64;64;1449487922;2.15134549141;0.7560495138169999;0.06902245432139999;1;True;19;1;24.79677438747999
65;65;1449487922;2.15107059479;0.756055891514;0.06901746243239999;1;True;19;1;24.79677438747999
66;66;1449487922;2.15156006813;0.7556949853899999;0.06905480474230001;1;True;19;1;24.79677438747999
67;67;1449487922;2.1513893604299996;0.755775272846;0.06895483285189999;1;True;19;1;24.79677438747999
68;68;1449487922;2.1519043445599997;0.756067156792;0.0691458508372;1;True;19;1;24.79677438747999
69;69;1449487922;2.1515994072;0.7560740709299999;0.0691062062979;1;True;19;1;24.79677438747999
70;70;1449487922;2.15171861649;0.756177604198;0.0690196454525;1;True;19;1;24.79677438747999
71;71;1449487922;2.15142822266;0.7558307051659999;0.06912901252510001;1;True;19;1;24.79677438747999
72;72;1449487922;2.15151143074;0.755589962006;0.0693664476275;1;True;19;1;24.79677438747999
73;73;1449487922;2.15179729462;0.756058692932;0.06912439316510001;1;True;19;1;24.79677438747999
74;74;1449487922;2.15118265152;0.7557592391969999;0.06876652687789998;1;True;19;1;24.79677438747999
75;75;1449487922;2.15152597427;0.7553039193150001;0.0695469975471;1;True;19;1;24.79677438747999
76;76;1449487922;2.15076851845;0.756195902824;0.0687084197998;1;True;19;1;24.79677438747999
77;77;1449487922;2.15136408806;0.755828380585;0.06916580349210001;1;True;19;1;24.79677438747999
78;78;1449487922;2.1505014896400003;0.755010783672;0.06882188469169999;1;True;19;1;24.79677438747999
79;79;1449487922;2.1516366004900003;0.7556033134460001;0.0694742873311;1;True;19;1;24.79677438747999
80;80;1449487922;2.1513533592200003;0.755768358707;0.0690812990069;1;True;19;1;24.79677438747999
81;81;1449487922;2.1513345241499997;0.756210267544;0.0686141029;1;True;19;1;24.79677438747999
82;82;1449487922;2.1516923904400005;0.75591647625;0.0691867098212;1;True;19;1;24.79677438747999
83;83;1449487922;2.15111899376;0.7556846141820001;0.06896290183069999;1;True;19;1;24.79677438747999
84;84;1449487922;2.15103769302;0.7557910680769999;0.06937149167060001;1;True;19;1;24.79677438747999
85;85;1449487922;2.15138483047;0.755878686905;0.0691436007619;1;True;19;1;24.79677438747999
86;86;1449487922;2.15172290802;0.7561730146410001;0.06902682781219999;1;True;19;1;24.79677438747999
87;87;1449487922;2.1516823768599997;0.7562393546100001;0.06902813911439999;1;True;19;1;24.79677438747999
88;88;1449487922;2.1516225338;0.7559351921080001;0.0690613165498;1;True;19;1;24.79677438747999
89;89;1449487922;2.1517496109;0.7556536197660001;0.0691566616297;1;True;19;1;24.79677438747999
90;90;1449487922;2.15121388435;0.756294250488;0.068992421031;1;True;19;1;24.79677438747999
91;91;1449487922;2.1516964435599997;0.755682885647;0.0691511854529;1;True;19;1;24.79677438747999
92;92;1449487922;2.15115022659;0.755852520466;0.06911635398860001;1;True;19;1;24.79677438747999
93;93;1449487922;2.15154743195;0.755818665028;0.0699681937695;1;True;19;1;24.79677438747999
94;94;1449487922;2.15113830566;0.755900681019;0.06910186260939999;1;True;19;1;24.79677438747999
95;95;1449487922;2.15092110634;0.756084382534;0.06869923323390001;1;True;19;1;24.79677438747999
96;96;1449487922;2.1513767242400004;0.7561526894570001;0.06900931149720001;1;True;19;1;24.79677438747999
97;97;1449487922;2.15158367157;0.756223857403;0.0690998062491;1;True;19;1;24.79677438747999
98;98;1449487922;2.1515853405;0.755717217922;0.069073446095;1;True;19;1;24.79677438747999
99;99;1449487922;2.15109610558;0.755613863468;0.06932013481860001;1;True;19;1;24.79677438747999
100;100;1449487922;2.151648283;0.755919337273;0.0691070184112;1;True;19;1;24.79677438747999
101;101;1449487922;2.1516327858;0.755882680416;0.0690390914679;1;True;19;1;24.79677438747999
102;102;1449487922;2.15159702301;0.7558339834209999;0.0691319033504;1;True;19;1;24.79677438747999
103;103;1449487922;2.1516320705400003;0.755879402161;0.0690546780825;1;True;19;1;24.79677438747999
104;104;1449487922;2.1515390872999998;0.755875766277;0.0691305622458;1;True;19;1;24.79677438747999
105;105;1449487922;2.15144896507;0.755813121796;0.0693072378635;1;True;19;1;24.79677438747999
106;106;1449487922;2.1516609191900002;0.7559500932690001;0.0690175443888;1;True;19;1;24.79677438747999
107;107;1449487922;2.1516032218900003;0.755776822567;0.0691363662481;1;True;19;1;24.79677438747999
108;108;1449487922;2.15139961243;0.755755126476;0.0692375227809;1;True;19;1;24.79677438747999
109;109;1449487922;2.15157032013;0.7558905482289999;0.06912356615069999;1;True;19;1;24.79677438747999
110;110;1449487922;2.15163016319;0.7558656334880001;0.06906958669419999;1;True;19;1;24.79677438747999
111;111;1449487922;2.1514647007;0.755783259869;0.06919372826810001;1;True;19;1;24.79677438747999
112;112;1449487922;2.15161800385;0.7558189034460001;0.0690743774176;1;True;19;1;24.79677438747999
113;113;1449487922;2.15144300461;0.755728304386;0.0691287666559;1;True;19;1;24.79677438747999
114;114;1449487922;2.15151262283;0.755691885948;0.06914619356389999;1;True;19;1;24.79677438747999
115;115;1449487922;2.15158414841;0.7557139396670001;0.0690636634827;1;True;19;1;24.79677438747999
116;116;1449487922;2.15167379379;0.7559561133380001;0.06907967478039999;1;True;19;1;24.79677438747999
117;117;1449487922;2.15162420273;0.755814254284;0.06905000656839999;1;True;19;1;24.79677438747999
118;118;1449487922;2.15167450905;0.755943417549;0.06909994035960002;1;True;19;1;24.79677438747999
119;119;1449487922;2.1513736247999997;0.75615799427;0.0687113925815;1;True;19;1;24.79677438747999
120;120;1449487922;2.15162801743;0.7558535337450001;0.0691111534834;1;True;19;1;24.79677438747999
121;121;1449487922;2.15143871307;0.755869567394;0.06915546208619999;1;True;19;1;24.79677438747999
122;122;1449487922;2.15165567398;0.755939006805;0.06910312920810001;1;True;19;1;24.79677438747999
123;123;1449487922;2.1514377594;0.7557202577590001;0.069328121841;1;True;19;1;24.79677438747999
124;124;1449487922;2.1516017913799996;0.755839049816;0.06907723844050001;1;True;19;1;24.79677438747999
125;125;1449487922;2.15165567398;0.756023406982;0.0690039992332;1;True;19;1;24.79677438747999
126;126;1449487922;2.1515519619;0.7557651996610001;0.06913567334410001;1;True;19;1;24.79677438747999
127;127;1449487922;2.15162801743;0.755924403667;0.06906039267780001;1;True;19;1;24.79677438747999
128;128;1449487922;2.15160632133;0.755950629711;0.0690554007888;1;True;19;1;24.79677438747999
129;129;1449487922;2.15161132812;0.755816698074;0.0691206529737;1;True;19;1;24.79677438747999
130;130;1449487922;2.15153837204;0.755717515945;0.0691424310207;1;True;19;1;24.79677438747999
131;131;1449487922;2.1514596939099997;0.755808949471;0.06928546726700001;1;True;19;1;24.79677438747999
132;132;1449487922;2.15152668953;0.7557842135430001;0.06908696144820001;1;True;19;1;24.79677438747999
133;133;1449487922;2.151648283;0.755924940109;0.06906107813120001;1;True;19;1;24.79677438747999
134;134;1449487922;2.15146160126;0.7557556033130001;0.0691596642137;1;True;19;1;24.79677438747999
135;135;1449487922;2.15153312683;0.7556796073909999;0.0690594986081;1;True;19;1;24.79677438747999
136;136;1449487922;2.15150642395;0.755760729313;0.06911601126189999;1;True;19;1;24.79677438747999
137;137;1449487922;2.15121459961;0.755783140659;0.06897276639939999;1;True;19;1;24.79677438747999
138;138;1449487922;2.15131878853;0.756183445454;0.06839261949059999;1;True;19;1;24.79677438747999
139;139;1449487922;2.1512401104;0.7558094859119999;0.0690355300903;1;True;19;1;24.79677438747999
140;140;1449487922;2.15156245232;0.7560867667199999;0.0690736994147;1;True;19;1;24.79677438747999
141;141;1449487922;2.15076541901;0.7560447454449999;0.0687846541405;1;True;19;1;24.79677438747999
142;142;1449487922;2.15161204338;0.755702078342;0.0693217590451;1;True;19;1;24.79677438747999
143;143;1449487922;2.15130662918;0.7556645870209999;0.0690339282155;1;True;19;1;24.79677438747999
144;144;1449487922;2.15112280846;0.756230890751;0.06893257796760001;1;True;19;1;24.79677438747999
145;145;1449487922;2.15153861046;0.756076514721;0.0690718218684;1;True;19;1;24.79677438747999
146;146;1449487922;2.15181422234;0.756164729595;0.06932581216099999;1;True;19;1;24.79677438747999
147;147;1449487922;2.1511554718;0.75543653965;0.0690792053938;1;True;19;1;24.79677438747999
148;148;1449487922;2.15162730217;0.756224274635;0.0690204799175;1;True;19;1;24.79677438747999
149;149;1449487922;2.1511800289200003;0.755835533142;0.0690414234996;1;True;19;1;24.79677438747999
150;150;1449487922;2.1518325805700003;0.7560854554180001;0.0691004693508;1;True;19;1;24.79677438747999
151;151;1449487922;2.15113306046;0.7560969591140001;0.0686975046992;1;True;19;1;24.79677438747999
152;152;1449487922;2.15114808083;0.755863189697;0.0690332874656;1;True;19;1;24.79677438747999
153;153;1449487922;2.1511411666900004;0.755836308002;0.06907086074350001;1;True;19;1;24.79677438747999
154;154;1449487922;2.15152812004;0.7561929225920001;0.069059856236;1;True;19;1;24.79677438747999
155;155;1449487922;2.15095901489;0.756143271923;0.0684619769454;1;True;19;1;24.79677438747999
156;156;1449487922;2.15133881569;0.755713641644;0.0690674558282;1;True;19;1;24.79677438747999
157;157;1449487922;2.15118432045;0.755830943584;0.0690511763096;1;True;19;1;24.79677438747999
158;158;1449487922;2.15097165108;0.7562720775599999;0.06880236417060001;1;True;19;1;24.79677438747999
159;159;1449487922;2.15065360069;0.755934417248;0.06893547624350001;1;True;19;1;24.79677438747999
160;160;1449487922;2.15129113197;0.7557326555249999;0.0690988525748;1;True;19;1;24.79677438747999
161;161;1449487922;2.1505701541900004;0.7561821341509999;0.06881057471039999;1;True;19;1;24.79677438747999
162;162;1449487922;2.15176868439;0.755824446678;0.0693506523967;1;True;19;1;24.79677438747999
163;163;1449487922;2.1515617370599998;0.756097435951;0.0691038221121;1;True;19;1;24.79677438747999
164;164;1449487922;2.1513621807099996;0.755708396435;0.0690849870443;1;True;19;1;24.79677438747999
165;165;1449487922;2.15175747871;0.755891799927;0.0690891966224;1;True;19;1;24.79677438747999
166;166;1449487922;2.15123486519;0.7556944489480001;0.0692833587527;1;True;19;1;24.79677438747999
167;167;1449487922;2.15101671219;0.756188929081;0.0689513757825;1;True;19;1;24.79677438747999
168;168;1449487922;2.15105295181;0.756247580051;0.0685078501701;1;True;19;1;24.79677438747999
169;169;1449487922;2.15171909332;0.756174445152;0.06901904940610001;1;True;19;1;24.79677438747999
170;170;1449487922;2.1515030860900004;0.7558345794679999;0.0691906660795;1;True;19;1;24.79677438747999
171;171;1449487922;2.15150976181;0.7557242512700001;0.06915625929830001;1;True;19;1;24.79677438747999
172;172;1449487922;2.15163397789;0.7558474540710001;0.0690606757998;1;True;19;1;24.79677438747999
173;173;1449487922;2.15149188042;0.755630910397;0.069175966084;1;True;19;1;24.79677438747999
174;174;1449487922;2.15160346031;0.7562921643260001;0.0684359669685;1;True;19;1;24.79677438747999
175;175;1449487922;2.1516051292400005;0.7559173703190001;0.0691058039665;1;True;19;1;24.79677438747999
176;176;1449487922;2.15162348747;0.7558888196950001;0.0691347643733;1;True;19;1;24.79677438747999
177;177;1449487922;2.15130662918;0.755848586559;0.0691142305732;1;True;19;1;24.79677438747999
178;178;1449487922;2.15164637566;0.755957305431;0.0691284760833;1;True;19;1;24.79677438747999
179;179;1449487922;2.1515996456099997;0.755916893482;0.0690747126937;1;True;19;1;24.79677438747999
180;180;1449487922;2.1516275405900003;0.7560337185860001;0.06911675632;1;True;19;1;24.79677438747999
181;181;1449487922;2.1516208648700004;0.75579726696;0.06908906251189999;1;True;19;1;24.79677438747999
182;182;1449487922;2.15164136887;0.755928695202;0.0691104829311;1;True;19;1;24.79677438747999
183;183;1449487922;2.15160012245;0.7558712363240001;0.0691636651754;1;True;19;1;24.79677438747999
184;184;1449487922;2.15162205696;0.755853235722;0.069165147841;1;True;19;1;24.79677438747999
185;185;1449487922;2.15154981613;0.755710124969;0.0690909549594;1;True;19;1;24.79677438747999
186;186;1449487922;2.15152478218;0.755824029446;0.0691887959838;1;True;19;1;24.79677438747999
187;187;1449487922;2.1515758037599997;0.7558174133300001;0.06912157684560001;1;True;19;1;24.79677438747999
188;188;1449487922;2.1510467529299997;0.755665898323;0.06922911107539999;1;True;19;1;24.79677438747999
189;189;1449487922;2.15146923065;0.7557626366619999;0.06921926885839999;1;True;19;1;24.79677438747999
190;190;1449487922;2.15149617195;0.7556452155110001;0.0691761523485;1;True;19;1;24.79677438747999
191;191;1449487922;2.1510498523700003;0.756111502647;0.0691084712744;1;True;19;1;24.79677438747999
192;192;1449487922;2.15185856819;0.755941987038;0.0690567344427;1;True;19;1;24.79677438747999
193;193;1449487922;2.15152382851;0.7557007074359999;0.0691141039133;1;True;19;1;24.79677438747999
194;194;1449487922;2.1515750885;0.7557371854780001;0.0690934509039;1;True;19;1;24.79677438747999
195;195;1449487922;2.1515223979900004;0.755721986294;0.06952770054339999;1;True;19;1;24.79677438747999
196;196;1449487922;2.1516225338;0.7559188604350001;0.0691293776035;1;True;19;1;24.79677438747999
197;197;1449487922;2.15128445625;0.756036162376;0.0691351816058;1;True;19;1;24.79677438747999
198;198;1449487922;2.15147852898;0.7558223009110001;0.06919624656439999;1;True;19;1;24.79677438747999
199;199;1449487922;2.1516366004900003;0.7559289932250001;0.06913054734469999;1;True;19;1;24.79677438747999
200;200;1449487922;2.1516122818;0.756056547165;0.0690509676933;1;True;19;1;24.79677438747999
201;201;1449487922;2.15166068077;0.7560024261470001;0.069111905992;1;True;19;1;24.79677438747999
202;202;1449487922;2.1510338783300003;0.756181657314;0.06920337677;1;True;19;1;24.79677438747999
203;203;1449487922;2.1510770320900003;0.755719780922;0.0693072229624;1;True;19;1;24.79677438747999
204;204;1449487922;2.1512978076900002;0.756115078926;0.06935113668439999;1;True;19;1;24.79677438747999
205;205;1449487922;2.15120959282;0.755937278271;0.0691300854087;1;True;19;1;24.79677438747999
206;206;1449487922;2.1512863636;0.75615721941;0.06879192590710001;1;True;19;1;24.79677438747999
207;207;1449487922;2.1516573429099997;0.7562472820280001;0.06910970807080001;1;True;19;1;24.79677438747999
208;208;1449487922;2.1512506008099996;0.7558349967;0.06911323219539998;1;True;19;1;24.79677438747999
209;209;1449487922;2.1513574123400003;0.755864739418;0.06925573945050001;1;True;19;1;24.79677438747999
210;210;1449487922;2.15155935287;0.755861699581;0.0687872245908;1;True;19;1;24.79677438747999
211;211;1449487922;2.1518545150799997;0.7562929391859999;0.0690831169486;1;True;19;1;24.79677438747999
212;212;1449487922;2.15154743195;0.756030380726;0.06915586441760001;1;True;19;1;24.79677438747999
213;213;1449487922;2.1512055397;0.756229996681;0.06889256834980001;1;True;19;1;24.79677438747999
214;214;1449487922;2.1509759426099997;0.75598692894;0.0692104026675;1;True;19;1;24.79677438747999
215;215;1449487922;2.15183806419;0.756275415421;0.06906367838380001;1;True;19;1;24.79677438747999
216;216;1449487922;2.15159893036;0.7560568451880001;0.0691055506468;1;True;19;1;24.79677438747999
217;217;1449487922;2.15060091019;0.7561370730399999;0.0684601217508;1;True;19;1;24.79677438747999
218;218;1449487922;2.15156817436;0.7557074427600001;0.0690772235394;1;True;19;1;24.79677438747999
219;219;1449487922;2.1516573429099997;0.7561003565790001;0.069132424891;1;True;19;1;24.79677438747999
220;220;1449487922;2.15139436722;0.75571256876;0.06944383680819999;1;True;19;1;24.79677438747999
221;221;1449487922;2.15157628059;0.755815625191;0.06914995610710001;1;True;19;1;24.79677438747999
222;222;1449487922;2.15135908127;0.7557117939;0.0693780481815;1;True;19;1;24.79677438747999
223;223;1449487922;2.15159773827;0.755687236786;0.0690621808171;1;True;19;1;24.79677438747999
224;224;1449487922;2.15137147903;0.7557515501980001;0.0691187307239;1;True;19;1;24.79677438747999
225;225;1449487922;2.15143013;0.755830526352;0.0691673159599;1;True;19;1;24.79677438747999
226;226;1449487922;2.1510233879099996;0.7560764551160001;0.0691822469234;1;True;19;1;24.79677438747999
227;227;1449487922;2.1512029171;0.755773067474;0.0691381916404;1;True;19;1;24.79677438747999
228;228;1449487922;2.1505215168;0.755438923836;0.069184333086;1;True;19;1;24.79677438747999
229;229;1449487922;2.1514389514900003;0.7558050751690001;0.0691565573215;1;True;19;1;24.79677438747999
230;230;1449487922;2.15106964111;0.756031572819;0.0690935701132;1;True;19;1;24.79677438747999
231;231;1449487922;2.1515810489700002;0.755690991879;0.0690643265843;1;True;19;1;24.79677438747999
232;232;1449487922;2.151440382;0.755664110184;0.0691169202328;1;True;19;1;24.79677438747999
233;233;1449487922;2.15106534958;0.756268799305;0.0687010064721;1;True;19;1;24.79677438747999
234;234;1449487922;2.15157675743;0.755796074867;0.06906177103519999;1;True;19;1;24.79677438747999
235;235;1449487922;2.15120458603;0.755717873573;0.0690988600254;1;True;19;1;24.79677438747999
236;236;1449487922;2.15162873268;0.755878865719;0.06906099617480001;1;True;19;1;24.79677438747999
237;237;1449487922;2.15156030655;0.7557870745659999;0.06909715384239999;1;True;19;1;24.79677438747999
238;238;1449487922;2.1515276432;0.7560781240459999;0.06907460093500001;1;True;19;1;24.79677438747999
239;239;1449487922;2.1511683464099995;0.756043553352;0.0690564587712;1;True;19;1;24.79677438747999
240;240;1449487922;2.1514942646;0.755799710751;0.0691810026765;1;True;19;1;24.79677438747999
241;241;1449487922;2.15143966675;0.755688786507;0.06921831518410002;1;True;19;1;24.79677438747999
242;242;1449487922;2.15155768394;0.7558513283730001;0.0690577179193;1;True;19;1;24.79677438747999
243;243;1449487922;2.15168118477;0.756055295467;0.0690832957625;1;True;19;1;24.79677438747999
244;244;1449487922;2.15163087845;0.755928695202;0.0690905228257;1;True;19;1;24.79677438747999
245;245;1449487922;2.15129351616;0.755924940109;0.0692047476768;1;True;19;1;24.79677438747999
246;246;1449487922;2.1517395973199998;0.756288051605;0.06904867291450001;1;True;19;1;24.79677438747999
247;247;1449487922;2.15129852295;0.7556304931640001;0.06881243735550001;1;True;19;1;24.79677438747999
248;248;1449487922;2.15177941322;0.7563021779060001;0.0690242797136;1;True;19;1;24.79677438747999
249;249;1449487922;2.1517815589900002;0.756301999092;0.0690271481872;1;True;19;1;24.79677438747999
250;250;1449487922;2.1516320705400003;0.75584590435;0.069099932909;1;True;19;1;24.79677438747999
251;251;1449487922;2.15170860291;0.755846083164;0.068764962256;1;True;19;1;24.79677438747999
252;252;1449487922;2.15179204941;0.756318807602;0.0690286755562;1;True;19;1;24.79677438747999
253;253;1449487922;2.15156245232;0.7558700442309999;0.0691336244345;1;True;19;1;24.79677438747999
254;254;1449487922;2.15181446075;0.756325006485;0.0690212100744;1;True;19;1;24.79677438747999
255;255;1449487922;2.1512982845299997;0.755955398083;0.06907599419360001;1;True;19;1;24.79677438747999
256;256;1449487922;2.15145587921;0.755823850632;0.06908203661439999;1;True;19;1;24.79677438747999
257;257;1449487922;2.1516127586400002;0.755802750587;0.0691125914454;1;True;19;1;24.79677438747999
258;258;1449487922;2.15127539635;0.755877554417;0.06925346702339999;1;True;19;1;24.79677438747999
259;259;1449487922;2.15179586411;0.755971610546;0.06919769942760001;1;True;19;1;24.79677438747999
260;260;1449487922;2.15163135529;0.756289243698;0.06906737387180001;1;True;19;1;24.79677438747999
261;261;1449487922;2.1514666080500002;0.755764603615;0.0690952464938;1;True;19;1;24.79677438747999
262;262;1449487922;2.15160870552;0.755847096443;0.0691128596663;1;True;19;1;24.79677438747999
263;263;1449487922;2.15153121948;0.7558814287190001;0.0691278427839;1;True;19;1;24.79677438747999
264;264;1449487922;2.1512868404400005;0.7560467123989999;0.0689662024379;1;True;19;1;24.79677438747999
265;265;1449487922;2.15157151222;0.7558481693269999;0.069085277617;1;True;19;1;24.79677438747999
266;266;1449487922;2.15176820755;0.7563211917880001;0.0690160989761;1;True;19;1;24.79677438747999
267;267;1449487922;2.1516172885900002;0.755848646164;0.0690633952618;1;True;19;1;24.79677438747999
268;268;1449487923;2.1514518261;0.755768299103;0.06945741921660001;2;True;19;1;24.79677438747999
269;269;1449487923;2.15148568153;0.7558286190029999;0.0691571235657;2;True;19;1;24.79677438747999
270;270;1449487923;2.1513295173599998;0.75568819046;0.0692242309451;2;True;19;1;24.79677438747999
271;271;1449487923;2.15136146545;0.756368875504;0.0688666179776;2;True;19;1;24.79677438747999
272;272;1449487923;2.15174627304;0.756305217743;0.069021075964;2;True;19;1;24.79677438747999
273;273;1449487923;2.15092325211;0.7561128735539999;0.06912335008380001;2;True;19;1;24.79677438747999
274;274;1449487923;2.15111875534;0.755827724934;0.0691353827715;2;True;19;1;24.79677438747999
275;275;1449487923;2.15177154541;0.7561839222910001;0.06914415210489999;2;True;19;1;24.79677438747999
276;276;1449487923;2.15149831772;0.756160020828;0.0690524503589;2;True;19;1;24.79677438747999
277;277;1449487923;2.15129208565;0.755813062191;0.06918349117039999;2;True;19;1;24.79677438747999
278;278;1449487923;2.15136790276;0.756060898304;0.0690978989005;2;True;19;1;24.79677438747999
279;279;1449487923;2.15103507042;0.756035387516;0.0690989941359;2;True;19;1;24.79677438747999
280;280;1449487923;2.15178918839;0.756324052811;0.0690153762698;2;True;19;1;24.79677438747999
281;281;1449487923;2.15179443359;0.756287693977;0.0690310895443;2;True;19;1;24.79677438747999
282;282;1449487923;2.15165019035;0.7551882267;0.0700523033738;2;True;19;1;24.79677438747999
283;283;1449487923;2.15099406242;0.7562235593800001;0.06918243318799999;2;True;19;1;24.79677438747999
284;284;1449487923;2.1516752243;0.7556762099269999;0.069134041667;2;True;19;1;24.79677438747999
285;285;1449487923;2.15159010887;0.755777239799;0.0693236291409;2;True;19;1;24.79677438747999
286;286;1449487923;2.15101385117;0.75614875555;0.0683168321848;2;True;19;1;24.79677438747999
287;287;1449487923;2.15155243874;0.7558113932610001;0.06909228861330001;2;True;19;1;24.79677438747999
288;288;1449487923;2.15187644958;0.7560787200929999;0.06913957744839999;2;True;19;1;24.79677438747999
289;289;1449487923;2.1513006687200003;0.756208777428;0.068994037807;2;True;19;1;24.79677438747999
290;290;1449487923;2.15155029297;0.7555417418479999;0.0695604234934;2;True;19;1;24.79677438747999
291;291;1449487923;2.15125441551;0.755655229092;0.0694507956505;2;True;19;1;24.79677438747999
292;292;1449487923;2.1516370773299998;0.756682753563;0.0692695826292;2;True;19;1;24.79677438747999
293;293;1449487923;2.15172219276;0.755974948406;0.0690785348415;2;True;19;1;24.79677438747999
294;294;1449487923;2.15135502815;0.755785405636;0.0691223070025;2;True;19;1;24.79677438747999
295;295;1449487923;2.15142869949;0.755926012993;0.0691628158092;2;True;19;1;24.79677438747999
296;296;1449487923;2.1512310504900003;0.755853831768;0.06910534203049999;2;True;19;1;24.79677438747999
297;297;1449487923;2.15126848221;0.7560679316519999;0.06894659250969999;2;True;19;1;24.79677438747999
298;298;1449487923;2.15133714676;0.755928575993;0.0692621394992;2;True;19;1;24.79677438747999
299;299;1449487923;2.1510825157199998;0.755999565125;0.0689995363355;2;True;19;1;24.79677438747999
300;300;1449487923;2.1511585712400003;0.75630491972;0.0689073652029;2;True;19;1;24.79677438747999
301;301;1449487923;2.15182304382;0.756221234798;0.0693044438958;2;True;19;1;24.79677438747999
302;302;1449487923;2.15129446983;0.755782604218;0.0691241621971;2;True;19;1;24.79677438747999
303;303;1449487923;2.15124201775;0.756044328213;0.0689852461219;2;True;19;1;24.79677438747999
304;304;1449487923;2.15125417709;0.755857050419;0.06912705302239999;2;True;19;1;24.79677438747999
305;305;1449487923;2.15118861198;0.755889892578;0.0691468715668;2;True;19;1;24.79677438747999
306;306;1449487923;2.15092086792;0.756035387516;0.06902203708889999;2;True;19;1;24.79677438747999
307;307;1449487923;2.15139770508;0.755786240101;0.0691106840968;2;True;19;1;24.79677438747999
308;308;1449487923;2.15097737312;0.7563910484309999;0.06898989528419999;2;True;19;1;24.79677438747999
309;309;1449487923;2.1509706974;0.756021261215;0.0691643506289;2;True;19;1;24.79677438747999
310;310;1449487923;2.15081739426;0.756065487862;0.0690264180303;2;True;19;1;24.79677438747999
311;311;1449487923;2.15067100525;0.7562460303309999;0.0688219293952;2;True;19;1;24.79677438747999
312;312;1449487923;2.1509640216799997;0.7553353905679999;0.06918434053660001;2;True;19;1;24.79677438747999
313;313;1449487923;2.1515839099900003;0.755760788918;0.0691380724311;2;True;19;1;24.79677438747999
314;314;1449487923;2.15152573586;0.756097793579;0.06910553574560001;2;True;19;1;24.79677438747999
315;315;1449487923;2.15126943588;0.7559106349950001;0.06921537965539999;2;True;19;1;24.79677438747999
316;316;1449487923;2.15150356293;0.7559384703640001;0.0693896189332;2;True;19;1;24.79677438747999
317;317;1449487923;2.15118408203;0.755910038948;0.06922587007280001;2;True;19;1;24.79677438747999
318;318;1449487923;2.15151691437;0.756107389927;0.06919195503;2;True;19;1;24.79677438747999
319;319;1449487923;2.1518416404700003;0.756312549114;0.0690732672811;2;True;19;1;24.79677438747999
320;320;1449487923;2.15127778053;0.7559502720829999;0.0692093223333;2;True;19;1;24.79677438747999
321;321;1449487923;2.1504962444299998;0.7556141018870001;0.0691962838173;2;True;19;1;24.79677438747999
322;322;1449487923;2.15160655975;0.756071865559;0.0691344216466;2;True;19;1;24.79677438747999
323;323;1449487923;2.15171980858;0.755836188793;0.0693919882178;2;True;19;1;24.79677438747999
324;324;1449487923;2.15177869797;0.756023645401;0.0690961703658;2;True;19;1;24.79677438747999
325;325;1449487923;2.15115475655;0.755894005299;0.0691669285297;2;True;19;1;24.79677438747999
326;326;1449487923;2.15165472031;0.755977630615;0.0691597238183;2;True;19;1;24.79677438747999
327;327;1449487923;2.15160703659;0.755947768688;0.06917367875580001;2;True;19;1;24.79677438747999
328;328;1449487923;2.1516563892400002;0.755859434605;0.0691810622811;2;True;19;1;24.79677438747999
329;329;1449487923;2.15156412125;0.7557605504989999;0.0691765919328;2;True;19;1;24.79677438747999
330;330;1449487923;2.15167737007;0.755974531174;0.0691398978233;2;True;19;1;24.79677438747999
331;331;1449487923;2.15161657333;0.7559462785719999;0.0690820887685;2;True;19;1;24.79677438747999
332;332;1449487923;2.15136480331;0.755837082863;0.06915111094710001;2;True;19;1;24.79677438747999
333;333;1449487923;2.15159773827;0.755734324455;0.06910770386460001;2;True;19;1;24.79677438747999
334;334;1449487923;2.1515617370599998;0.755850493908;0.0691424533725;2;True;19;1;24.79677438747999
335;335;1449487923;2.15158867836;0.755784630775;0.06907502561810001;2;True;19;1;24.79677438747999
336;336;1449487923;2.15161252022;0.755846679211;0.0691573917866;2;True;19;1;24.79677438747999
337;337;1449487923;2.1517632007599996;0.755938529968;0.0691028684378;2;True;19;1;24.79677438747999
338;338;1449487923;2.1516566276599995;0.7559549808499999;0.0690398812294;2;True;19;1;24.79677438747999
339;339;1449487923;2.1516807079299998;0.755932152271;0.0690601095557;2;True;19;1;24.79677438747999
340;340;1449487923;2.15132784843;0.755749344826;0.0692417174578;2;True;19;1;24.79677438747999
341;341;1449487923;2.1516194343599997;0.755756795406;0.0691272541881;2;True;19;1;24.79677438747999
342;342;1449487923;2.1516456604;0.7558780312540001;0.0690763741732;2;True;19;1;24.79677438747999
343;343;1449487923;2.15151596069;0.7557552456859999;0.0691573768854;2;True;19;1;24.79677438747999
344;344;1449487923;2.15162777901;0.7559772133830001;0.0691190212965;2;True;19;1;24.79677438747999
345;345;1449487923;2.15157985687;0.755907833576;0.0691006854177;2;True;19;1;24.79677438747999
346;346;1449487923;2.1515839099900003;0.7558891177179999;0.0691179856658;2;True;19;1;24.79677438747999
347;347;1449487923;2.15162491798;0.7560923099519999;0.069110698998;2;True;19;1;24.79677438747999
348;348;1449487923;2.15093040466;0.755811989307;0.0692432001233;2;True;19;1;24.79677438747999
349;349;1449487923;2.1516187191;0.7558937668800001;0.0691269189119;2;True;19;1;24.79677438747999
350;350;1449487923;2.1515109539;0.755733013153;0.0691010802984;2;True;19;1;24.79677438747999
351;351;1449487923;2.1515724659;0.755751252174;0.0690510123968;2;True;19;1;24.79677438747999
352;352;1449487923;2.15153551102;0.755797743797;0.06908161193130001;2;True;19;1;24.79677438747999
353;353;1449487923;2.15185809135;0.7561420798299999;0.0691293552518;2;True;19;1;24.79677438747999
354;354;1449487923;2.15153479576;0.755823552608;0.06911319494250001;2;True;19;1;24.79677438747999
355;355;1449487923;2.15172457695;0.755947053432;0.06905062496660001;2;True;19;1;24.79677438747999
356;356;1449487923;2.15157341957;0.7562051415440001;0.06903018057350001;2;True;19;1;24.79677438747999
357;357;1449487923;2.15169477463;0.755608737469;0.0691020339727;2;True;19;1;24.79677438747999
358;358;1449487923;2.1512384414700003;0.7558597922329999;0.06932499259710001;2;True;19;1;24.79677438747999
359;359;1449487923;2.15175247192;0.755897700787;0.0691662952304;2;True;19;1;24.79677438747999
360;360;1449487923;2.1509270668;0.756230890751;0.0689581632614;2;True;19;1;24.79677438747999
361;361;1449487923;2.15136408806;0.755737125874;0.069073535502;2;True;19;1;24.79677438747999
362;362;1449487923;2.1510388851199997;0.755980551243;0.0690618231893;2;True;19;1;24.79677438747999
363;363;1449487923;2.151450634;0.755893528461;0.0689689964056;2;True;19;1;24.79677438747999
364;364;1449487923;2.15110063553;0.756072044373;0.06885033100839999;2;True;19;1;24.79677438747999
365;365;1449487923;2.15152740479;0.7559599876399999;0.0689581856132;2;True;19;1;24.79677438747999
366;366;1449487923;2.15098595619;0.756274521351;0.068484775722;2;True;19;1;24.79677438747999
367;367;1449487923;2.15147924423;0.75569152832;0.0690685659647;2;True;19;1;24.79677438747999
368;368;1449487923;2.15118694305;0.75584936142;0.06907567381860001;2;True;19;1;24.79677438747999
369;369;1449487923;2.1514780521400003;0.755571246147;0.0696368142962;2;True;19;1;24.79677438747999
370;370;1449487923;2.1509666442900004;0.756074607372;0.06906136125330001;2;True;19;1;24.79677438747999
371;371;1449487923;2.15133476257;0.755674958229;0.06916154176;2;True;19;1;24.79677438747999
372;372;1449487923;2.15164637566;0.755781829357;0.0690628960729;2;True;19;1;24.79677438747999
373;373;1449487923;2.15124893188;0.756191194057;0.06874815374610001;2;True;19;1;24.79677438747999
374;374;1449487923;2.15128564835;0.755747318268;0.0690356492996;2;True;19;1;24.79677438747999
375;375;1449487923;2.1519458293900002;0.7562534809110001;0.0691295862198;2;True;19;1;24.79677438747999
376;376;1449487923;2.1514596939099997;0.755692660809;0.0690793469548;2;True;19;1;24.79677438747999
377;377;1449487923;2.15179586411;0.756280601025;0.0690169110894;2;True;19;1;24.79677438747999
378;378;1449487923;2.15177249908;0.755537569523;0.0697152465582;2;True;19;1;24.79677438747999
379;379;1449487923;2.15132212639;0.756072938442;0.06908383965489999;2;True;19;1;24.79677438747999
380;380;1449487923;2.15121912956;0.755807757378;0.0690716430545;2;True;19;1;24.79677438747999
381;381;1449487923;2.15117692947;0.755882561207;0.0690481290221;2;True;19;1;24.79677438747999
382;382;1449487923;2.15119886398;0.756280899048;0.06903078407049999;2;True;19;1;24.79677438747999
383;383;1449487923;2.1510610580400003;0.756004273891;0.0690755993128;2;True;19;1;24.79677438747999
384;384;1449487923;2.1513235569;0.755737781525;0.0690719634295;2;True;19;1;24.79677438747999
385;385;1449487923;2.15139365196;0.755695700645;0.0689302757382;2;True;19;1;24.79677438747999
386;386;1449487923;2.15164232254;0.756244361401;0.06904949247839999;2;True;19;1;24.79677438747999
387;387;1449487923;2.1520059108700003;0.756334602833;0.0690815150738;2;True;19;1;24.79677438747999
388;388;1449487923;2.15153431892;0.7559161782260001;0.0689784735441;2;True;19;1;24.79677438747999
389;389;1449487923;2.15112495422;0.756063520908;0.0689400732517;2;True;19;1;24.79677438747999
390;390;1449487923;2.15153264999;0.756288528442;0.0688667744398;2;True;19;1;24.79677438747999
391;391;1449487923;2.1508493423500004;0.755618810654;0.0691263973713;2;True;19;1;24.79677438747999
392;392;1449487923;2.1517751216900005;0.7560031414030001;0.0690274164081;2;True;19;1;24.79677438747999
393;393;1449487923;2.1516790390000002;0.755685150623;0.0694596543908;2;True;19;1;24.79677438747999
394;394;1449487923;2.15130877495;0.7557917833329999;0.0690866187215;2;True;19;1;24.79677438747999
395;395;1449487923;2.1515545845;0.756048262119;0.06907897442580001;2;True;19;1;24.79677438747999
396;396;1449487923;2.1518881321000003;0.7560932636259999;0.0691570788622;2;True;19;1;24.79677438747999
397;397;1449487923;2.15168952942;0.755997538567;0.0690806135535;2;True;19;1;24.79677438747999
398;398;1449487923;2.15167093277;0.756257712841;0.0690987631679;2;True;19;1;24.79677438747999
399;399;1449487923;2.15125393867;0.755844414234;0.06910290569069999;2;True;19;1;24.79677438747999
400;400;1449487923;2.1512193679799996;0.755915343761;0.0693010166287;2;True;19;1;24.79677438747999
401;401;1449487923;2.1519036293;0.7561398148540001;0.0691696181893;2;True;19;1;24.79677438747999
402;402;1449487923;2.1515698432900003;0.7554588913920001;0.0695127546787;2;True;19;1;24.79677438747999
403;403;1449487923;2.15137887001;0.7558462023739999;0.0693942904472;2;True;19;1;24.79677438747999
404;404;1449487923;2.1517815589900002;0.7562324404719999;0.0690593719482;2;True;19;1;24.79677438747999
405;405;1449487923;2.15189599991;0.756132662296;0.06918007135389999;2;True;19;1;24.79677438747999
406;406;1449487923;2.1515221595800003;0.7558888792990001;0.0690292492509;2;True;19;1;24.79677438747999
407;407;1449487923;2.15157818794;0.755828022957;0.0691015943885;2;True;19;1;24.79677438747999
408;408;1449487923;2.1516494750999997;0.7558814883230001;0.0690570175648;2;True;19;1;24.79677438747999
409;409;1449487923;2.15164613724;0.7559984326360001;0.06914322078230001;2;True;19;1;24.79677438747999
410;410;1449487923;2.1516845226299997;0.756087243557;0.0690598711371;2;True;19;1;24.79677438747999
411;411;1449487923;2.15099167824;0.756401002407;0.0687100440264;2;True;19;1;24.79677438747999
412;412;1449487923;2.1514837741900004;0.7558720111849999;0.0692945420742;2;True;19;1;24.79677438747999
413;413;1449487923;2.15166497231;0.755932092667;0.0691796913743;2;True;19;1;24.79677438747999
414;414;1449487923;2.1517355441999997;0.75606572628;0.069048859179;2;True;19;1;24.79677438747999
415;415;1449487923;2.1516699791;0.755708634853;0.0691921636462;2;True;19;1;24.79677438747999
416;416;1449487923;2.1516122818;0.755937218666;0.0690478533506;2;True;19;1;24.79677438747999
417;417;1449487923;2.1516354084000002;0.755850076675;0.0691288411617;2;True;19;1;24.79677438747999
418;418;1449487923;2.1515357494400003;0.755709171295;0.0691675320268;2;True;19;1;24.79677438747999
419;419;1449487923;2.1510148048400004;0.755860626698;0.069456897676;2;True;19;1;24.79677438747999
420;420;1449487923;2.15165925026;0.7560082077979999;0.069169588387;2;True;19;1;24.79677438747999
421;421;1449487923;2.15161418915;0.7558284997939999;0.06908407062289999;2;True;19;1;24.79677438747999
422;422;1449487923;2.15164351463;0.7558952569959999;0.069139495492;2;True;19;1;24.79677438747999
423;423;1449487923;2.1515130996700003;0.75640630722;0.0689583569765;2;True;19;1;24.79677438747999
424;424;1449487923;2.15091323853;0.7563378810879999;0.069314263761;2;True;19;1;24.79677438747999
425;425;1449487923;2.1516182422599996;0.755820572376;0.0691707730293;2;True;19;1;24.79677438747999
426;426;1449487923;2.15165996552;0.7559424638750001;0.0691241845489;2;True;19;1;24.79677438747999
427;427;1449487923;2.15160155296;0.755983650684;0.06916215270760001;2;True;19;1;24.79677438747999
428;428;1449487923;2.1513428688;0.755801081657;0.06913053244350001;2;True;19;1;24.79677438747999
429;429;1449487923;2.15109658241;0.755922615528;0.06922176480289999;2;True;19;1;24.79677438747999
430;430;1449487923;2.15136003494;0.755745828152;0.0693164095283;2;True;19;1;24.79677438747999
431;431;1449487923;2.15152430534;0.756033480167;0.0691775530577;2;True;19;1;24.79677438747999
432;432;1449487923;2.15117430687;0.756151258945;0.0687021836638;2;True;19;1;24.79677438747999
433;433;1449487923;2.15106272697;0.756362736225;0.06877102702860001;2;True;19;1;24.79677438747999
434;434;1449487923;2.1513886451700004;0.7557502985;0.0691232457757;2;True;19;1;24.79677438747999
435;435;1449487923;2.1512978076900002;0.7557849287989999;0.06908833980560002;2;True;19;1;24.79677438747999
436;436;1449487923;2.1513903141;0.755655169487;0.06927888095380001;2;True;19;1;24.79677438747999
437;437;1449487923;2.15156459808;0.756236195564;0.0690308362246;2;True;19;1;24.79677438747999
438;438;1449487923;2.15135788918;0.756182551384;0.068512134254;2;True;19;1;24.79677438747999
439;439;1449487923;2.1509752273599996;0.7562630176540001;0.06840622425080001;2;True;19;1;24.79677438747999
440;440;1449487923;2.1514973640400004;0.756014287472;0.0690661221743;2;True;19;1;24.79677438747999
441;441;1449487923;2.1515190601299996;0.7558012008670001;0.0690931007266;2;True;19;1;24.79677438747999
442;442;1449487923;2.15179300308;0.756064653397;0.06911614537239999;2;True;19;1;24.79677438747999
443;443;1449487923;2.1517717838299997;0.7559424638750001;0.0691242590547;2;True;19;1;24.79677438747999
444;444;1449487923;2.15107989311;0.7559073567389999;0.0690755993128;2;True;19;1;24.79677438747999
445;445;1449487923;2.15160059929;0.7554693818089999;0.0699263960123;2;True;19;1;24.79677438747999
446;446;1449487923;2.1507730484;0.756572544575;0.0683355927467;2;True;19;1;24.79677438747999
447;447;1449487923;2.15164232254;0.755970001221;0.0690566375852;2;True;19;1;24.79677438747999
448;448;1449487923;2.15100002289;0.756008148193;0.0691106691957;2;True;19;1;24.79677438747999
449;449;1449487923;2.15187191963;0.7558248043060001;0.0690625533462;2;True;19;1;24.79677438747999
450;450;1449487923;2.15121436119;0.756430268288;0.0687491819263;2;True;19;1;24.79677438747999
451;451;1449487923;2.1517119407700003;0.756015539169;0.06901998072860001;2;True;19;1;24.79677438747999
452;452;1449487923;2.1515176296200003;0.756038308144;0.0690938308835;2;True;19;1;24.79677438747999
453;453;1449487923;2.15040206909;0.755930304527;0.0689138695598;2;True;19;1;24.79677438747999
454;454;1449487923;2.15105628967;0.756004989147;0.0690850242972;2;True;19;1;24.79677438747999
455;455;1449487923;2.15088653564;0.756144464016;0.0690392702818;2;True;19;1;24.79677438747999
456;456;1449487923;2.15185546875;0.756068766117;0.06910840421919999;2;True;19;1;24.79677438747999
457;457;1449487923;2.1514351368;0.755879282951;0.0691736117005;2;True;19;1;24.79677438747999
458;458;1449487923;2.1511023044599997;0.755905985832;0.06906181573869999;2;True;19;1;24.79677438747999
459;459;1449487923;2.15155911446;0.7554394602779999;0.06982821226119999;2;True;19;1;24.79677438747999
460;460;1449487923;2.15123152733;0.755905687809;0.0691212490201;2;True;19;1;24.79677438747999
461;461;1449487923;2.1509480476400005;0.7560985684389999;0.0692369043827;2;True;19;1;24.79677438747999
462;462;1449487923;2.1513576507599996;0.7557426691060001;0.0690309554338;2;True;19;1;24.79677438747999
463;463;1449487923;2.1510477066;0.756030082703;0.06906235963110001;2;True;19;1;24.79677438747999
464;464;1449487923;2.15158653259;0.755824625492;0.069045253098;2;True;19;1;24.79677438747999
465;465;1449487923;2.1510512828799997;0.755977749825;0.0690518021584;2;True;19;1;24.79677438747999
466;466;1449487923;2.1515724659;0.7559746503829999;0.0691323503852;2;True;19;1;24.79677438747999
467;467;1449487923;2.1513671875;0.755977630615;0.0688841864467;2;True;19;1;24.79677438747999
468;468;1449487923;2.15172076225;0.756243467331;0.0690276697278;2;True;19;1;24.79677438747999
469;469;1449487923;2.1516289711;0.756222784519;0.0690276473761;2;True;19;1;24.79677438747999
470;470;1449487923;2.15138173103;0.756108522415;0.0684743672609;2;True;19;1;24.79677438747999
471;471;1449487923;2.15175199509;0.7562610507009999;0.06901330500839999;2;True;19;1;24.79677438747999
472;472;1449487923;2.15178108215;0.7562740445139999;0.0690172687173;2;True;19;1;24.79677438747999
473;473;1449487923;2.15065407753;0.755373299122;0.068795979023;2;True;19;1;24.79677438747999
474;474;1449487923;2.1509323120099997;0.7558819651600001;0.06929626315830001;2;True;19;1;24.79677438747999
475;475;1449487923;2.1514687538099997;0.756263315678;0.06889953464269999;2;True;19;1;24.79677438747999
476;476;1449487923;2.1515381336200003;0.756045103073;0.06903520971539999;2;True;19;1;24.79677438747999
477;477;1449487923;2.15089297295;0.756555378437;0.0685292109847;2;True;19;1;24.79677438747999
478;478;1449487923;2.15102100372;0.755925178528;0.0690255463123;2;True;19;1;24.79677438747999
479;479;1449487923;2.15131497383;0.7561284899709999;0.0686130449176;2;True;19;1;24.79677438747999
480;480;1449487923;2.15105056763;0.756171584129;0.06893610954280001;2;True;19;1;24.79677438747999
481;481;1449487923;2.15163326263;0.756271898746;0.0690155401826;2;True;19;1;24.79677438747999
482;482;1449487923;2.1512649059299997;0.756148517132;0.06880221515889999;2;True;19;1;24.79677438747999
483;483;1449487923;2.1518239975;0.7561283111570001;0.069113470614;2;True;19;1;24.79677438747999
484;484;1449487923;2.15113091469;0.755992531776;0.0690015181899;2;True;19;1;24.79677438747999
485;485;1449487923;2.15138745308;0.755796134472;0.069055236876;2;True;19;1;24.79677438747999
486;486;1449487923;2.1511533260299998;0.75615221262;0.0686044842005;2;True;19;1;24.79677438747999
487;487;1449487923;2.1514449119599997;0.7557495832439999;0.0690968930721;2;True;19;1;24.79677438747999
488;488;1449487923;2.15152835846;0.756026089191;0.0689885392785;2;True;19;1;24.79677438747999
489;489;1449487923;2.1516222953799997;0.7559353709219999;0.0690850690007;2;True;19;1;24.79677438747999
490;490;1449487923;2.15129613876;0.75680577755;0.0684832334518;2;True;19;1;24.79677438747999
491;491;1449487923;2.1514043808000003;0.755838632584;0.06912335008380001;2;True;19;1;24.79677438747999
492;492;1449487923;2.15163087845;0.755969762802;0.0690878480673;2;True;19;1;24.79677438747999
493;493;1449487923;2.1515455246;0.755844950676;0.0690912753344;2;True;19;1;24.79677438747999
494;494;1449487923;2.1515827178999998;0.755847275257;0.0691269412637;2;True;19;1;24.79677438747999
495;495;1449487923;2.15148615837;0.7560440301899999;0.0689909234643;2;True;19;1;24.79677438747999
496;496;1449487923;2.15147972107;0.755689203739;0.06916067004200001;2;True;19;1;24.79677438747999
497;497;1449487923;2.15093064308;0.7554876208310001;0.0695932880044;2;True;19;1;24.79677438747999
498;498;1449487923;2.15156006813;0.755786120892;0.06910071522000001;2;True;19;1;24.79677438747999
499;499;1449487923;2.15110397339;0.756261825562;0.0686471164227;2;True;19;1;24.79677438747999
500;500;1449487923;2.15148210526;0.755876064301;0.0691519230604;2;True;19;1;24.79677438747999
501;501;1449487923;2.1515288353;0.755721092224;0.0691688880324;2;True;19;1;24.79677438747999
502;502;1449487923;2.15174508095;0.7559461593629999;0.0690731927752;2;True;19;1;24.79677438747999
503;503;1449487923;2.15160775185;0.7558714151379999;0.0691250115633;2;True;19;1;24.79677438747999
504;504;1449487923;2.1517295837400003;0.755687057972;0.069141484797;2;True;19;1;24.79677438747999
505;505;1449487923;2.15117025375;0.7558829188349999;0.0692207440734;2;True;19;1;24.79677438747999
506;506;1449487923;2.15093374252;0.7566263675689999;0.0684987083077;2;True;19;1;24.79677438747999
507;507;1449487924;2.15124893188;0.755756795406;0.0693735405803;3;True;19;1;24.79677438747999
508;508;1449487924;2.15160393715;0.7561181187630001;0.06912513822319999;3;True;19;1;24.79677438747999
509;509;1449487924;2.1510491371200002;0.756023168564;0.06912688165900001;3;True;19;1;24.79677438747999
510;510;1449487924;2.15162611008;0.756310224533;0.0690562576056;3;True;19;1;24.79677438747999
511;511;1449487924;2.15064692497;0.755530953407;0.0694035291672;3;True;19;1;24.79677438747999
512;512;1449487924;2.1515944004099996;0.755897343159;0.06912939250469999;3;True;19;1;24.79677438747999
513;513;1449487924;2.1507937908200003;0.7560473680500001;0.0690353065729;3;True;19;1;24.79677438747999
514;514;1449487924;2.1512422561599998;0.755217432976;0.0695281624794;3;True;19;1;24.79677438747999
515;515;1449487924;2.15126514435;0.755683839321;0.0692500546575;3;True;19;1;24.79677438747999
516;516;1449487924;2.1513006687200003;0.7562828660009999;0.068935520947;3;True;19;1;24.79677438747999
517;517;1449487924;2.15113449097;0.755930602551;0.0690977647901;3;True;19;1;24.79677438747999
518;518;1449487924;2.1511168479900005;0.756032049656;0.06926407665010001;3;True;19;1;24.79677438747999
519;519;1449487924;2.15178203583;0.755991220474;0.0690861418843;3;True;19;1;24.79677438747999
520;520;1449487924;2.151648283;0.755494236946;0.069467253983;3;True;19;1;24.79677438747999
521;521;1449487924;2.15145254135;0.756190478802;0.06909177452330001;3;True;19;1;24.79677438747999
522;522;1449487924;2.15188145638;0.756092905998;0.0691470876336;3;True;19;1;24.79677438747999
523;523;1449487924;2.1508738994599996;0.755902409554;0.0689923092723;3;True;19;1;24.79677438747999
524;524;1449487924;2.15123176575;0.756407618523;0.06874996423719999;3;True;19;1;24.79677438747999
525;525;1449487924;2.1515786647799997;0.75610268116;0.0691152140498;3;True;19;1;24.79677438747999
526;526;1449487924;2.15137863159;0.755908429623;0.0691190361977;3;True;19;1;24.79677438747999
527;527;1449487924;2.15126848221;0.7557929754260001;0.06909300386910001;3;True;19;1;24.79677438747999
528;528;1449487924;2.1512820720700003;0.755795121193;0.0690825879574;3;True;19;1;24.79677438747999
529;529;1449487924;2.15175580978;0.755953073502;0.06906984746460001;3;True;19;1;24.79677438747999
530;530;1449487924;2.15114068985;0.7551226019859999;0.0698357373476;3;True;19;1;24.79677438747999
531;531;1449487924;2.15167498589;0.756023645401;0.06912837922569999;3;True;19;1;24.79677438747999
532;532;1449487924;2.15158224106;0.755661070347;0.0694391950965;3;True;19;1;24.79677438747999
533;533;1449487924;2.15153837204;0.755992770195;0.0691112726927;3;True;19;1;24.79677438747999
534;534;1449487924;2.15160608292;0.7554858922959999;0.0695399716496;3;True;19;1;24.79677438747999
535;535;1449487924;2.15139818192;0.7558187246320001;0.069192327559;3;True;19;1;24.79677438747999
536;536;1449487924;2.15178871155;0.7561815977099999;0.0690685361624;3;True;19;1;24.79677438747999
537;537;1449487924;2.15136480331;0.755720496178;0.0691086351871;3;True;19;1;24.79677438747999
538;538;1449487924;2.15106964111;0.756038665771;0.0683939829469;3;True;19;1;24.79677438747999
539;539;1449487924;2.15167474747;0.756249666214;0.0690464228392;3;True;19;1;24.79677438747999
540;540;1449487924;2.15101528168;0.755994021893;0.0692517012358;3;True;19;1;24.79677438747999
541;541;1449487924;2.15114045143;0.756090044975;0.06909663230179999;3;True;19;1;24.79677438747999
542;542;1449487924;2.1517632007599996;0.75621676445;0.0690299496055;3;True;19;1;24.79677438747999
543;543;1449487924;2.15181493759;0.75601631403;0.0691022202373;3;True;19;1;24.79677438747999
544;544;1449487924;2.15170931816;0.7557088136669999;0.0695599913597;3;True;19;1;24.79677438747999
545;545;1449487924;2.1514554023700003;0.755753993988;0.0691003650427;3;True;19;1;24.79677438747999
546;546;1449487924;2.15113520622;0.756570100784;0.068677932024;3;True;19;1;24.79677438747999
547;547;1449487924;2.1512336731;0.755979657173;0.0691598430276;3;True;19;1;24.79677438747999
548;548;1449487924;2.15125012398;0.7559677958490001;0.0691847205162;3;True;19;1;24.79677438747999
549;549;1449487924;2.1514678001400003;0.755656540394;0.0691255033016;3;True;19;1;24.79677438747999
550;550;1449487924;2.1512825489;0.755807936192;0.06933012604710001;3;True;19;1;24.79677438747999
551;551;1449487924;2.15151429176;0.7559256553650001;0.069129422307;3;True;19;1;24.79677438747999
552;552;1449487924;2.1512224674200002;0.755982518196;0.06911894679069999;3;True;19;1;24.79677438747999
553;553;1449487924;2.15163612366;0.755926668644;0.06908340007069999;3;True;19;1;24.79677438747999
554;554;1449487924;2.1510951519;0.7560058236120001;0.0690983384848;3;True;19;1;24.79677438747999
555;555;1449487924;2.1514873504599996;0.7560489177699999;0.06893861293789999;3;True;19;1;24.79677438747999
556;556;1449487924;2.15143847466;0.755907475948;0.06923013925549999;3;True;19;1;24.79677438747999
557;557;1449487924;2.1511216163599998;0.756389677525;0.06907131522889999;3;True;19;1;24.79677438747999
558;558;1449487924;2.1511054039;0.755987942219;0.069115921855;3;True;19;1;24.79677438747999
559;559;1449487924;2.1510784625999997;0.755941212177;0.0692360401154;3;True;19;1;24.79677438747999
560;560;1449487924;2.15161156654;0.755925178528;0.0690706223249;3;True;19;1;24.79677438747999
561;561;1449487924;2.15115642548;0.756197035313;0.0684812515974;3;True;19;1;24.79677438747999
562;562;1449487924;2.1515314579;0.755743503571;0.0691550076008;3;True;19;1;24.79677438747999
563;563;1449487924;2.15162539482;0.755884110928;0.0691135302186;3;True;19;1;24.79677438747999
564;564;1449487924;2.15160655975;0.755941510201;0.0690624117851;3;True;19;1;24.79677438747999
565;565;1449487924;2.15163493156;0.755851745605;0.06912852823730001;3;True;19;1;24.79677438747999
566;566;1449487924;2.15153408051;0.755799710751;0.0690944418311;3;True;19;1;24.79677438747999
567;567;1449487924;2.15161991119;0.755838632584;0.0691504850984;3;True;19;1;24.79677438747999
568;568;1449487924;2.15162658691;0.7558571100229999;0.0690368264914;3;True;19;1;24.79677438747999
569;569;1449487924;2.15162873268;0.7558599114419999;0.06912262737750001;3;True;19;1;24.79677438747999
570;570;1449487924;2.15174603462;0.756038367748;0.06898610293869999;3;True;19;1;24.79677438747999
571;571;1449487924;2.15161108971;0.7559080123899999;0.0691056475043;3;True;19;1;24.79677438747999
572;572;1449487924;2.15158200264;0.755839347839;0.0691514313221;3;True;19;1;24.79677438747999
573;573;1449487924;2.15157198906;0.7558501362800001;0.0691023394465;3;True;19;1;24.79677438747999
574;574;1449487924;2.15163469315;0.755987942219;0.0691272318363;3;True;19;1;24.79677438747999
575;575;1449487924;2.15154409409;0.755691766739;0.0690477713943;3;True;19;1;24.79677438747999
576;576;1449487924;2.1515288353;0.7558622360230001;0.06913536041980001;3;True;19;1;24.79677438747999
577;577;1449487924;2.1514337062799997;0.755779922009;0.06919289380310001;3;True;19;1;24.79677438747999
578;578;1449487924;2.15159392357;0.75591057539;0.0690401792526;3;True;19;1;24.79677438747999
579;579;1449487924;2.15130710602;0.755767285824;0.0691790804267;3;True;19;1;24.79677438747999
580;580;1449487924;2.15163826942;0.7562540769580001;0.06905506551269999;3;True;19;1;24.79677438747999
581;581;1449487924;2.15163350105;0.7558515667919999;0.0691139549017;3;True;19;1;24.79677438747999
582;582;1449487924;2.1516916751900004;0.756004929543;0.0690557658672;3;True;19;1;24.79677438747999
583;583;1449487924;2.15143752098;0.755926907063;0.0691528022289;3;True;19;1;24.79677438747999
584;584;1449487924;2.15107059479;0.7558795213699999;0.06920636445280001;3;True;19;1;24.79677438747999
585;585;1449487924;2.1518034935;0.756090402603;0.06910026818510001;3;True;19;1;24.79677438747999
586;586;1449487924;2.1515653133400003;0.756220459938;0.0690044537187;3;True;19;1;24.79677438747999
587;587;1449487924;2.15156459808;0.7560558319089999;0.0690846666694;3;True;19;1;24.79677438747999
588;588;1449487924;2.1512491703;0.7557963728899999;0.0691667348146;3;True;19;1;24.79677438747999
589;589;1449487924;2.15133357048;0.7556427121160001;0.0696988627315;3;True;19;1;24.79677438747999
590;590;1449487924;2.1519219875299997;0.7561250925059999;0.0691239088774;3;True;19;1;24.79677438747999
591;591;1449487924;2.15117502213;0.7552791833879999;0.06941376626489999;3;True;19;1;24.79677438747999
592;592;1449487924;2.1519305706;0.75619995594;0.0696955919266;3;True;19;1;24.79677438747999
593;593;1449487924;2.15145325661;0.7561171650890001;0.0685899779201;3;True;19;1;24.79677438747999
594;594;1449487924;2.1509168148;0.7560781240459999;0.068975508213;3;True;19;1;24.79677438747999
595;595;1449487924;2.15165138245;0.7562026381489999;0.06900846213100001;3;True;19;1;24.79677438747999
596;596;1449487924;2.1518843174;0.7560792565350001;0.0691232383251;3;True;19;1;24.79677438747999
597;597;1449487924;2.1515107154799997;0.7558433413510001;0.069051027298;3;True;19;1;24.79677438747999
598;598;1449487924;2.1512117385900003;0.755842924118;0.069074511528;3;True;19;1;24.79677438747999
599;599;1449487924;2.15177679062;0.755681693554;0.06910555809739999;3;True;19;1;24.79677438747999
600;600;1449487924;2.1511335372900002;0.755986750126;0.0690194740891;3;True;19;1;24.79677438747999
601;601;1449487924;2.15157032013;0.756087720394;0.06907932460310001;3;True;19;1;24.79677438747999
602;602;1449487924;2.15137624741;0.756298542023;0.0683944001794;3;True;19;1;24.79677438747999
603;603;1449487924;2.1511046886400003;0.755813360214;0.0683557614684;3;True;19;1;24.79677438747999
604;604;1449487924;2.1512999534599997;0.7557758688930001;0.06915577501060001;3;True;19;1;24.79677438747999
605;605;1449487924;2.15121006966;0.7552648782729999;0.0695598497987;3;True;19;1;24.79677438747999
606;606;1449487924;2.1515789032;0.7558438181880001;0.0690265968442;3;True;19;1;24.79677438747999
607;607;1449487924;2.15125846863;0.755419313908;0.069824308157;3;True;19;1;24.79677438747999
608;608;1449487924;2.1518776416799996;0.756090819836;0.0691187530756;3;True;19;1;24.79677438747999
