;Unnamed: 0;header_stamp_secs;pose_position_x;pose_position_y;pose_position_z;seconds;drop_values;flight_number;label;dtw
0;0;1449488377;2.13173675537;0.801927626133;0.0682501345873;0;True;21;1;18.89671540268
1;1;1449488377;2.13171839714;0.8019031286239999;0.068227186799;0;True;21;1;18.89671540268
2;2;1449488377;2.1317594051400004;0.801865279675;0.06815456599;0;True;21;1;18.89671540268
3;3;1449488377;2.1316819191;0.8018887043;0.06830899417399999;0;True;21;1;18.89671540268
4;4;1449488377;2.13175177574;0.801898121834;0.06824999302630001;0;True;21;1;18.89671540268
5;5;1449488377;2.13169431686;0.801897287369;0.06831022351980001;0;True;21;1;18.89671540268
6;6;1449488377;2.13167572021;0.8018870353700001;0.0683332458138;0;True;21;1;18.89671540268
7;7;1449488377;2.1316199302700003;0.801877677441;0.0683155059814;0;True;21;1;18.89671540268
8;8;1449488377;2.1316564083099996;0.8017670512199999;0.0682582557201;0;True;21;1;18.89671540268
9;9;1449488377;2.13176083565;0.8019541501999999;0.0682942345738;0;True;21;1;18.89671540268
10;10;1449488377;2.13165545464;0.8019088506700001;0.0683574005961;0;True;21;1;18.89671540268
11;11;1449488377;2.1316735744499997;0.8018257021899999;0.06830716133119999;0;True;21;1;18.89671540268
12;12;1449488377;2.13174057007;0.8018641471860001;0.0683124884963;0;True;21;1;18.89671540268
13;13;1449488377;2.13169026375;0.8019015192990001;0.06832332164049999;0;True;21;1;18.89671540268
14;14;1449488377;2.13166618347;0.8018125295640001;0.0683084800839;0;True;21;1;18.89671540268
15;15;1449488377;2.1317088604;0.8017882704729999;0.06824570894240001;0;True;21;1;18.89671540268
16;16;1449488377;2.1317172050499997;0.8018932342530001;0.0682840123773;0;True;21;1;18.89671540268
17;17;1449488377;2.1317384243;0.802041590214;0.0682404115796;0;True;21;1;18.89671540268
18;18;1449488377;2.1312358379400003;0.801827847958;0.0683566629887;0;True;21;1;18.89671540268
19;19;1449488377;2.1316509246799997;0.801775634289;0.0683273375034;0;True;21;1;18.89671540268
20;20;1449488377;2.13184452057;0.8020897507670001;0.0682403594255;0;True;21;1;18.89671540268
21;21;1449488377;2.13172221184;0.801809489727;0.0682324171066;0;True;21;1;18.89671540268
22;22;1449488377;2.13169503212;0.8018860220909999;0.0683326795697;0;True;21;1;18.89671540268
23;23;1449488377;2.13176321983;0.801913797855;0.0681614428759;0;True;21;1;18.89671540268
24;24;1449488377;2.1316583156599997;0.801931202412;0.0684113949537;0;True;21;1;18.89671540268
25;25;1449488377;2.1317257881200002;0.801846504211;0.0682793930173;0;True;21;1;18.89671540268
26;26;1449488377;2.13178062439;0.8019471764560001;0.06828214973209999;0;True;21;1;18.89671540268
27;27;1449488377;2.13162970543;0.8019137382510001;0.0683054625988;0;True;21;1;18.89671540268
28;28;1449488377;2.1316368579900002;0.801855444908;0.0683157965541;0;True;21;1;18.89671540268
29;29;1449488377;2.1317486763;0.801930189133;0.06828378885980001;0;True;21;1;18.89671540268
30;30;1449488377;2.13175034523;0.801836848259;0.0682075321674;0;True;21;1;18.89671540268
31;31;1449488377;2.1314599513999997;0.801769912243;0.0682161152363;0;True;21;1;18.89671540268
32;32;1449488377;2.13176584244;0.801919519901;0.0682569295168;0;True;21;1;18.89671540268
33;33;1449488377;2.13170170784;0.801921486855;0.0683176219463;0;True;21;1;18.89671540268
34;34;1449488377;2.13163924217;0.8018152117730001;0.0682827234268;0;True;21;1;18.89671540268
35;35;1449488377;2.13169193268;0.8018881082529999;0.0683225095272;0;True;21;1;18.89671540268
36;36;1449488377;2.13169550896;0.80184084177;0.0683192387223;0;True;21;1;18.89671540268
37;37;1449488377;2.13175392151;0.801801860332;0.068292401731;0;True;21;1;18.89671540268
38;38;1449488377;2.1317455768599998;0.801818132401;0.06821215897800001;0;True;21;1;18.89671540268
39;39;1449488377;2.1314697265599998;0.801972329617;0.0683850571513;0;True;21;1;18.89671540268
40;40;1449488377;2.13166689873;0.801933825016;0.0683302357793;0;True;21;1;18.89671540268
41;41;1449488377;2.13174271584;0.801933884621;0.0683318674564;0;True;21;1;18.89671540268
42;42;1449488377;2.13183736801;0.802236199379;0.0682682171464;0;True;21;1;18.89671540268
43;43;1449488377;2.13175654411;0.8018786311149999;0.0683188587427;0;True;21;1;18.89671540268
44;44;1449488377;2.13168263435;0.8017669916150001;0.06830722838639999;0;True;21;1;18.89671540268
45;45;1449488377;2.13158655167;0.801824629307;0.0683039501309;0;True;21;1;18.89671540268
46;46;1449488377;2.1317987441999997;0.801977455616;0.0682877376676;0;True;21;1;18.89671540268
47;47;1449488377;2.1316695213299997;0.801824390888;0.0684198364615;0;True;21;1;18.89671540268
48;48;1449488377;2.13174581528;0.801894724369;0.0682655274868;0;True;21;1;18.89671540268
49;49;1449488377;2.1315739154799997;0.8017130494120001;0.0683163627982;0;True;21;1;18.89671540268
50;50;1449488377;2.13170957565;0.801740705967;0.0682388246059;0;True;21;1;18.89671540268
51;51;1449488377;2.1318178176900004;0.8019939064980001;0.0682053640485;0;True;21;1;18.89671540268
52;52;1449488377;2.13175725937;0.801889896393;0.06825855374340001;0;True;21;1;18.89671540268
53;53;1449488378;2.13174700737;0.8018942475319999;0.0682732313871;1;True;21;1;18.89671540268
54;54;1449488378;2.1316726207700003;0.801891684532;0.0683548599482;1;True;21;1;18.89671540268
55;55;1449488378;2.1316881179799996;0.801770508289;0.06827283650640001;1;True;21;1;18.89671540268
56;56;1449488378;2.13177585602;0.801911592484;0.0682934820652;1;True;21;1;18.89671540268
57;57;1449488378;2.13166189194;0.801827549934;0.0684020370245;1;True;21;1;18.89671540268
58;58;1449488378;2.13168358803;0.8018442988400001;0.0683153569698;1;True;21;1;18.89671540268
59;59;1449488378;2.13161301613;0.801760137081;0.06834278255699999;1;True;21;1;18.89671540268
60;60;1449488378;2.13162350655;0.801890254021;0.0683159604669;1;True;21;1;18.89671540268
61;61;1449488378;2.13166427612;0.802044689655;0.0682863295078;1;True;21;1;18.89671540268
62;62;1449488378;2.13166880608;0.801896989346;0.0682381540537;1;True;21;1;18.89671540268
63;63;1449488378;2.13183140755;0.801930308342;0.0683090537786;1;True;21;1;18.89671540268
64;64;1449488378;2.13167619705;0.801785051823;0.0682708024979;1;True;21;1;18.89671540268
65;65;1449488378;2.13172698021;0.801909804344;0.0683061331511;1;True;21;1;18.89671540268
66;66;1449488378;2.131701231;0.801839411259;0.0683413520455;1;True;21;1;18.89671540268
67;67;1449488378;2.13168644905;0.801771819592;0.0683209821582;1;True;21;1;18.89671540268
68;68;1449488378;2.13167977333;0.8017880916600001;0.0682657361031;1;True;21;1;18.89671540268
69;69;1449488378;2.13176083565;0.80192565918;0.0682851374149;1;True;21;1;18.89671540268
70;70;1449488378;2.13155531883;0.8020541071889999;0.0681482776999;1;True;21;1;18.89671540268
71;71;1449488378;2.13168740273;0.801898956299;0.0683516561985;1;True;21;1;18.89671540268
72;72;1449488378;2.13183832169;0.802003860474;0.0681869909167;1;True;21;1;18.89671540268
73;73;1449488378;2.13174009323;0.801891446114;0.0682917684317;1;True;21;1;18.89671540268
74;74;1449488378;2.13173151016;0.8018643259999999;0.0682622119784;1;True;21;1;18.89671540268
75;75;1449488378;2.13174009323;0.8019090890880001;0.0682540982962;1;True;21;1;18.89671540268
76;76;1449488378;2.13170170784;0.801934421062;0.0682846605778;1;True;21;1;18.89671540268
77;77;1449488378;2.13174986839;0.8019191622730001;0.0681483522058;1;True;21;1;18.89671540268
78;78;1449488378;2.13171744347;0.801909983158;0.068257316947;1;True;21;1;18.89671540268
79;79;1449488378;2.13167953491;0.80184596777;0.0683033689857;1;True;21;1;18.89671540268
80;80;1449488378;2.13172078133;0.8018476367;0.0682802572846;1;True;21;1;18.89671540268
81;81;1449488378;2.13169765472;0.801886975765;0.068311624229;1;True;21;1;18.89671540268
82;82;1449488378;2.1316766738900004;0.801862180233;0.0683629438281;1;True;21;1;18.89671540268
83;83;1449488378;2.13163113594;0.801766097546;0.0683103650808;1;True;21;1;18.89671540268
84;84;1449488378;2.13175582886;0.801843464375;0.0681845322251;1;True;21;1;18.89671540268
85;85;1449488378;2.13168525696;0.80181568861;0.0683387368917;1;True;21;1;18.89671540268
86;86;1449488378;2.13168263435;0.801922917366;0.0683148577809;1;True;21;1;18.89671540268
87;87;1449488378;2.13169026375;0.801868796349;0.0682893320918;1;True;21;1;18.89671540268
88;88;1449488378;2.13173413277;0.8019037246699999;0.0683303922415;1;True;21;1;18.89671540268
89;89;1449488378;2.13171863556;0.8019238710400001;0.0682366639376;1;True;21;1;18.89671540268
90;90;1449488378;2.13175058365;0.8018310070039999;0.0682092681527;1;True;21;1;18.89671540268
91;91;1449488378;2.13165044785;0.801790952682;0.0682952255011;1;True;21;1;18.89671540268
92;92;1449488378;2.13172602654;0.801933348179;0.0683788731694;1;True;21;1;18.89671540268
93;93;1449488378;2.1316363811500003;0.801885485649;0.06835767626759999;1;True;21;1;18.89671540268
94;94;1449488378;2.1316726207700003;0.801855742931;0.0684021785855;1;True;21;1;18.89671540268
95;95;1449488378;2.13163614273;0.801847934723;0.0683846250176;1;True;21;1;18.89671540268
96;96;1449488378;2.13170981407;0.801896035671;0.06826677173380001;1;True;21;1;18.89671540268
97;97;1449488378;2.13163208961;0.8019616603849999;0.068294942379;1;True;21;1;18.89671540268
98;98;1449488378;2.1318552494;0.801921784878;0.0681934952736;1;True;21;1;18.89671540268
99;99;1449488378;2.13176226616;0.8019106388089999;0.0682620927691;1;True;21;1;18.89671540268
100;100;1449488378;2.13161683083;0.801716864109;0.06829648464919999;1;True;21;1;18.89671540268
101;101;1449488378;2.13173103333;0.8019180297849999;0.068385116756;1;True;21;1;18.89671540268
102;102;1449488378;2.13162755966;0.801755666733;0.0682756006718;1;True;21;1;18.89671540268
103;103;1449488378;2.13171076775;0.8018785715100001;0.06830610334869999;1;True;21;1;18.89671540268
104;104;1449488378;2.1316421032;0.801851689816;0.0683039352298;1;True;21;1;18.89671540268
105;105;1449488378;2.13165307045;0.801872193813;0.0683498457074;1;True;21;1;18.89671540268
106;106;1449488378;2.13171195984;0.8020389676090001;0.0682666301727;1;True;21;1;18.89671540268
107;107;1449488378;2.13176989555;0.801961123943;0.0681461319327;1;True;21;1;18.89671540268
108;108;1449488378;2.1316907405900003;0.801833748817;0.0682919844985;1;True;21;1;18.89671540268
109;109;1449488378;2.1316821575200002;0.801853597164;0.068330898881;1;True;21;1;18.89671540268
110;110;1449488378;2.1317398548099997;0.802018046379;0.0682987570763;1;True;21;1;18.89671540268
111;111;1449488378;2.13170742989;0.801842391491;0.0683091580868;1;True;21;1;18.89671540268
112;112;1449488378;2.13169384003;0.801881074905;0.0683037936687;1;True;21;1;18.89671540268
113;113;1449488378;2.1316804885900003;0.801830887794;0.06835429370400001;1;True;21;1;18.89671540268
114;114;1449488378;2.13171768188;0.8019138574600001;0.06829650700090001;1;True;21;1;18.89671540268
115;115;1449488378;2.1316289901700003;0.801846504211;0.0684257671237;1;True;21;1;18.89671540268
116;116;1449488378;2.1318385601;0.801946699619;0.06813247501849999;1;True;21;1;18.89671540268
117;117;1449488378;2.13168025017;0.801830649376;0.0682899206877;1;True;21;1;18.89671540268
118;118;1449488378;2.13173222542;0.801846325397;0.0682920888066;1;True;21;1;18.89671540268
119;119;1449488378;2.13178396225;0.8019486665729999;0.06821048259740001;1;True;21;1;18.89671540268
120;120;1449488378;2.1317281723;0.801853716373;0.0682964250445;1;True;21;1;18.89671540268
121;121;1449488378;2.13171505928;0.801908493042;0.0683355778456;1;True;21;1;18.89671540268
122;122;1449488378;2.1316339969599998;0.801809668541;0.0683084577322;1;True;21;1;18.89671540268
123;123;1449488378;2.1316678524;0.8019635081290001;0.0682847797871;1;True;21;1;18.89671540268
124;124;1449488378;2.13166880608;0.801814317703;0.0683053061366;1;True;21;1;18.89671540268
125;125;1449488378;2.13169503212;0.801837146282;0.0683329328895;1;True;21;1;18.89671540268
126;126;1449488378;2.13167786598;0.801857054234;0.06838366389270001;1;True;21;1;18.89671540268
127;127;1449488378;2.1317071914700003;0.80185264349;0.0683390572667;1;True;21;1;18.89671540268
128;128;1449488378;2.13174009323;0.8019124269490001;0.06833070516590001;1;True;21;1;18.89671540268
129;129;1449488378;2.13173055649;0.8018519878389999;0.0682681575418;1;True;21;1;18.89671540268
130;130;1449488378;2.13177251816;0.801957249641;0.0682352334261;1;True;21;1;18.89671540268
131;131;1449488378;2.13168501854;0.8019414544110001;0.0683160945773;1;True;21;1;18.89671540268
132;132;1449488378;2.13172650337;0.801841914654;0.0682583451271;1;True;21;1;18.89671540268
133;133;1449488378;2.13168263435;0.8017609715459999;0.0683258548379;1;True;21;1;18.89671540268
134;134;1449488378;2.13171243668;0.801849901676;0.0681834518909;1;True;21;1;18.89671540268
135;135;1449488378;2.13159656525;0.801691293716;0.0683228969574;1;True;21;1;18.89671540268
136;136;1449488378;2.131701231;0.801815867424;0.0682464241982;1;True;21;1;18.89671540268
137;137;1449488378;2.13168358803;0.8018227219580001;0.0683317780495;1;True;21;1;18.89671540268
138;138;1449488378;2.13162660599;0.801830947399;0.0684082061052;1;True;21;1;18.89671540268
139;139;1449488378;2.13173747063;0.801938951015;0.0683661699295;1;True;21;1;18.89671540268
140;140;1449488378;2.13156461716;0.801710426807;0.0683600157499;1;True;21;1;18.89671540268
141;141;1449488378;2.1318540573099996;0.801944732666;0.0682261884212;1;True;21;1;18.89671540268
142;142;1449488378;2.131701231;0.8018756508830001;0.068297766149;1;True;21;1;18.89671540268
143;143;1449488378;2.13167190552;0.8020881414409999;0.06835368275640001;1;True;21;1;18.89671540268
144;144;1449488378;2.13173055649;0.802031159401;0.0682730153203;1;True;21;1;18.89671540268
145;145;1449488378;2.13171195984;0.8018835783;0.0683312937617;1;True;21;1;18.89671540268
146;146;1449488378;2.13169312477;0.801884233952;0.0683406740427;1;True;21;1;18.89671540268
147;147;1449488378;2.13167023659;0.801829040051;0.06839363276959999;1;True;21;1;18.89671540268
148;148;1449488378;2.13166642189;0.8018144965170001;0.06832216680049999;1;True;21;1;18.89671540268
149;149;1449488378;2.13168740273;0.801828026772;0.0683532655239;1;True;21;1;18.89671540268
150;150;1449488378;2.13174891472;0.801888763905;0.0683242827654;1;True;21;1;18.89671540268
151;151;1449488378;2.13170361519;0.801875591278;0.06833241134880001;1;True;21;1;18.89671540268
152;152;1449488378;2.13176107407;0.8019063472750001;0.06824864447119999;1;True;21;1;18.89671540268
153;153;1449488378;2.13165521622;0.801896393299;0.06831600517030001;1;True;21;1;18.89671540268
154;154;1449488378;2.13170480728;0.8017658591269999;0.0682610198855;1;True;21;1;18.89671540268
155;155;1449488378;2.13161563873;0.801787912846;0.0682998523116;1;True;21;1;18.89671540268
156;156;1449488378;2.13158106804;0.801681339741;0.0683620199561;1;True;21;1;18.89671540268
157;157;1449488378;2.13170266151;0.80188280344;0.0683316066861;1;True;21;1;18.89671540268
158;158;1449488378;2.1317138671900002;0.801871240139;0.0683106705546;1;True;21;1;18.89671540268
159;159;1449488378;2.13170075417;0.801940858364;0.06834856420760001;1;True;21;1;18.89671540268
160;160;1449488378;2.1316623687700003;0.801716208458;0.0682721883059;1;True;21;1;18.89671540268
161;161;1449488378;2.13177347183;0.801881372929;0.0683241188526;1;True;21;1;18.89671540268
162;162;1449488378;2.13174653053;0.801868617535;0.0683296024799;1;True;21;1;18.89671540268
163;163;1449488378;2.1317276954700004;0.8018445968629999;0.0682848468423;1;True;21;1;18.89671540268
164;164;1449488378;2.13171863556;0.802041769028;0.06827717274430001;1;True;21;1;18.89671540268
165;165;1449488378;2.13176131248;0.8019199371340001;0.0682492926717;1;True;21;1;18.89671540268
166;166;1449488378;2.13166761398;0.8017770648;0.06835008412600001;1;True;21;1;18.89671540268
167;167;1449488378;2.13174724579;0.8019737005230001;0.0683603286743;1;True;21;1;18.89671540268
168;168;1449488378;2.13168740273;0.801800847054;0.0683098137379;1;True;21;1;18.89671540268
169;169;1449488378;2.13165521622;0.801945984364;0.0683446153998;1;True;21;1;18.89671540268
170;170;1449488378;2.1317331790900003;0.8018899559970001;0.0683114603162;1;True;21;1;18.89671540268
171;171;1449488378;2.13188314438;0.801906108856;0.0681791305542;1;True;21;1;18.89671540268
172;172;1449488378;2.13162755966;0.801855385303;0.0683234632015;1;True;21;1;18.89671540268
173;173;1449488378;2.13176107407;0.801840782166;0.0681925565004;1;True;21;1;18.89671540268
174;174;1449488378;2.1316962242099997;0.8018602132800001;0.0683455914259;1;True;21;1;18.89671540268
175;175;1449488378;2.1316344738;0.801858842373;0.0683859810233;1;True;21;1;18.89671540268
176;176;1449488378;2.13170480728;0.801871359348;0.0682900175452;1;True;21;1;18.89671540268
177;177;1449488378;2.13174247742;0.8017973899840001;0.0681972801685;1;True;21;1;18.89671540268
178;178;1449488378;2.13178825378;0.801933348179;0.0682568177581;1;True;21;1;18.89671540268
179;179;1449488378;2.13171482086;0.801886081696;0.0683009177446;1;True;21;1;18.89671540268
180;180;1449488378;2.13173127174;0.801830351353;0.068306453526;1;True;21;1;18.89671540268
181;181;1449488378;2.13171219826;0.8018936514849999;0.06830249726769999;1;True;21;1;18.89671540268
182;182;1449488378;2.1316859722099997;0.801810264587;0.0682945549488;1;True;21;1;18.89671540268
183;183;1449488378;2.13172745705;0.8020170331;0.06833346933130001;1;True;21;1;18.89671540268
184;184;1449488378;2.13166451454;0.801778376102;0.0683390498161;1;True;21;1;18.89671540268
185;185;1449488378;2.13171958923;0.801831066608;0.0683304145932;1;True;21;1;18.89671540268
186;186;1449488378;2.1317553520200003;0.801908433437;0.06832780689;1;True;21;1;18.89671540268
187;187;1449488378;2.13160538673;0.8016839027399999;0.0683045238256;1;True;21;1;18.89671540268
188;188;1449488378;2.13165593147;0.801862597466;0.0683192908764;1;True;21;1;18.89671540268
189;189;1449488378;2.13174152374;0.801825463772;0.0682112202048;1;True;21;1;18.89671540268
190;190;1449488378;2.1317422390000003;0.801882386208;0.0682718902826;1;True;21;1;18.89671540268
191;191;1449488378;2.13176226616;0.801909029484;0.06830631196499999;1;True;21;1;18.89671540268
192;192;1449488378;2.13167190552;0.80177295208;0.0682733356953;1;True;21;1;18.89671540268
193;193;1449488378;2.1316595077500002;0.801884889603;0.06836272776130001;1;True;21;1;18.89671540268
194;194;1449488378;2.13175582886;0.801926910877;0.0683459639549;1;True;21;1;18.89671540268
195;195;1449488378;2.1317620277400002;0.801906824112;0.068258844316;1;True;21;1;18.89671540268
196;196;1449488378;2.13185358047;0.80193144083;0.0683200955391;1;True;21;1;18.89671540268
197;197;1449488378;2.13174295425;0.80183327198;0.0682303011417;1;True;21;1;18.89671540268
198;198;1449488378;2.13168358803;0.801860392094;0.0684172734618;1;True;21;1;18.89671540268
199;199;1449488378;2.13172030449;0.801883637905;0.0683225914836;1;True;21;1;18.89671540268
200;200;1449488378;2.13178944588;0.801940321922;0.0682652741671;1;True;21;1;18.89671540268
201;201;1449488378;2.1316649913799997;0.801786720753;0.0683435201645;1;True;21;1;18.89671540268
202;202;1449488378;2.1317820549;0.801861047745;0.0681535899639;1;True;21;1;18.89671540268
203;203;1449488378;2.13168525696;0.801865160465;0.0684141740203;1;True;21;1;18.89671540268
204;204;1449488378;2.1317467689500003;0.8019125461579999;0.0683858767152;1;True;21;1;18.89671540268
205;205;1449488378;2.1318089962;0.8019524812700001;0.0682307481766;1;True;21;1;18.89671540268
206;206;1449488378;2.13177204132;0.801916956902;0.0683166906238;1;True;21;1;18.89671540268
207;207;1449488378;2.13167929649;0.8018670082089999;0.068324573338;1;True;21;1;18.89671540268
208;208;1449488378;2.13171887398;0.8018907308580001;0.0682475566864;1;True;21;1;18.89671540268
209;209;1449488378;2.1317257881200002;0.801877558231;0.0683428049088;1;True;21;1;18.89671540268
210;210;1449488378;2.13176035881;0.8019125461579999;0.06829012930390001;1;True;21;1;18.89671540268
211;211;1449488378;2.13167238235;0.801907062531;0.0683513060212;1;True;21;1;18.89671540268
212;212;1449488378;2.1317636966699998;0.8019342422490001;0.06826240569349999;1;True;21;1;18.89671540268
213;213;1449488378;2.13176965714;0.8019250631329999;0.068314127624;1;True;21;1;18.89671540268
214;214;1449488378;2.1314518451700004;0.8014657497409999;0.0684881284833;1;True;21;1;18.89671540268
215;215;1449488378;2.1317467689500003;0.801926493645;0.06831541657449999;1;True;21;1;18.89671540268
216;216;1449488378;2.13174414635;0.801851868629;0.0682903453708;1;True;21;1;18.89671540268
217;217;1449488378;2.13166880608;0.801862597466;0.06833941489459999;1;True;21;1;18.89671540268
218;218;1449488378;2.13168311119;0.801867902279;0.0683031082153;1;True;21;1;18.89671540268
219;219;1449488378;2.1317460537;0.8019289374349999;0.0683262199163;1;True;21;1;18.89671540268
220;220;1449488378;2.1317250728599997;0.8018978238109999;0.06834186613559999;1;True;21;1;18.89671540268
221;221;1449488378;2.13175034523;0.8019050359729999;0.0682874619961;1;True;21;1;18.89671540268
222;222;1449488378;2.13165402412;0.801695048809;0.0682690143585;1;True;21;1;18.89671540268
223;223;1449488378;2.1317434310900003;0.801900684834;0.068148009479;1;True;21;1;18.89671540268
224;224;1449488378;2.1316804885900003;0.8018335103990001;0.0683546364307;1;True;21;1;18.89671540268
225;225;1449488378;2.1316959857900004;0.801884770393;0.06834896653889999;1;True;21;1;18.89671540268
226;226;1449488378;2.13152909279;0.801791906357;0.068427272141;1;True;21;1;18.89671540268
227;227;1449488378;2.13161325455;0.801748156548;0.06841950863599999;1;True;21;1;18.89671540268
228;228;1449488378;2.13179111481;0.801972329617;0.0681341812015;1;True;21;1;18.89671540268
229;229;1449488378;2.13179302216;0.8019449710850001;0.068195104599;1;True;21;1;18.89671540268
230;230;1449488378;2.13167023659;0.8019079565999999;0.0683611631393;1;True;21;1;18.89671540268
231;231;1449488378;2.13170790672;0.801852583885;0.0683153420687;1;True;21;1;18.89671540268
232;232;1449488378;2.13164949417;0.801735639572;0.0682743489742;1;True;21;1;18.89671540268
233;233;1449488378;2.13174915314;0.801909863949;0.06831087917090001;1;True;21;1;18.89671540268
234;234;1449488378;2.13158464432;0.801721990108;0.0684238001704;1;True;21;1;18.89671540268
235;235;1449488378;2.13172340393;0.8018507957459999;0.06831289082769999;1;True;21;1;18.89671540268
236;236;1449488378;2.1316709518400003;0.801762998104;0.06827111542219999;1;True;21;1;18.89671540268
237;237;1449488378;2.1316881179799996;0.801845371723;0.0683058798313;1;True;21;1;18.89671540268
238;238;1449488378;2.13174796104;0.801859855652;0.0681825876236;1;True;21;1;18.89671540268
239;239;1449488378;2.13162064552;0.801791846752;0.0684046372771;1;True;21;1;18.89671540268
240;240;1449488378;2.1317467689500003;0.8019287586210001;0.0682979524136;1;True;21;1;18.89671540268
241;241;1449488378;2.13183879852;0.8020221591;0.0682016536593;1;True;21;1;18.89671540268
242;242;1449488378;2.1317679882;0.801917135715;0.0682566687465;1;True;21;1;18.89671540268
243;243;1449488378;2.13176631927;0.8019104599950001;0.0683030933142;1;True;21;1;18.89671540268
244;244;1449488378;2.13160300255;0.801732540131;0.06841492652890001;1;True;21;1;18.89671540268
245;245;1449488378;2.1317501068099998;0.8018767237659999;0.068167835474;1;True;21;1;18.89671540268
246;246;1449488378;2.13162779808;0.801903605461;0.06834551692009999;1;True;21;1;18.89671540268
247;247;1449488378;2.1317193508099996;0.8018388152120001;0.06824465096;1;True;21;1;18.89671540268
248;248;1449488378;2.13170075417;0.801839470863;0.0682987645268;1;True;21;1;18.89671540268
249;249;1449488378;2.13166475296;0.8017976880069999;0.0683087334037;1;True;21;1;18.89671540268
250;250;1449488378;2.13175845146;0.801987469196;0.0683307498693;1;True;21;1;18.89671540268
251;251;1449488378;2.13174271584;0.801927983761;0.0683339983225;1;True;21;1;18.89671540268
252;252;1449488378;2.13170385361;0.801897168159;0.06830041110519999;1;True;21;1;18.89671540268
253;253;1449488378;2.1316478252400004;0.801841378212;0.0684197247028;1;True;21;1;18.89671540268
254;254;1449488378;2.1317031383500002;0.8019573092460001;0.0683326274157;1;True;21;1;18.89671540268
255;255;1449488378;2.13174843788;0.801855266094;0.0683176890016;1;True;21;1;18.89671540268
256;256;1449488378;2.13162302971;0.8017664551729999;0.0683328732848;1;True;21;1;18.89671540268
257;257;1449488378;2.13158202171;0.801791012287;0.0683101415634;1;True;21;1;18.89671540268
258;258;1449488378;2.13165211678;0.801706075668;0.0682586282492;1;True;21;1;18.89671540268
259;259;1449488378;2.13169384003;0.8018791675570001;0.0683286041021;1;True;21;1;18.89671540268
260;260;1449488378;2.1316516399400003;0.8018172979350001;0.0683980882168;1;True;21;1;18.89671540268
261;261;1449488378;2.13170742989;0.8017935752869999;0.0682506710291;1;True;21;1;18.89671540268
262;262;1449488378;2.1317257881200002;0.8018643259999999;0.06828952580690001;1;True;21;1;18.89671540268
263;263;1449488378;2.13177251816;0.8018664121629999;0.0683068782091;1;True;21;1;18.89671540268
264;264;1449488378;2.13166904449;0.801771998405;0.06833142787219999;1;True;21;1;18.89671540268
265;265;1449488378;2.13182735443;0.802022397518;0.0682310014963;1;True;21;1;18.89671540268
266;266;1449488378;2.13175392151;0.801879405975;0.0681717991829;1;True;21;1;18.89671540268
267;267;1449488378;2.1317701339700004;0.801862418652;0.0681879594922;1;True;21;1;18.89671540268
268;268;1449488378;2.13166308403;0.801897346973;0.0683600381017;1;True;21;1;18.89671540268
269;269;1449488378;2.1317241191900003;0.8018921613689999;0.06830850988630001;1;True;21;1;18.89671540268
270;270;1449488378;2.1315999031099997;0.8016480803489999;0.0683023780584;1;True;21;1;18.89671540268
271;271;1449488378;2.13170528412;0.801945745945;0.0683240294456;1;True;21;1;18.89671540268
272;272;1449488378;2.13170099258;0.8018240928650001;0.0683117881417;1;True;21;1;18.89671540268
273;273;1449488378;2.1317286491400003;0.801848649979;0.0682864785194;1;True;21;1;18.89671540268
274;274;1449488378;2.13172650337;0.8018438220020001;0.0682685896754;1;True;21;1;18.89671540268
275;275;1449488378;2.1317100524900003;0.801878273487;0.0683216899633;1;True;21;1;18.89671540268
276;276;1449488378;2.1317436695099996;0.8018665313719999;0.06825087964530001;1;True;21;1;18.89671540268
277;277;1449488378;2.1317040920299997;0.8018568158149999;0.06842746585609999;1;True;21;1;18.89671540268
278;278;1449488378;2.1316895484900003;0.801787018776;0.06827217340469999;1;True;21;1;18.89671540268
279;279;1449488378;2.13176083565;0.801816225052;0.068197466433;1;True;21;1;18.89671540268
280;280;1449488378;2.1318380832700004;0.8020531535150001;0.0682342574;1;True;21;1;18.89671540268
281;281;1449488378;2.13170838356;0.8018812537190001;0.0683070868254;1;True;21;1;18.89671540268
282;282;1449488378;2.13175773621;0.801925480366;0.0683254525065;1;True;21;1;18.89671540268
283;283;1449488378;2.13174510002;0.801806032658;0.06818407773969999;1;True;21;1;18.89671540268
284;284;1449488378;2.1316721439400004;0.801914393902;0.0684028640389;1;True;21;1;18.89671540268
285;285;1449488378;2.13176894188;0.801937103271;0.0682585015893;1;True;21;1;18.89671540268
286;286;1449488378;2.13171362877;0.801908016205;0.06836878508330001;1;True;21;1;18.89671540268
287;287;1449488378;2.1317508220700003;0.8019016385079999;0.06827151775359999;1;True;21;1;18.89671540268
288;288;1449488378;2.1318690776800002;0.802004754543;0.068818770349;1;True;21;1;18.89671540268
289;289;1449488378;2.13168382645;0.801853299141;0.0683281719685;1;True;21;1;18.89671540268
290;290;1449488378;2.13190197945;0.802005946636;0.06824567914009999;1;True;21;1;18.89671540268
291;291;1449488379;2.13177704811;0.802293121815;0.0683937221766;2;True;21;1;18.89671540268
292;292;1449488379;2.1316471099900003;0.801777422428;0.0683539062738;2;True;21;1;18.89671540268
293;293;1449488379;2.1316895484900003;0.8017766475679999;0.06826023012400001;2;True;21;1;18.89671540268
294;294;1449488379;2.13166046143;0.801834464073;0.0684493333101;2;True;21;1;18.89671540268
295;295;1449488379;2.13174891472;0.801934599876;0.0683208107948;2;True;21;1;18.89671540268
296;296;1449488379;2.13176178932;0.801908314228;0.0682646259665;2;True;21;1;18.89671540268
297;297;1449488379;2.1316516399400003;0.801887631416;0.0683638527989;2;True;21;1;18.89671540268
298;298;1449488379;2.13164377213;0.801881074905;0.0683846399188;2;True;21;1;18.89671540268
299;299;1449488379;2.131762743;0.8018770217899999;0.0682844892144;2;True;21;1;18.89671540268
300;300;1449488379;2.1316537857099997;0.801862955093;0.0683375447989;2;True;21;1;18.89671540268
301;301;1449488379;2.1316804885900003;0.801850378513;0.0683784708381;2;True;21;1;18.89671540268
302;302;1449488379;2.1316418647799997;0.801834285259;0.0684077739716;2;True;21;1;18.89671540268
303;303;1449488379;2.13162255287;0.801851630211;0.0683127120137;2;True;21;1;18.89671540268
304;304;1449488379;2.13168311119;0.801971852779;0.0683626309037;2;True;21;1;18.89671540268
305;305;1449488379;2.1316857338;0.8018587231640001;0.0683116912842;2;True;21;1;18.89671540268
306;306;1449488379;2.13168501854;0.801887989044;0.0683773159981;2;True;21;1;18.89671540268
307;307;1449488379;2.1318447589900003;0.802166461945;0.0682675689459;2;True;21;1;18.89671540268
308;308;1449488379;2.1316564083099996;0.801842868328;0.0683682784438;2;True;21;1;18.89671540268
309;309;1449488379;2.1316754818;0.8019324541089999;0.06834556162359999;2;True;21;1;18.89671540268
310;310;1449488379;2.13167476654;0.801861763;0.06836630404;2;True;21;1;18.89671540268
311;311;1449488379;2.13179421425;0.801913321018;0.0683082789183;2;True;21;1;18.89671540268
312;312;1449488379;2.1317582130400003;0.8015458583830001;0.0691155493259;2;True;21;1;18.89671540268
313;313;1449488379;2.1316924095200003;0.801977932453;0.06831444054840001;2;True;21;1;18.89671540268
314;314;1449488379;2.13160037994;0.801858961582;0.0683163627982;2;True;21;1;18.89671540268
315;315;1449488379;2.13177609444;0.801912844181;0.0682111009955;2;True;21;1;18.89671540268
316;316;1449488379;2.1316220760299998;0.801804721355;0.0684086754918;2;True;21;1;18.89671540268
317;317;1449488379;2.1316621303599996;0.801763534546;0.0682614296675;2;True;21;1;18.89671540268
318;318;1449488379;2.1316726207700003;0.801964223385;0.0683002769947;2;True;21;1;18.89671540268
319;319;1449488379;2.13182544708;0.801993131638;0.068191409111;2;True;21;1;18.89671540268
320;320;1449488379;2.13172650337;0.801898002625;0.0682478621602;2;True;21;1;18.89671540268
321;321;1449488379;2.13173675537;0.8019383549690001;0.0682299509645;2;True;21;1;18.89671540268
322;322;1449488379;2.13169836998;0.8018350601199999;0.0682487636805;2;True;21;1;18.89671540268
323;323;1449488379;2.13159584999;0.801899969578;0.0682043805718;2;True;21;1;18.89671540268
324;324;1449488379;2.1316621303599996;0.801856458187;0.0683062598109;2;True;21;1;18.89671540268
325;325;1449488379;2.13168716431;0.801888167858;0.0683449134231;2;True;21;1;18.89671540268
326;326;1449488379;2.1317040920299997;0.801862597466;0.0682588219643;2;True;21;1;18.89671540268
327;327;1449488379;2.13173604012;0.801977992058;0.0682693049312;2;True;21;1;18.89671540268
328;328;1449488379;2.1316962242099997;0.8018760085109999;0.06830868870019999;2;True;21;1;18.89671540268
329;329;1449488379;2.13164949417;0.8017981052399998;0.0683122724295;2;True;21;1;18.89671540268
330;330;1449488379;2.13160181046;0.801843523979;0.0682708323002;2;True;21;1;18.89671540268
331;331;1449488379;2.13169836998;0.8018521070479999;0.0683087706566;2;True;21;1;18.89671540268
332;332;1449488379;2.1317670345299997;0.801946222782;0.06822540611030001;2;True;21;1;18.89671540268
333;333;1449488379;2.13166332245;0.801823854446;0.0683055222034;2;True;21;1;18.89671540268
334;334;1449488379;2.13161444664;0.801858067513;0.06836830824609999;2;True;21;1;18.89671540268
335;335;1449488379;2.1317241191900003;0.801900625229;0.0682430565357;2;True;21;1;18.89671540268
336;336;1449488379;2.13165426254;0.801872014999;0.0683220922947;2;True;21;1;18.89671540268
337;337;1449488379;2.13177204132;0.8019284605979999;0.0683038383722;2;True;21;1;18.89671540268
338;338;1449488379;2.13177657127;0.802033901215;0.068222463131;2;True;21;1;18.89671540268
339;339;1449488379;2.13179516792;0.801956355572;0.06812853366140001;2;True;21;1;18.89671540268
340;340;1449488379;2.13178062439;0.801948130131;0.0682008713484;2;True;21;1;18.89671540268
341;341;1449488379;2.13173103333;0.801866948605;0.0683020055294;2;True;21;1;18.89671540268
342;342;1449488379;2.13164401054;0.801724791527;0.06823958456519999;2;True;21;1;18.89671540268
343;343;1449488379;2.13174510002;0.801858663559;0.0681626424193;2;True;21;1;18.89671540268
344;344;1449488379;2.13166761398;0.801879703999;0.06833610683680001;2;True;21;1;18.89671540268
345;345;1449488379;2.1317343711900003;0.8018689751629999;0.0682460144162;2;True;21;1;18.89671540268
346;346;1449488379;2.13175988197;0.8020004034039999;0.0682538747787;2;True;21;1;18.89671540268
347;347;1449488379;2.1315662860900004;0.80182236433;0.0682961791754;2;True;21;1;18.89671540268
348;348;1449488379;2.13175392151;0.8019036650660001;0.0682833939791;2;True;21;1;18.89671540268
349;349;1449488379;2.13119029999;0.802134633064;0.0680646151304;2;True;21;1;18.89671540268
350;350;1449488379;2.13163089752;0.801927864552;0.0683093518019;2;True;21;1;18.89671540268
351;351;1449488379;2.1317145824400003;0.8018839955329999;0.0683155581355;2;True;21;1;18.89671540268
352;352;1449488379;2.13161969185;0.801774203777;0.0682652965188;2;True;21;1;18.89671540268
353;353;1449488379;2.13170957565;0.801896691322;0.06835187226530001;2;True;21;1;18.89671540268
354;354;1449488379;2.1317620277400002;0.801928639412;0.0682489424944;2;True;21;1;18.89671540268
355;355;1449488379;2.13174581528;0.801905095577;0.0682519897819;2;True;21;1;18.89671540268
356;356;1449488379;2.13169336319;0.8018257021899999;0.0683519467711;2;True;21;1;18.89671540268
357;357;1449488379;2.13165068626;0.801782906055;0.0683288052678;2;True;21;1;18.89671540268
358;358;1449488379;2.13172602654;0.801946818829;0.0683319270611;2;True;21;1;18.89671540268
359;359;1449488379;2.13176226616;0.801930189133;0.0682637691498;2;True;21;1;18.89671540268
360;360;1449488379;2.13167023659;0.801854610443;0.068393073976;2;True;21;1;18.89671540268
361;361;1449488379;2.13144636154;0.8018996119499999;0.0682303085923;2;True;21;1;18.89671540268
362;362;1449488379;2.1317257881200002;0.8019213676450001;0.0683833062649;2;True;21;1;18.89671540268
363;363;1449488379;2.13173103333;0.801940500736;0.0683149620891;2;True;21;1;18.89671540268
364;364;1449488379;2.13169336319;0.80188536644;0.0683903470635;2;True;21;1;18.89671540268
365;365;1449488379;2.1316096782700003;0.801845014095;0.0683265924454;2;True;21;1;18.89671540268
366;366;1449488379;2.1316819191;0.801840305328;0.0683178752661;2;True;21;1;18.89671540268
367;367;1449488379;2.1316895484900003;0.801878154278;0.06836912781;2;True;21;1;18.89671540268
368;368;1449488379;2.13174247742;0.8019057512279999;0.0682481750846;2;True;21;1;18.89671540268
369;369;1449488379;2.13176846504;0.801889717579;0.0682978928089;2;True;21;1;18.89671540268
370;370;1449488379;2.13168025017;0.801710903645;0.0682576224208;2;True;21;1;18.89671540268
371;371;1449488379;2.13173341751;0.801957845688;0.0683508291841;2;True;21;1;18.89671540268
372;372;1449488379;2.13172721863;0.802033722401;0.0682727843523;2;True;21;1;18.89671540268
373;373;1449488379;2.13171029091;0.80189871788;0.06831426173449999;2;True;21;1;18.89671540268
374;374;1449488379;2.13171672821;0.8018471002580001;0.0684254020452;2;True;21;1;18.89671540268
375;375;1449488379;2.13176035881;0.801894724369;0.0682070404291;2;True;21;1;18.89671540268
376;376;1449488379;2.13177490234;0.801937401295;0.06818624585869999;2;True;21;1;18.89671540268
377;377;1449488379;2.13167762756;0.801824569702;0.06832741200919999;2;True;21;1;18.89671540268
378;378;1449488379;2.1317000389099996;0.801880180836;0.06829751282930001;2;True;21;1;18.89671540268
379;379;1449488379;2.13166904449;0.801774203777;0.0682621002197;2;True;21;1;18.89671540268
380;380;1449488379;2.13169765472;0.8018165230750001;0.0683031305671;2;True;21;1;18.89671540268
381;381;1449488379;2.13171267509;0.8018763661380001;0.0683943331242;2;True;21;1;18.89671540268
382;382;1449488379;2.13173413277;0.8018797636030001;0.0683157220483;2;True;21;1;18.89671540268
383;383;1449488379;2.1312453746799997;0.802430331707;0.0681216418743;2;True;21;1;18.89671540268
384;384;1449488379;2.1317396163900004;0.801966547966;0.06835931539540001;2;True;21;1;18.89671540268
385;385;1449488379;2.13171339035;0.8019050359729999;0.0683691799641;2;True;21;1;18.89671540268
386;386;1449488379;2.1316628456099997;0.801839470863;0.06832841038700001;2;True;21;1;18.89671540268
387;387;1449488379;2.13165855408;0.8018888235089999;0.0683218538761;2;True;21;1;18.89671540268
388;388;1449488379;2.13171315193;0.801888585091;0.0683949366212;2;True;21;1;18.89671540268
389;389;1449488379;2.1316721439400004;0.8018852472310001;0.0683992281556;2;True;21;1;18.89671540268
390;390;1449488379;2.13175845146;0.801910936832;0.0682843774557;2;True;21;1;18.89671540268
391;391;1449488379;2.1317303180700002;0.8019164800640001;0.0682602524757;2;True;21;1;18.89671540268
392;392;1449488379;2.1316781044;0.801818430424;0.0683612674475;2;True;21;1;18.89671540268
393;393;1449488379;2.13162469864;0.801848471165;0.0683915987611;2;True;21;1;18.89671540268
394;394;1449488379;2.13167619705;0.8018811345100001;0.068388722837;2;True;21;1;18.89671540268
395;395;1449488379;2.13176488876;0.801924467087;0.06824418157340001;2;True;21;1;18.89671540268
396;396;1449488379;2.13174152374;0.801896810532;0.0682754293084;2;True;21;1;18.89671540268
397;397;1449488379;2.13170099258;0.8018022179600001;0.0682443231344;2;True;21;1;18.89671540268
398;398;1449488379;2.1316781044;0.8018165230750001;0.06828443706040001;2;True;21;1;18.89671540268
399;399;1449488379;2.131690979;0.8019607067110001;0.0681627839804;2;True;21;1;18.89671540268
400;400;1449488379;2.13162398338;0.8018566370010001;0.0684174150229;2;True;21;1;18.89671540268
401;401;1449488379;2.1317398548099997;0.801888346672;0.0682796016335;2;True;21;1;18.89671540268
402;402;1449488379;2.13169384003;0.801868677139;0.0682912319899;2;True;21;1;18.89671540268
403;403;1449488379;2.1316947937;0.8018349409100001;0.0683093219995;2;True;21;1;18.89671540268
404;404;1449488379;2.13170957565;0.801880896091;0.06825345754619999;2;True;21;1;18.89671540268
405;405;1449488379;2.13168859482;0.8018738031389999;0.0683144107461;2;True;21;1;18.89671540268
406;406;1449488379;2.13179206848;0.8019915819169999;0.0682799816132;2;True;21;1;18.89671540268
407;407;1449488379;2.13172101974;0.801913678646;0.0683322101831;2;True;21;1;18.89671540268
408;408;1449488379;2.1316564083099996;0.80184262991;0.0683599859476;2;True;21;1;18.89671540268
409;409;1449488379;2.1317281723;0.801924169064;0.0683798119426;2;True;21;1;18.89671540268
410;410;1449488379;2.13163661957;0.8018093705179999;0.0683398470283;2;True;21;1;18.89671540268
411;411;1449488379;2.1316611766799998;0.8018459081649999;0.0683621913195;2;True;21;1;18.89671540268
412;412;1449488379;2.13158392906;0.8019402623180001;0.06827951222659999;2;True;21;1;18.89671540268
413;413;1449488379;2.13169836998;0.80185508728;0.0682651996613;2;True;21;1;18.89671540268
414;414;1449488379;2.1317477226299997;0.801904082298;0.0681701004505;2;True;21;1;18.89671540268
415;415;1449488379;2.13170909882;0.801850199699;0.0682639852166;2;True;21;1;18.89671540268
416;416;1449488379;2.13179206848;0.8019331097600001;0.0681744664907;2;True;21;1;18.89671540268
417;417;1449488379;2.13170480728;0.801837861538;0.0682422295213;2;True;21;1;18.89671540268
418;418;1449488379;2.13166189194;0.8018310070039999;0.06830135732890001;2;True;21;1;18.89671540268
419;419;1449488379;2.1315310001400003;0.801595509052;0.068358361721;2;True;21;1;18.89671540268
420;420;1449488379;2.13172292709;0.801866650581;0.0683067068458;2;True;21;1;18.89671540268
421;421;1449488379;2.13167309761;0.8020915389059999;0.0682772323489;2;True;21;1;18.89671540268
422;422;1449488379;2.1316511631;0.801802515984;0.0683033168316;2;True;21;1;18.89671540268
423;423;1449488379;2.13172602654;0.8018859624860001;0.0682803243399;2;True;21;1;18.89671540268
424;424;1449488379;2.13165783882;0.801839411259;0.06831488758330001;2;True;21;1;18.89671540268
425;425;1449488379;2.13166475296;0.801823079586;0.0682907402515;2;True;21;1;18.89671540268
426;426;1449488379;2.1317059993700003;0.801959753036;0.0683519989252;2;True;21;1;18.89671540268
427;427;1449488379;2.13165307045;0.8018581271170001;0.06831659376619999;2;True;21;1;18.89671540268
428;428;1449488379;2.13162112236;0.80186855793;0.0683645531535;2;True;21;1;18.89671540268
429;429;1449488379;2.13171076775;0.8018653392790001;0.0684120580554;2;True;21;1;18.89671540268
430;430;1449488379;2.13175463676;0.801902890205;0.0682480931282;2;True;21;1;18.89671540268
431;431;1449488379;2.13167238235;0.801761031151;0.0682728886604;2;True;21;1;18.89671540268
432;432;1449488379;2.13160634041;0.8017222285269999;0.06832575798030001;2;True;21;1;18.89671540268
433;433;1449488379;2.1316373348199997;0.801851868629;0.0683047398925;2;True;21;1;18.89671540268
434;434;1449488379;2.1317024231;0.801857769489;0.0682961046696;2;True;21;1;18.89671540268
435;435;1449488379;2.13171410561;0.8019031286239999;0.0683344379067;2;True;21;1;18.89671540268
436;436;1449488379;2.1317486763;0.801915228367;0.06826482713219999;2;True;21;1;18.89671540268
437;437;1449488379;2.13164019585;0.801775753498;0.0682913884521;2;True;21;1;18.89671540268
438;438;1449488379;2.1316523551900004;0.801689088345;0.0682732239366;2;True;21;1;18.89671540268
439;439;1449488379;2.13173723221;0.8019384741779999;0.0682242140174;2;True;21;1;18.89671540268
440;440;1449488379;2.13167023659;0.8017274737360001;0.0681880116463;2;True;21;1;18.89671540268
441;441;1449488379;2.13168907166;0.801822066307;0.0683199763298;2;True;21;1;18.89671540268
442;442;1449488379;2.13164162636;0.801774144173;0.0683383792639;2;True;21;1;18.89671540268
443;443;1449488379;2.13160634041;0.8016914725300001;0.06829871982340001;2;True;21;1;18.89671540268
444;444;1449488379;2.1316151619;0.801727116108;0.0683029219508;2;True;21;1;18.89671540268
445;445;1449488379;2.13176131248;0.801933407784;0.0682398304343;2;True;21;1;18.89671540268
446;446;1449488379;2.1315848827400004;0.8020792603489999;0.068377636373;2;True;21;1;18.89671540268
447;447;1449488379;2.13165140152;0.801777601242;0.0682985410094;2;True;21;1;18.89671540268
448;448;1449488379;2.1317293644;0.801907896996;0.068309545517;2;True;21;1;18.89671540268
449;449;1449488379;2.13179898262;0.8019962906839999;0.0682254731655;2;True;21;1;18.89671540268
450;450;1449488379;2.13165688515;0.801831126213;0.0683030337095;2;True;21;1;18.89671540268
451;451;1449488379;2.1316473484;0.801690399647;0.0682614520192;2;True;21;1;18.89671540268
452;452;1449488379;2.13169884682;0.801939547062;0.0682753100991;2;True;21;1;18.89671540268
453;453;1449488379;2.13171339035;0.801920890808;0.0682820305228;2;True;21;1;18.89671540268
454;454;1449488379;2.13170528412;0.8018652200699999;0.06830595433709999;2;True;21;1;18.89671540268
455;455;1449488379;2.13166260719;0.801909923553;0.06833210587500001;2;True;21;1;18.89671540268
456;456;1449488379;2.13167572021;0.801848828793;0.0683743432164;2;True;21;1;18.89671540268
457;457;1449488379;2.13164901733;0.801824688911;0.06832644343380001;2;True;21;1;18.89671540268
458;458;1449488379;2.13174128532;0.8018749356270001;0.0681562125683;2;True;21;1;18.89671540268
459;459;1449488379;2.13166928291;0.801821172237;0.0682821422815;2;True;21;1;18.89671540268
460;460;1449488379;2.13163948059;0.8017807602879999;0.0683476999402;2;True;21;1;18.89671540268
461;461;1449488379;2.1316649913799997;0.801933944225;0.0683856233954;2;True;21;1;18.89671540268
462;462;1449488379;2.13169908524;0.801866471767;0.068276450038;2;True;21;1;18.89671540268
463;463;1449488379;2.13178014755;0.801959693432;0.0682262405753;2;True;21;1;18.89671540268
464;464;1449488379;2.13173556328;0.801898121834;0.0682456120849;2;True;21;1;18.89671540268
465;465;1449488379;2.13172125816;0.801773905754;0.0682889968157;2;True;21;1;18.89671540268
466;466;1449488379;2.13176989555;0.801967144012;0.06825810670850001;2;True;21;1;18.89671540268
467;467;1449488379;2.13174891472;0.8019602894779999;0.0682766214013;2;True;21;1;18.89671540268
468;468;1449488379;2.13163471222;0.801835298538;0.0684110596776;2;True;21;1;18.89671540268
469;469;1449488379;2.1317365169499998;0.801927149296;0.0683064088225;2;True;21;1;18.89671540268
470;470;1449488379;2.1316511631;0.8018928170199999;0.0683485418558;2;True;21;1;18.89671540268
471;471;1449488379;2.13166427612;0.8018227219580001;0.0683110505342;2;True;21;1;18.89671540268
472;472;1449488379;2.1316409111000003;0.8018783330920001;0.0683671534061;2;True;21;1;18.89671540268
473;473;1449488379;2.13167524338;0.801931798458;0.06835164874789999;2;True;21;1;18.89671540268
474;474;1449488379;2.13164615631;0.8019466400149999;0.0682775527239;2;True;21;1;18.89671540268
475;475;1449488379;2.13177061081;0.801932692528;0.0682582184672;2;True;21;1;18.89671540268
476;476;1449488379;2.13163471222;0.8018560409550001;0.0682760179043;2;True;21;1;18.89671540268
477;477;1449488379;2.13175487518;0.801903903484;0.0683044716716;2;True;21;1;18.89671540268
478;478;1449488379;2.13155221939;0.801689207554;0.0683491379023;2;True;21;1;18.89671540268
479;479;1449488379;2.13171982765;0.8018732070919999;0.0682677701116;2;True;21;1;18.89671540268
480;480;1449488379;2.13173127174;0.80189037323;0.0682527571917;2;True;21;1;18.89671540268
481;481;1449488379;2.13172078133;0.801821768284;0.0682996660471;2;True;21;1;18.89671540268
482;482;1449488379;2.1316804885900003;0.80185174942;0.0683602169156;2;True;21;1;18.89671540268
483;483;1449488379;2.13169431686;0.8018631339069999;0.0682987272739;2;True;21;1;18.89671540268
484;484;1449488379;2.13167452812;0.8018522262569999;0.0683153197169;2;True;21;1;18.89671540268
485;485;1449488379;2.13165688515;0.801787853241;0.06835971772669999;2;True;21;1;18.89671540268
486;486;1449488379;2.13171434402;0.801895141602;0.06829626858230001;2;True;21;1;18.89671540268
487;487;1449488379;2.1316623687700003;0.8018628954889999;0.0683408454061;2;True;21;1;18.89671540268
488;488;1449488379;2.1317365169499998;0.802064776421;0.0683323219419;2;True;21;1;18.89671540268
489;489;1449488379;2.13169670105;0.8018043637279999;0.0682671442628;2;True;21;1;18.89671540268
490;490;1449488379;2.131690979;0.80185085535;0.06838003546;2;True;21;1;18.89671540268
491;491;1449488379;2.13165545464;0.8018907308580001;0.068377636373;2;True;21;1;18.89671540268
492;492;1449488379;2.13167715073;0.80182826519;0.0683806985617;2;True;21;1;18.89671540268
493;493;1449488379;2.13167834282;0.801853060722;0.0683165118098;2;True;21;1;18.89671540268
494;494;1449488379;2.13175296783;0.801893889904;0.0682683140039;2;True;21;1;18.89671540268
495;495;1449488379;2.1317794323;0.801907002926;0.06815742701290001;2;True;21;1;18.89671540268
496;496;1449488379;2.13168311119;0.80185097456;0.0684003904462;2;True;21;1;18.89671540268
497;497;1449488379;2.1317460537;0.801818430424;0.0681901425123;2;True;21;1;18.89671540268
498;498;1449488379;2.13186383247;0.802160680294;0.0682893618941;2;True;21;1;18.89671540268
499;499;1449488379;2.131752491;0.8018983602519999;0.0682939365506;2;True;21;1;18.89671540268
500;500;1449488379;2.13158774376;0.801782011986;0.0683376267552;2;True;21;1;18.89671540268
501;501;1449488379;2.13176012039;0.801934540272;0.0681745409966;2;True;21;1;18.89671540268
502;502;1449488379;2.13179397583;0.801923811436;0.0682201161981;2;True;21;1;18.89671540268
503;503;1449488379;2.1315267086;0.801821827888;0.0683579072356;2;True;21;1;18.89671540268
504;504;1449488379;2.13164305687;0.801657855511;0.0682610571384;2;True;21;1;18.89671540268
505;505;1449488379;2.1316859722099997;0.8017861843109999;0.0682683140039;2;True;21;1;18.89671540268
506;506;1449488379;2.13171648979;0.801921010017;0.0683473572135;2;True;21;1;18.89671540268
507;507;1449488379;2.1317117214200003;0.801942110062;0.0682903304696;2;True;21;1;18.89671540268
508;508;1449488379;2.1317574977900002;0.8018824458120001;0.06832398474219999;2;True;21;1;18.89671540268
509;509;1449488379;2.13177514076;0.801955640316;0.0681742727757;2;True;21;1;18.89671540268
510;510;1449488379;2.1316471099900003;0.801851093769;0.0684017166495;2;True;21;1;18.89671540268
511;511;1449488379;2.13177347183;0.8019309639929999;0.0682390406728;2;True;21;1;18.89671540268
512;512;1449488379;2.13166928291;0.801952183247;0.06833797693249999;2;True;21;1;18.89671540268
513;513;1449488379;2.1317486763;0.8018888235089999;0.06831501424309999;2;True;21;1;18.89671540268
514;514;1449488379;2.13171815872;0.801875710487;0.0682755857706;2;True;21;1;18.89671540268
515;515;1449488379;2.13176560402;0.8019324541089999;0.0683549791574;2;True;21;1;18.89671540268
516;516;1449488379;2.1317024231;0.801796734333;0.0681906417012;2;True;21;1;18.89671540268
517;517;1449488379;2.13161110878;0.801659762859;0.0682632029057;2;True;21;1;18.89671540268
518;518;1449488379;2.13167929649;0.8018559217450001;0.0683469623327;2;True;21;1;18.89671540268
519;519;1449488379;2.13169050217;0.801747381687;0.0682675242424;2;True;21;1;18.89671540268
520;520;1449488379;2.13167142868;0.801805138588;0.0683189183474;2;True;21;1;18.89671540268
521;521;1449488379;2.1317293644;0.801881790161;0.06831542402509999;2;True;21;1;18.89671540268
522;522;1449488379;2.1316447258;0.801817536354;0.0683377161622;2;True;21;1;18.89671540268
523;523;1449488379;2.1317460537;0.8017864823340001;0.0682005509734;2;True;21;1;18.89671540268
524;524;1449488379;2.1316721439400004;0.8018509149549999;0.0683777704835;2;True;21;1;18.89671540268
525;525;1449488379;2.13168358803;0.80184918642;0.0682788565755;2;True;21;1;18.89671540268
526;526;1449488379;2.131762743;0.80197006464;0.0683228522539;2;True;21;1;18.89671540268
527;527;1449488379;2.13172149658;0.801847159863;0.0681751072407;2;True;21;1;18.89671540268
528;528;1449488379;2.13166975975;0.801770150661;0.0682589262724;2;True;21;1;18.89671540268
529;529;1449488379;2.13166642189;0.801741540432;0.06829719990489999;2;True;21;1;18.89671540268
530;530;1449488380;2.13173627853;0.801900744438;0.0683263167739;3;True;21;1;18.89671540268
531;531;1449488380;2.13172316551;0.8019072413439999;0.0682896226645;3;True;21;1;18.89671540268
532;532;1449488380;2.13170838356;0.801861643791;0.06829418241980001;3;True;21;1;18.89671540268
533;533;1449488380;2.13158917427;0.801644861698;0.0683049783111;3;True;21;1;18.89671540268
534;534;1449488380;2.1316606998400003;0.801692485809;0.0682598128915;3;True;21;1;18.89671540268
535;535;1449488380;2.13175797462;0.8019124269490001;0.06829560548069999;3;True;21;1;18.89671540268
536;536;1449488380;2.13174009323;0.8018961548810001;0.0682794377208;3;True;21;1;18.89671540268
537;537;1449488380;2.1317501068099998;0.8019107580179999;0.068266749382;3;True;21;1;18.89671540268
538;538;1449488380;2.13167524338;0.801859140396;0.06830018013719999;3;True;21;1;18.89671540268
539;539;1449488380;2.13174700737;0.8018888235089999;0.0682669654489;3;True;21;1;18.89671540268
540;540;1449488380;2.13167476654;0.801842749119;0.0683895498514;3;True;21;1;18.89671540268
541;541;1449488380;2.131721735;0.8020427227019999;0.0682757273316;3;True;21;1;18.89671540268
542;542;1449488380;2.13163900375;0.801748096943;0.0682664960623;3;True;21;1;18.89671540268
543;543;1449488380;2.13166689873;0.801827847958;0.0682929828763;3;True;21;1;18.89671540268
544;544;1449488380;2.1316728591900005;0.8018568158149999;0.06829806417230001;3;True;21;1;18.89671540268
545;545;1449488380;2.1316716671;0.8018485307690001;0.06838170438999999;3;True;21;1;18.89671540268
546;546;1449488380;2.1317236423500003;0.801820874214;0.0682729408145;3;True;21;1;18.89671540268
547;547;1449488380;2.1318349838299997;0.802033364773;0.068181283772;3;True;21;1;18.89671540268
548;548;1449488380;2.13161897659;0.8017962574959999;0.0682902485132;3;True;21;1;18.89671540268
549;549;1449488380;2.1316423416099997;0.801838636398;0.06843803822990001;3;True;21;1;18.89671540268
550;550;1449488380;2.1317279338799997;0.801893115044;0.0682629346848;3;True;21;1;18.89671540268
551;551;1449488380;2.13170742989;0.8018949031829999;0.0682901218534;3;True;21;1;18.89671540268
552;552;1449488380;2.13174009323;0.8018982410430001;0.0682482197881;3;True;21;1;18.89671540268
553;553;1449488380;2.13173389435;0.801895678043;0.06823410838840001;3;True;21;1;18.89671540268
554;554;1449488380;2.13168931007;0.8019025325779999;0.0683133676648;3;True;21;1;18.89671540268
555;555;1449488380;2.13162660599;0.801861226559;0.06838696450000001;3;True;21;1;18.89671540268
556;556;1449488380;2.13165187836;0.801816105843;0.0683352425694;3;True;21;1;18.89671540268
557;557;1449488380;2.13171243668;0.801912307739;0.0682359114289;3;True;21;1;18.89671540268
558;558;1449488380;2.13172841072;0.8019260764120001;0.068307749927;3;True;21;1;18.89671540268
559;559;1449488380;2.13178825378;0.8019132018089999;0.06816232204440001;3;True;21;1;18.89671540268
560;560;1449488380;2.13163924217;0.801700472832;0.0682797208428;3;True;21;1;18.89671540268
561;561;1449488380;2.13172316551;0.8020423054699999;0.0683876946568;3;True;21;1;18.89671540268
562;562;1449488380;2.1316754818;0.801769375801;0.06824664026499999;3;True;21;1;18.89671540268
563;563;1449488380;2.13167524338;0.801830470562;0.0683752894402;3;True;21;1;18.89671540268
564;564;1449488380;2.13175034523;0.8018824458120001;0.0683147907257;3;True;21;1;18.89671540268
565;565;1449488380;2.13166594505;0.8018552064899999;0.06835774332280001;3;True;21;1;18.89671540268
566;566;1449488380;2.1316912174200002;0.801844775677;0.06837939471009999;3;True;21;1;18.89671540268
567;567;1449488380;2.13164019585;0.801823198795;0.0683170109987;3;True;21;1;18.89671540268
568;568;1449488380;2.1316840648700004;0.801717281342;0.06827496737239999;3;True;21;1;18.89671540268
569;569;1449488380;2.1317615509;0.801915407181;0.0682894438505;3;True;21;1;18.89671540268
570;570;1449488380;2.13167119026;0.8018506169320001;0.06838744878769999;3;True;21;1;18.89671540268
571;571;1449488380;2.13166904449;0.8018268942829999;0.0683105289936;3;True;21;1;18.89671540268
572;572;1449488380;2.13167786598;0.801863789558;0.0682803764939;3;True;21;1;18.89671540268
573;573;1449488380;2.13164377213;0.8018841147419999;0.06836739182469999;3;True;21;1;18.89671540268
574;574;1449488380;2.13170790672;0.801780700684;0.0682985186577;3;True;21;1;18.89671540268
575;575;1449488380;2.13166832924;0.801852881908;0.0683736279607;3;True;21;1;18.89671540268
576;576;1449488380;2.13173747063;0.801914334297;0.0682856217027;3;True;21;1;18.89671540268
577;577;1449488380;2.1317343711900003;0.801976025105;0.06836529076100001;3;True;21;1;18.89671540268
578;578;1449488380;2.13162708282;0.801854074001;0.0684388577938;3;True;21;1;18.89671540268
579;579;1449488380;2.1317343711900003;0.8018227815629999;0.0681817010045;3;True;21;1;18.89671540268
580;580;1449488380;2.13171982765;0.801866054535;0.0682496726513;3;True;21;1;18.89671540268
581;581;1449488380;2.13186717033;0.801957964897;0.06821642816069999;3;True;21;1;18.89671540268
582;582;1449488380;2.13172626495;0.8019078373909999;0.0682979226112;3;True;21;1;18.89671540268
583;583;1449488380;2.13168025017;0.801873326302;0.0683780834079;3;True;21;1;18.89671540268
584;584;1449488380;2.13175106049;0.801837980747;0.0681619644165;3;True;21;1;18.89671540268
585;585;1449488380;2.13171648979;0.8019414544110001;0.0683063045144;3;True;21;1;18.89671540268
586;586;1449488380;2.13171625137;0.8020745515819999;0.0683026537299;3;True;21;1;18.89671540268
587;587;1449488380;2.1316299438499997;0.8018476367;0.06831544637680001;3;True;21;1;18.89671540268
588;588;1449488380;2.1316652298;0.8017566800120001;0.0682548508048;3;True;21;1;18.89671540268
589;589;1449488380;2.13170552254;0.80184006691;0.0683029741049;3;True;21;1;18.89671540268
590;590;1449488380;2.13163805008;0.8018487095829999;0.0682698860765;3;True;21;1;18.89671540268
591;591;1449488380;2.13166475296;0.80177205801;0.0682784169912;3;True;21;1;18.89671540268
592;592;1449488380;2.1317913532299997;0.801959693432;0.068141207099;3;True;21;1;18.89671540268
593;593;1449488380;2.13174748421;0.801831483841;0.06830698251720001;3;True;21;1;18.89671540268
594;594;1449488380;2.13171553612;0.80188369751;0.0682901367545;3;True;21;1;18.89671540268
595;595;1449488380;2.1316709518400003;0.801846265793;0.06837064027789999;3;True;21;1;18.89671540268
596;596;1449488380;2.1316566467299998;0.801891744137;0.06834105402230001;3;True;21;1;18.89671540268
597;597;1449488380;2.13174915314;0.801893293858;0.06831108778719999;3;True;21;1;18.89671540268
598;598;1449488380;2.13167500496;0.801895260811;0.0683072209358;3;True;21;1;18.89671540268
599;599;1449488380;2.13162493706;0.801881730556;0.0683129504323;3;True;21;1;18.89671540268
600;600;1449488380;2.1317241191900003;0.801995635033;0.0683334618807;3;True;21;1;18.89671540268
601;601;1449488380;2.13168382645;0.8019247651100001;0.0683920606971;3;True;21;1;18.89671540268
602;602;1449488380;2.13165307045;0.8018397688869999;0.068314537406;3;True;21;1;18.89671540268
603;603;1449488380;2.13171482086;0.801888525486;0.0682864934206;3;True;21;1;18.89671540268
604;604;1449488380;2.13169765472;0.801845431328;0.0682980194688;3;True;21;1;18.89671540268
605;605;1449488380;2.13163256645;0.8017282485959999;0.0683172047138;3;True;21;1;18.89671540268
606;606;1449488380;2.13172030449;0.80185598135;0.06823141872880001;3;True;21;1;18.89671540268
607;607;1449488380;2.13174891472;0.801906406879;0.0683115050197;3;True;21;1;18.89671540268
608;608;1449488380;2.13163518906;0.801743388176;0.0682686939836;3;True;21;1;18.89671540268
609;609;1449488380;2.1317279338799997;0.801888883114;0.0682619735599;3;True;21;1;18.89671540268
610;610;1449488380;2.1317343711900003;0.801903307438;0.0682910233736;3;True;21;1;18.89671540268
611;611;1449488380;2.1317236423500003;0.8018835783;0.0682746469975;3;True;21;1;18.89671540268
612;612;1449488380;2.1316173076599996;0.801860868931;0.0683950781822;3;True;21;1;18.89671540268
613;613;1449488380;2.1316587925;0.801826238632;0.06831295788290001;3;True;21;1;18.89671540268
614;614;1449488380;2.13168382645;0.8018549084659999;0.0683740079403;3;True;21;1;18.89671540268
615;615;1449488380;2.1317100524900003;0.801829338074;0.0682435929775;3;True;21;1;18.89671540268
616;616;1449488380;2.13164663315;0.801846146584;0.0683769956231;3;True;21;1;18.89671540268
617;617;1449488380;2.1317708492299996;0.802021443844;0.068224683404;3;True;21;1;18.89671540268
618;618;1449488380;2.13175392151;0.8018240332600001;0.06820727884769999;3;True;21;1;18.89671540268
619;619;1449488380;2.13115644455;0.8017854690549999;0.0683336853981;3;True;21;1;18.89671540268
620;620;1449488380;2.13177061081;0.802019894123;0.0682382285595;3;True;21;1;18.89671540268
621;621;1449488380;2.1316640377000002;0.801852583885;0.0683919265866;3;True;21;1;18.89671540268
622;622;1449488380;2.13167381287;0.801710307598;0.06825838238;3;True;21;1;18.89671540268
623;623;1449488380;2.1315310001400003;0.801423609257;0.06842882186169999;3;True;21;1;18.89671540268
624;624;1449488380;2.13160896301;0.801673531532;0.0682662501931;3;True;21;1;18.89671540268
625;625;1449488380;2.13161230087;0.8018814325329999;0.0683017894626;3;True;21;1;18.89671540268
626;626;1449488380;2.13174510002;0.801912784576;0.0682833120227;3;True;21;1;18.89671540268
627;627;1449488380;2.13176083565;0.8019132018089999;0.0682391002774;3;True;21;1;18.89671540268
628;628;1449488380;2.13170289993;0.802014172077;0.0683216825128;3;True;21;1;18.89671540268
629;629;1449488380;2.13177967072;0.801964342594;0.0682446137071;3;True;21;1;18.89671540268
630;630;1449488380;2.13173937798;0.80185765028;0.0682924762368;3;True;21;1;18.89671540268
631;631;1449488380;2.1316947937;0.8018599152570001;0.0683034732938;3;True;21;1;18.89671540268
