;Unnamed: 0;header_stamp_secs;pose_position_x;pose_position_y;pose_position_z;seconds;drop_values;flight_number;label;dtw
0;0;1449489767;2.24853682518;1.06859028339;0.06761125475169999;0;True;27;2;240.39190244656962
1;1;1449489767;2.2484979629499997;1.06880903244;0.0677357763052;0;True;27;2;240.39190244656962
2;2;1449489767;2.24854826927;1.06878566742;0.0676077157259;0;True;27;2;240.39190244656962
3;3;1449489768;2.24836611748;1.0685296058700002;0.0677881017327;1;True;27;2;240.39190244656962
4;4;1449489768;2.24849891663;1.0685659647;0.0676146224141;1;True;27;2;240.39190244656962
5;5;1449489768;2.24838256836;1.0686622858;0.0678294897079;1;True;27;2;240.39190244656962
6;6;1449489768;2.24854254723;1.0686203241299999;0.06758777052159999;1;True;27;2;240.39190244656962
7;7;1449489768;2.2484633922599997;1.06846010685;0.0676153749228;1;True;27;2;240.39190244656962
8;8;1449489768;2.2484574317900003;1.0687704086299998;0.0677387416363;1;True;27;2;240.39190244656962
9;9;1449489768;2.24837899208;1.0688154697399999;0.0678123831749;1;True;27;2;240.39190244656962
10;10;1449489768;2.24816322327;1.0685557127;0.06794363260269999;1;True;27;2;240.39190244656962
11;11;1449489768;2.2485530376400003;1.0688570737799998;0.0675637274981;1;True;27;2;240.39190244656962
12;12;1449489768;2.24830961227;1.06855618954;0.0677896738052;1;True;27;2;240.39190244656962
13;13;1449489768;2.2483818531;1.06862664223;0.06778614223;1;True;27;2;240.39190244656962
14;14;1449489768;2.24829983711;1.06856775284;0.0677788853645;1;True;27;2;240.39190244656962
15;15;1449489768;2.24854969978;1.0689133405700002;0.06761147826910001;1;True;27;2;240.39190244656962
16;16;1449489768;2.24831700325;1.06842923164;0.0677814036608;1;True;27;2;240.39190244656962
17;17;1449489768;2.2483291625999997;1.0687565803499999;0.0678129121661;1;True;27;2;240.39190244656962
18;18;1449489768;2.24835944176;1.0686278343200002;0.0677525252104;1;True;27;2;240.39190244656962
19;19;1449489768;2.24845838547;1.0687042474700001;0.0676640793681;1;True;27;2;240.39190244656962
20;20;1449489768;2.24856758118;1.06875967979;0.067582808435;1;True;27;2;240.39190244656962
21;21;1449489768;2.24855256081;1.06875264645;0.0675901919603;1;True;27;2;240.39190244656962
22;22;1449489768;2.24833440781;1.0686900615700001;0.06785474717619999;1;True;27;2;240.39190244656962
23;23;1449489768;2.2483806610099997;1.06860470772;0.06780978292230001;1;True;27;2;240.39190244656962
24;24;1449489768;2.24853444099;1.0686016082799998;0.0675947964191;1;True;27;2;240.39190244656962
25;25;1449489768;2.24853038788;1.0687928199799999;0.06761862337590001;1;True;27;2;240.39190244656962
26;26;1449489768;2.2485167980200003;1.06874597073;0.0675956606865;1;True;27;2;240.39190244656962
27;27;1449489768;2.24842476845;1.06872224808;0.0677770599723;1;True;27;2;240.39190244656962
28;28;1449489768;2.24847126007;1.06893467903;0.0677822455764;1;True;27;2;240.39190244656962
29;29;1449489768;2.24835801125;1.06849932671;0.06773821264510001;1;True;27;2;240.39190244656962
30;30;1449489768;2.24848008156;1.06878829002;0.0677463933825;1;True;27;2;240.39190244656962
31;31;1449489768;2.24840259552;1.06850326061;0.0676931813359;1;True;27;2;240.39190244656962
32;32;1449489768;2.24846458435;1.06869602203;0.06780971586699999;1;True;27;2;240.39190244656962
33;33;1449489768;2.24845075607;1.0686393976200002;0.0676835924387;1;True;27;2;240.39190244656962
34;34;1449489768;2.2484250068700002;1.06846392155;0.06767925620080001;1;True;27;2;240.39190244656962
35;35;1449489768;2.24850678444;1.0688174963;0.067730486393;1;True;27;2;240.39190244656962
36;36;1449489768;2.24836778641;1.06881165504;0.0677975267172;1;True;27;2;240.39190244656962
37;37;1449489768;2.2483806610099997;1.0686774253799998;0.0677520930767;1;True;27;2;240.39190244656962
38;38;1449489768;2.2484776973700003;1.0687006712;0.067805364728;1;True;27;2;240.39190244656962
39;39;1449489768;2.24853134155;1.0686045885100002;0.06760891526940001;1;True;27;2;240.39190244656962
40;40;1449489768;2.2485439777400003;1.0687549114200001;0.06764446944000001;1;True;27;2;240.39190244656962
41;41;1449489768;2.24832677841;1.06862080097;0.06785073131319999;1;True;27;2;240.39190244656962
42;42;1449489768;2.24834036827;1.06879234314;0.0679618269205;1;True;27;2;240.39190244656962
43;43;1449489768;2.24821591377;1.0684766769399998;0.0679235756397;1;True;27;2;240.39190244656962
44;44;1449489768;2.2484612464900002;1.06872141361;0.0676830559969;1;True;27;2;240.39190244656962
45;45;1449489768;2.2485361099200003;1.06875109673;0.0676376223564;1;True;27;2;240.39190244656962
46;46;1449489768;2.2483687400799997;1.06863951683;0.0678494125605;1;True;27;2;240.39190244656962
47;47;1449489768;2.2484033107799997;1.06859099865;0.0677117779851;1;True;27;2;240.39190244656962
48;48;1449489768;2.2483992576599996;1.0686973333399998;0.06780727207659999;1;True;27;2;240.39190244656962
49;49;1449489768;2.24839711189;1.06867384911;0.06784720718859999;1;True;27;2;240.39190244656962
50;50;1449489768;2.24834752083;1.06863069534;0.0678579285741;1;True;27;2;240.39190244656962
51;51;1449489768;2.24854922295;1.06890332699;0.06765706837180001;1;True;27;2;240.39190244656962
52;52;1449489768;2.24840593338;1.06868982315;0.0678035691381;1;True;27;2;240.39190244656962
53;53;1449489768;2.24856305122;1.06873691082;0.0676134601235;1;True;27;2;240.39190244656962
54;54;1449489768;2.24838209152;1.06857275963;0.0678141117096;1;True;27;2;240.39190244656962
55;55;1449489768;2.24833774567;1.0684436559700001;0.0677984133363;1;True;27;2;240.39190244656962
56;56;1449489768;2.24836611748;1.06851220131;0.0677761957049;1;True;27;2;240.39190244656962
57;57;1449489768;2.24856877327;1.0690534114799999;0.0676579400897;1;True;27;2;240.39190244656962
58;58;1449489768;2.24846696854;1.06869637966;0.0677989125252;1;True;27;2;240.39190244656962
59;59;1449489768;2.2485330104799996;1.0685790777200002;0.0676260888577;1;True;27;2;240.39190244656962
60;60;1449489768;2.2484905719799997;1.06880402565;0.067743524909;1;True;27;2;240.39190244656962
61;61;1449489768;2.24857902527;1.06870615482;0.0675737187266;1;True;27;2;240.39190244656962
62;62;1449489768;2.2485215663900004;1.06859183311;0.0675983354449;1;True;27;2;240.39190244656962
63;63;1449489768;2.2485263347599997;1.06889533997;0.06772979348899999;1;True;27;2;240.39190244656962
64;64;1449489768;2.24855184555;1.06862449646;0.0675997883081;1;True;27;2;240.39190244656962
65;65;1449489768;2.24852371216;1.06876301765;0.0676328465343;1;True;27;2;240.39190244656962
66;66;1449489768;2.24823737144;1.06862401962;0.06793911755080001;1;True;27;2;240.39190244656962
67;67;1449489768;2.24836063385;1.06877350807;0.06772103905679999;1;True;27;2;240.39190244656962
68;68;1449489768;2.24836087227;1.06852269173;0.0677564516664;1;True;27;2;240.39190244656962
69;69;1449489768;2.2485647201499996;1.06878578663;0.06759462505580001;1;True;27;2;240.39190244656962
70;70;1449489768;2.24845027924;1.06858992577;0.06767186522480001;1;True;27;2;240.39190244656962
71;71;1449489768;2.24840760231;1.06871080399;0.0678179189563;1;True;27;2;240.39190244656962
72;72;1449489768;2.2485489845299997;1.06878864765;0.06759801507;1;True;27;2;240.39190244656962
73;73;1449489768;2.2483954429599997;1.06866037846;0.0677640736103;1;True;27;2;240.39190244656962
74;74;1449489768;2.24845075607;1.0686891078899998;0.06781662255530001;1;True;27;2;240.39190244656962
75;75;1449489768;2.24851870537;1.06891489029;0.0677522420883;1;True;27;2;240.39190244656962
76;76;1449489768;2.24841880798;1.0687466859799999;0.0678762644529;1;True;27;2;240.39190244656962
77;77;1449489768;2.2485253810900003;1.0685665607500001;0.0676211938262;1;True;27;2;240.39190244656962
78;78;1449489768;2.2483549118;1.0685629844700002;0.0677857771516;1;True;27;2;240.39190244656962
79;79;1449489768;2.2484817504900003;1.06868779659;0.06765350699419999;1;True;27;2;240.39190244656962
80;80;1449489768;2.24855160713;1.06877970695;0.067596629262;1;True;27;2;240.39190244656962
81;81;1449489768;2.2484924793200003;1.0685589313500001;0.0676425769925;1;True;27;2;240.39190244656962
82;82;1449489768;2.2485127449;1.0685801506000001;0.0676275342703;1;True;27;2;240.39190244656962
83;83;1449489768;2.24828791618;1.0685355663299998;0.067802593112;1;True;27;2;240.39190244656962
84;84;1449489768;2.24841213226;1.0686606168700001;0.067769177258;1;True;27;2;240.39190244656962
85;85;1449489768;2.24834990501;1.06861436367;0.0678871572018;1;True;27;2;240.39190244656962
86;86;1449489768;2.24849152565;1.0688230991399998;0.06766603887080001;1;True;27;2;240.39190244656962
87;87;1449489768;2.24845647812;1.06875133514;0.0677518248558;1;True;27;2;240.39190244656962
88;88;1449489768;2.248452425;1.06870150566;0.0678190365434;1;True;27;2;240.39190244656962
89;89;1449489768;2.2483332157099998;1.06861507893;0.06784684211019999;1;True;27;2;240.39190244656962
90;90;1449489768;2.24840283394;1.06845378876;0.0676913782954;1;True;27;2;240.39190244656962
91;91;1449489768;2.24850893021;1.0687931776000001;0.0676233917475;1;True;27;2;240.39190244656962
92;92;1449489768;2.24848771095;1.06882083416;0.0676700398326;1;True;27;2;240.39190244656962
93;93;1449489768;2.24846386909;1.0685232877700002;0.06765782833100001;1;True;27;2;240.39190244656962
94;94;1449489768;2.2483212947799998;1.06858634949;0.06773383915419999;1;True;27;2;240.39190244656962
95;95;1449489768;2.24842000008;1.06874597073;0.067789748311;1;True;27;2;240.39190244656962
96;96;1449489768;2.2482771873500003;1.0685133934;0.0678077042103;1;True;27;2;240.39190244656962
97;97;1449489768;2.24831271172;1.06866729259;0.0678218901157;1;True;27;2;240.39190244656962
98;98;1449489768;2.24852991104;1.0687733888600002;0.067618444562;1;True;27;2;240.39190244656962
99;99;1449489768;2.24846720695;1.06853079796;0.06764480471609999;1;True;27;2;240.39190244656962
100;100;1449489768;2.24850320816;1.06857955456;0.0676119402051;1;True;27;2;240.39190244656962
101;101;1449489768;2.24839305878;1.0687485933299998;0.067780777812;1;True;27;2;240.39190244656962
102;102;1449489768;2.2484345436099997;1.06867206097;0.06781088560819999;1;True;27;2;240.39190244656962
103;103;1449489768;2.24846410751;1.06857705116;0.0676531642675;1;True;27;2;240.39190244656962
104;104;1449489768;2.2483191490200003;1.0686161518100001;0.06779873371119999;1;True;27;2;240.39190244656962
105;105;1449489768;2.24847698212;1.06857168674;0.0676566064358;1;True;27;2;240.39190244656962
106;106;1449489768;2.24853253365;1.06862664223;0.0675925910473;1;True;27;2;240.39190244656962
107;107;1449489768;2.24843788147;1.06858599186;0.0676614716649;1;True;27;2;240.39190244656962
108;108;1449489768;2.2485439777400003;1.0686390399899999;0.0675778910518;1;True;27;2;240.39190244656962
109;109;1449489768;2.24833989143;1.0686249733;0.0678594857454;1;True;27;2;240.39190244656962
110;110;1449489768;2.24848675728;1.068775177;0.0677569285035;1;True;27;2;240.39190244656962
111;111;1449489768;2.24835419655;1.06848168373;0.06776626408099999;1;True;27;2;240.39190244656962
112;112;1449489768;2.24855542183;1.0688129663500001;0.0676058232784;1;True;27;2;240.39190244656962
113;113;1449489768;2.24846172333;1.0685745477700002;0.0676480382681;1;True;27;2;240.39190244656962
114;114;1449489768;2.2485938072200002;1.06889748573;0.06762380897999999;1;True;27;2;240.39190244656962
115;115;1449489768;2.24854540825;1.06878912449;0.0676028430462;1;True;27;2;240.39190244656962
116;116;1449489768;2.2485342025799997;1.0686173439;0.06759595125909999;1;True;27;2;240.39190244656962
117;117;1449489768;2.2484664917;1.06852090359;0.0676366239786;1;True;27;2;240.39190244656962
118;118;1449489768;2.2485253810900003;1.06883180141;0.0676019564271;1;True;27;2;240.39190244656962
119;119;1449489768;2.24845981598;1.06884598732;0.067660652101;1;True;27;2;240.39190244656962
120;120;1449489768;2.24838614464;1.06860923767;0.06779698282480001;1;True;27;2;240.39190244656962
121;121;1449489768;2.24855899811;1.06867325306;0.0675623714924;1;True;27;2;240.39190244656962
122;122;1449489768;2.24829959869;1.06851089001;0.0677961707115;1;True;27;2;240.39190244656962
123;123;1449489768;2.2483904361700002;1.0686684846899999;0.0677266642451;1;True;27;2;240.39190244656962
124;124;1449489768;2.24851870537;1.06882619858;0.0676150694489;1;True;27;2;240.39190244656962
125;125;1449489768;2.2484779357900004;1.06867027283;0.067668132484;1;True;27;2;240.39190244656962
126;126;1449489768;2.24839425087;1.06864988804;0.0678014084697;1;True;27;2;240.39190244656962
127;127;1449489768;2.24845719337;1.06875193119;0.0677311494946;1;True;27;2;240.39190244656962
128;128;1449489768;2.2481961250299998;1.0685255527500002;0.0678799450397;1;True;27;2;240.39190244656962
129;129;1449489768;2.24839568138;1.06864416599;0.0677489712834;1;True;27;2;240.39190244656962
130;130;1449489768;2.24856638908;1.06877911091;0.0675504058599;1;True;27;2;240.39190244656962
131;131;1449489768;2.24850440025;1.06884109974;0.0676798373461;1;True;27;2;240.39190244656962
132;132;1449489768;2.24849438667;1.0685867071200001;0.06762008368969999;1;True;27;2;240.39190244656962
133;133;1449489768;2.2485558986700003;1.06871116161;0.0675687640905;1;True;27;2;240.39190244656962
134;134;1449489768;2.2483985424;1.0686339139899999;0.0677523165941;1;True;27;2;240.39190244656962
135;135;1449489768;2.24839806557;1.06848204136;0.0676839202642;1;True;27;2;240.39190244656962
136;136;1449489768;2.24851202965;1.06856405735;0.0675998926163;1;True;27;2;240.39190244656962
137;137;1449489768;2.2484037876099996;1.06870448589;0.06778697669509999;1;True;27;2;240.39190244656962
138;138;1449489768;2.24810147285;1.06848812103;0.0679916664958;1;True;27;2;240.39190244656962
139;139;1449489768;2.24833106995;1.0684869289399999;0.0677792429924;1;True;27;2;240.39190244656962
140;140;1449489768;2.24839687347;1.0686712265;0.06777825951580001;1;True;27;2;240.39190244656962
141;141;1449489768;2.2485408783;1.0686812400799999;0.0675927996635;1;True;27;2;240.39190244656962
142;142;1449489768;2.24835276604;1.0685138702399999;0.0677730292082;1;True;27;2;240.39190244656962
143;143;1449489768;2.24849939346;1.0687806606299999;0.067795984447;1;True;27;2;240.39190244656962
144;144;1449489768;2.24843597412;1.06870138645;0.0677347108722;1;True;27;2;240.39190244656962
145;145;1449489768;2.24833011627;1.06859874725;0.06773620098830001;1;True;27;2;240.39190244656962
146;146;1449489768;2.24841356277;1.06870341301;0.0677411109209;1;True;27;2;240.39190244656962
147;147;1449489768;2.2483139038099997;1.0686776638;0.0677624866366;1;True;27;2;240.39190244656962
148;148;1449489768;2.2484402656599998;1.0685890913;0.06766410171989999;1;True;27;2;240.39190244656962
149;149;1449489768;2.24854660034;1.06876325607;0.067599400878;1;True;27;2;240.39190244656962
150;150;1449489768;2.2484381198900003;1.0687738656999999;0.0677408725023;1;True;27;2;240.39190244656962
151;151;1449489768;2.24835705757;1.06849169731;0.0677660033107;1;True;27;2;240.39190244656962
152;152;1449489768;2.2483150959000002;1.06862556934;0.0678354427218;1;True;27;2;240.39190244656962
153;153;1449489768;2.2483291625999997;1.06848275661;0.0677937194705;1;True;27;2;240.39190244656962
154;154;1449489768;2.24842000008;1.0684918165200001;0.06768793612719999;1;True;27;2;240.39190244656962
155;155;1449489768;2.24845695496;1.06876647472;0.06771654635669999;1;True;27;2;240.39190244656962
156;156;1449489768;2.24832558632;1.0686155557600001;0.0678099021316;1;True;27;2;240.39190244656962
157;157;1449489768;2.24850010872;1.06855452061;0.0676206275821;1;True;27;2;240.39190244656962
158;158;1449489768;2.2482538223299997;1.06871306896;0.0678879022598;1;True;27;2;240.39190244656962
159;159;1449489768;2.24840474129;1.06868958473;0.06773559749130001;1;True;27;2;240.39190244656962
160;160;1449489768;2.24831295013;1.06858766079;0.06780004501339999;1;True;27;2;240.39190244656962
161;161;1449489768;2.2483992576599996;1.0684733390799999;0.06769855320450001;1;True;27;2;240.39190244656962
162;162;1449489768;2.24840044975;1.06844043732;0.0676886811852;1;True;27;2;240.39190244656962
163;163;1449489768;2.2482817173;1.06853508949;0.0678039938211;1;True;27;2;240.39190244656962
164;164;1449489768;2.24854588509;1.06886065006;0.06761352717880001;1;True;27;2;240.39190244656962
165;165;1449489768;2.24849200249;1.0687340498;0.0676431208849;1;True;27;2;240.39190244656962
166;166;1449489768;2.24837064743;1.0686275959;0.0677843615413;1;True;27;2;240.39190244656962
167;167;1449489768;2.24829411507;1.06877994537;0.0679044052958;1;True;27;2;240.39190244656962
168;168;1449489768;2.24834752083;1.06864619255;0.06779322028160001;1;True;27;2;240.39190244656962
169;169;1449489768;2.24857020378;1.06896138191;0.0675728693604;1;True;27;2;240.39190244656962
170;170;1449489768;2.24845814705;1.0685676336299998;0.0676503553987;1;True;27;2;240.39190244656962
171;171;1449489768;2.2485330104799996;1.06876862049;0.0675685554743;1;True;27;2;240.39190244656962
172;172;1449489768;2.24852752686;1.0687677860299998;0.0676023885608;1;True;27;2;240.39190244656962
173;173;1449489768;2.2483227253;1.0686142444600002;0.06785517185930001;1;True;27;2;240.39190244656962
174;174;1449489768;2.2483556270599996;1.06845164299;0.0677209571004;1;True;27;2;240.39190244656962
175;175;1449489768;2.24854254723;1.0688376426700001;0.067633651197;1;True;27;2;240.39190244656962
176;176;1449489768;2.24825716019;1.0685294866600001;0.06778614223;1;True;27;2;240.39190244656962
177;177;1449489768;2.2483325004599997;1.06867837906;0.0677498281002;1;True;27;2;240.39190244656962
178;178;1449489768;2.2483561039;1.0686866045;0.06776722520589999;1;True;27;2;240.39190244656962
179;179;1449489768;2.24832081795;1.06862926483;0.0677880421281;1;True;27;2;240.39190244656962
180;180;1449489768;2.24831724167;1.0684591531799998;0.0677680969238;1;True;27;2;240.39190244656962
181;181;1449489768;2.24839806557;1.06873965263;0.06782957166430001;1;True;27;2;240.39190244656962
182;182;1449489768;2.24840092659;1.06862437725;0.0676913186908;1;True;27;2;240.39190244656962
183;183;1449489768;2.24831700325;1.06862640381;0.06784572452309999;1;True;27;2;240.39190244656962
184;184;1449489768;2.2483904361700002;1.0684528350799998;0.06763535737990001;1;True;27;2;240.39190244656962
185;185;1449489768;2.2485055923500004;1.0687973499299999;0.0676134303212;1;True;27;2;240.39190244656962
186;186;1449489768;2.24845719337;1.0688152313200001;0.0677514821291;1;True;27;2;240.39190244656962
187;187;1449489768;2.24842977524;1.06865811348;0.0677083358169;1;True;27;2;240.39190244656962
188;188;1449489768;2.24838376045;1.0686285495799999;0.0677006989717;1;True;27;2;240.39190244656962
189;189;1449489768;2.24850082397;1.0688352584799998;0.06766011565919999;1;True;27;2;240.39190244656962
190;190;1449489768;2.2483427524599997;1.06865334511;0.0678135082126;1;True;27;2;240.39190244656962
191;191;1449489768;2.24837493896;1.0686606168700001;0.0677987858653;1;True;27;2;240.39190244656962
192;192;1449489768;2.24838495255;1.06847345829;0.0676856487989;1;True;27;2;240.39190244656962
193;193;1449489768;2.2484109401700003;1.06876564026;0.0677604228258;1;True;27;2;240.39190244656962
194;194;1449489768;2.2485096454599995;1.0686064958600001;0.0675934255123;1;True;27;2;240.39190244656962
195;195;1449489768;2.2484033107799997;1.06869077682;0.0677137449384;1;True;27;2;240.39190244656962
196;196;1449489768;2.24850153923;1.06856989861;0.06760635972019999;1;True;27;2;240.39190244656962
197;197;1449489768;2.2485461235;1.0688639879200001;0.0676527917385;1;True;27;2;240.39190244656962
198;198;1449489768;2.24847102165;1.06851661205;0.0676429718733;1;True;27;2;240.39190244656962
199;199;1449489768;2.2484760284400003;1.0686973333399998;0.0676650255919;1;True;27;2;240.39190244656962
200;200;1449489768;2.24837660789;1.0686790943100002;0.0677480176091;1;True;27;2;240.39190244656962
201;201;1449489768;2.24854207039;1.06869411469;0.0675788223743;1;True;27;2;240.39190244656962
202;202;1449489768;2.2483713626900004;1.06863498688;0.0677800774574;1;True;27;2;240.39190244656962
203;203;1449489768;2.24841451645;1.0685431957200002;0.0676821023226;1;True;27;2;240.39190244656962
204;204;1449489768;2.24849462509;1.06855022907;0.06761734932659999;1;True;27;2;240.39190244656962
205;205;1449489768;2.24839997292;1.06866240501;0.06779760122299999;1;True;27;2;240.39190244656962
206;206;1449489768;2.24833846092;1.0686364173899998;0.0677361413836;1;True;27;2;240.39190244656962
207;207;1449489768;2.24850773811;1.0687543153799999;0.0677372664213;1;True;27;2;240.39190244656962
208;208;1449489768;2.24832725525;1.06871771812;0.0678256601095;1;True;27;2;240.39190244656962
209;209;1449489768;2.2482829093900003;1.06869161129;0.0677721351385;1;True;27;2;240.39190244656962
210;210;1449489768;2.2482714653;1.06863069534;0.0677700564265;1;True;27;2;240.39190244656962
211;211;1449489768;2.2483899593400003;1.0685179233600002;0.0677043944597;1;True;27;2;240.39190244656962
212;212;1449489768;2.24831795692;1.06870234013;0.0677823275328;1;True;27;2;240.39190244656962
213;213;1449489768;2.24840545654;1.06866443157;0.06774645298719999;1;True;27;2;240.39190244656962
214;214;1449489768;2.24852585793;1.0686101913500001;0.0675912052393;1;True;27;2;240.39190244656962
215;215;1449489768;2.24843597412;1.06858766079;0.0676563307643;1;True;27;2;240.39190244656962
216;216;1449489768;2.24844241142;1.06862163544;0.067707195878;1;True;27;2;240.39190244656962
217;217;1449489768;2.24846816063;1.06877481937;0.067734181881;1;True;27;2;240.39190244656962
218;218;1449489768;2.2483382225;1.06867682934;0.0678362995386;1;True;27;2;240.39190244656962
219;219;1449489768;2.24837231636;1.06868338585;0.0677329227328;1;True;27;2;240.39190244656962
220;220;1449489768;2.2484369278;1.06876993179;0.0677355527878;1;True;27;2;240.39190244656962
221;221;1449489768;2.24847388268;1.06852698326;0.0676285773516;1;True;27;2;240.39190244656962
222;222;1449489768;2.24847888947;1.06853783131;0.0676186829805;1;True;27;2;240.39190244656962
223;223;1449489768;2.24853658676;1.06876540184;0.0675967261195;1;True;27;2;240.39190244656962
224;224;1449489768;2.2483394146;1.06866002083;0.0677516758442;1;True;27;2;240.39190244656962
225;225;1449489768;2.24851083755;1.0687533617;0.0676101371646;1;True;27;2;240.39190244656962
226;226;1449489768;2.2483713626900004;1.0685868263200002;0.0678091198206;1;True;27;2;240.39190244656962
227;227;1449489768;2.24832105637;1.06862509251;0.0677886456251;1;True;27;2;240.39190244656962
228;228;1449489768;2.24821257591;1.06864821911;0.0678950548172;1;True;27;2;240.39190244656962
229;229;1449489768;2.24844670296;1.06852447987;0.06765408813950001;1;True;27;2;240.39190244656962
230;230;1449489768;2.24853491783;1.0688285827600001;0.0676962211728;1;True;27;2;240.39190244656962
231;231;1449489768;2.2482728958099996;1.0685405731200002;0.0677965208888;1;True;27;2;240.39190244656962
232;232;1449489768;2.2482979297599996;1.06857466698;0.0677932724357;1;True;27;2;240.39190244656962
233;233;1449489768;2.24852323532;1.0687536001200002;0.0675778463483;1;True;27;2;240.39190244656962
234;234;1449489768;2.24847364426;1.06854069233;0.0676250010729;1;True;27;2;240.39190244656962
235;235;1449489768;2.24842643738;1.0687533617;0.0677301734686;1;True;27;2;240.39190244656962
236;236;1449489768;2.2482919693;1.0685554742799999;0.0677896738052;1;True;27;2;240.39190244656962
237;237;1449489768;2.24837112427;1.0685120821;0.0677620470524;1;True;27;2;240.39190244656962
238;238;1449489768;2.2482972145099995;1.06850528717;0.0677975267172;1;True;27;2;240.39190244656962
239;239;1449489768;2.24839997292;1.06846559048;0.0676802918315;1;True;27;2;240.39190244656962
240;240;1449489768;2.2483613491099996;1.06863415241;0.067723505199;1;True;27;2;240.39190244656962
241;241;1449489768;2.24833059311;1.06868422031;0.0677649080753;1;True;27;2;240.39190244656962
242;242;1449489769;2.24836754799;1.06861591339;0.0677796080709;2;True;27;2;240.39190244656962
243;243;1449489769;2.2485263347599997;1.06878614426;0.067615583539;2;True;27;2;240.39190244656962
244;244;1449489769;2.2482841014900004;1.06852841377;0.0677927806973;2;True;27;2;240.39190244656962
245;245;1449489769;2.2483649253799998;1.06864929199;0.0678148344159;2;True;27;2;240.39190244656962
246;246;1449489769;2.2485055923500004;1.06884622574;0.0677109137177;2;True;27;2;240.39190244656962
247;247;1449489769;2.2484138011900003;1.06857740879;0.0677279233932;2;True;27;2;240.39190244656962
248;248;1449489769;2.24835467339;1.06864106655;0.0678463578224;2;True;27;2;240.39190244656962
249;249;1449489769;2.24838852882;1.06865906715;0.06782431900500001;2;True;27;2;240.39190244656962
250;250;1449489769;2.2482483387;1.06868231297;0.0679408311844;2;True;27;2;240.39190244656962
251;251;1449489769;2.24832701683;1.0684825182;0.0677841305733;2;True;27;2;240.39190244656962
252;252;1449489769;2.2484350204499997;1.0687482357;0.067747823894;2;True;27;2;240.39190244656962
253;253;1449489769;2.24851322174;1.06867301464;0.0676096975803;2;True;27;2;240.39190244656962
254;254;1449489769;2.24837827682;1.06869757175;0.0677910894156;2;True;27;2;240.39190244656962
255;255;1449489769;2.2483236789700003;1.0686540603599999;0.0678194016218;2;True;27;2;240.39190244656962
256;256;1449489769;2.24841475487;1.0687019825;0.0678030997515;2;True;27;2;240.39190244656962
257;257;1449489769;2.2484536171;1.06869590282;0.0678019076586;2;True;27;2;240.39190244656962
258;258;1449489769;2.24835205078;1.06867921352;0.0677596107125;2;True;27;2;240.39190244656962
259;259;1449489769;2.24850535393;1.06876122952;0.0676285028458;2;True;27;2;240.39190244656962
260;260;1449489769;2.2483112812;1.06866443157;0.0677559971809;2;True;27;2;240.39190244656962
261;261;1449489769;2.24838709831;1.06867933273;0.0677608475089;2;True;27;2;240.39190244656962
262;262;1449489769;2.24838089943;1.0686045885100002;0.06770686805250001;2;True;27;2;240.39190244656962
263;263;1449489769;2.2485218048099997;1.06874144077;0.0676136016846;2;True;27;2;240.39190244656962
264;264;1449489769;2.24839091301;1.06848526001;0.0676917135715;2;True;27;2;240.39190244656962
265;265;1449489769;2.2483613491099996;1.06860804558;0.0677496567369;2;True;27;2;240.39190244656962
266;266;1449489769;2.24845695496;1.0687915086700002;0.067687690258;2;True;27;2;240.39190244656962
267;267;1449489769;2.24849390984;1.0687577724500001;0.0676304996014;2;True;27;2;240.39190244656962
268;268;1449489769;2.24850320816;1.0687506198899999;0.067657455802;2;True;27;2;240.39190244656962
269;269;1449489769;2.24839425087;1.06865143776;0.06771721690890001;2;True;27;2;240.39190244656962
270;270;1449489769;2.2484052181200003;1.06875252724;0.06777416914699999;2;True;27;2;240.39190244656962
271;271;1449489769;2.24828743935;1.06856071949;0.0677487105131;2;True;27;2;240.39190244656962
272;272;1449489769;2.24841189384;1.0686262845999999;0.0677422881126;2;True;27;2;240.39190244656962
273;273;1449489769;2.24834036827;1.06850302219;0.0677103027701;2;True;27;2;240.39190244656962
274;274;1449489769;2.24835038185;1.06851768494;0.067765109241;2;True;27;2;240.39190244656962
275;275;1449489769;2.24850845337;1.06875300407;0.067650526762;2;True;27;2;240.39190244656962
276;276;1449489769;2.24833083153;1.0686211586;0.06773330271240001;2;True;27;2;240.39190244656962
277;277;1449489769;2.24832606316;1.06860589981;0.0677279680967;2;True;27;2;240.39190244656962
278;278;1449489769;2.24832105637;1.06861889362;0.06772553920749999;2;True;27;2;240.39190244656962
279;279;1449489769;2.2484498024;1.06876635551;0.0676465332508;2;True;27;2;240.39190244656962
280;280;1449489769;2.24848723412;1.0685557127;0.06761136651039999;2;True;27;2;240.39190244656962
281;281;1449489769;2.24831748009;1.06867289543;0.0678500011563;2;True;27;2;240.39190244656962
282;282;1449489769;2.24830031395;1.06850898266;0.06778924912209999;2;True;27;2;240.39190244656962
283;283;1449489769;2.24854254723;1.0686985254299999;0.0675822421908;2;True;27;2;240.39190244656962
284;284;1449489769;2.24835896492;1.06860172749;0.0677149519324;2;True;27;2;240.39190244656962
285;285;1449489769;2.24844241142;1.0686658620799998;0.0676741451025;2;True;27;2;240.39190244656962
286;286;1449489769;2.2482850551599998;1.06859612465;0.06781597435469999;2;True;27;2;240.39190244656962
287;287;1449489769;2.2484686374700003;1.0684787034999998;0.06759458780290001;2;True;27;2;240.39190244656962
288;288;1449489769;2.2483479976700003;1.06877326965;0.0677679553628;2;True;27;2;240.39190244656962
289;289;1449489769;2.24842858315;1.06850755215;0.0676516145468;2;True;27;2;240.39190244656962
290;290;1449489769;2.24835634232;1.06864094734;0.067736543715;2;True;27;2;240.39190244656962
291;291;1449489769;2.2484679222099997;1.0684863328899998;0.06758944690230001;2;True;27;2;240.39190244656962
292;292;1449489769;2.2485547065700002;1.06872439384;0.06756586581469999;2;True;27;2;240.39190244656962
293;293;1449489769;2.24850535393;1.068577528;0.0676020011306;2;True;27;2;240.39190244656962
294;294;1449489769;2.24843931198;1.0686403513;0.0676938816905;2;True;27;2;240.39190244656962
295;295;1449489769;2.2484731674200003;1.06868982315;0.0677639842033;2;True;27;2;240.39190244656962
296;296;1449489769;2.24850749969;1.06880438328;0.0676805004478;2;True;27;2;240.39190244656962
297;297;1449489769;2.2483754158;1.0685985088299998;0.0677270963788;2;True;27;2;240.39190244656962
298;298;1449489769;2.24850678444;1.0686639547299999;0.0675939843059;2;True;27;2;240.39190244656962
299;299;1449489769;2.24854636192;1.0688664913200001;0.0676695853472;2;True;27;2;240.39190244656962
300;300;1449489769;2.24833679199;1.06863129139;0.0677977502346;2;True;27;2;240.39190244656962
301;301;1449489769;2.24848723412;1.06871688366;0.0676720738411;2;True;27;2;240.39190244656962
302;302;1449489769;2.2484622001599996;1.06880235672;0.067674420774;2;True;27;2;240.39190244656962
303;303;1449489769;2.24833488464;1.06848347187;0.0677757039666;2;True;27;2;240.39190244656962
304;304;1449489769;2.24837779999;1.06865334511;0.0678606033325;2;True;27;2;240.39190244656962
305;305;1449489769;2.24835515022;1.06870043278;0.0678070113063;2;True;27;2;240.39190244656962
306;306;1449489769;2.2483501434299997;1.06881511211;0.06779064983130001;2;True;27;2;240.39190244656962
307;307;1449489769;2.2483112812;1.06863713264;0.0677729398012;2;True;27;2;240.39190244656962
308;308;1449489769;2.24843740463;1.06876397133;0.0677497014403;2;True;27;2;240.39190244656962
309;309;1449489769;2.2483322620400004;1.06853163242;0.0677803680301;2;True;27;2;240.39190244656962
310;310;1449489769;2.2483620643599997;1.06857562065;0.0676889121532;2;True;27;2;240.39190244656962
311;311;1449489769;2.2485172748599997;1.06857836246;0.0676001012325;2;True;27;2;240.39190244656962
312;312;1449489769;2.2484514713299997;1.0686467886;0.06769134104249999;2;True;27;2;240.39190244656962
313;313;1449489769;2.24827456474;1.06860637665;0.06780820339919999;2;True;27;2;240.39190244656962
314;314;1449489769;2.24837684631;1.06850028038;0.0676902830601;2;True;27;2;240.39190244656962
315;315;1449489769;2.24849224091;1.06888604164;0.0677255839109;2;True;27;2;240.39190244656962
316;316;1449489769;2.24837899208;1.06850326061;0.0676915645599;2;True;27;2;240.39190244656962
317;317;1449489769;2.24831795692;1.06868934631;0.0677609816194;2;True;27;2;240.39190244656962
318;318;1449489769;2.24832248688;1.0686645507799999;0.0678053870797;2;True;27;2;240.39190244656962
319;319;1449489769;2.24837088585;1.0686824321700001;0.0677455812693;2;True;27;2;240.39190244656962
320;320;1449489769;2.2483322620400004;1.06864416599;0.0677832067013;2;True;27;2;240.39190244656962
321;321;1449489769;2.24831295013;1.06860411167;0.0678590759635;2;True;27;2;240.39190244656962
322;322;1449489769;2.24826312065;1.06872594357;0.06792769581079999;2;True;27;2;240.39190244656962
323;323;1449489769;2.24845647812;1.0686794519399998;0.0678010955453;2;True;27;2;240.39190244656962
324;324;1449489769;2.24835896492;1.0686688423200001;0.0678186714649;2;True;27;2;240.39190244656962
325;325;1449489769;2.2483873367299996;1.06869077682;0.0677374526858;2;True;27;2;240.39190244656962
326;326;1449489769;2.2482771873500003;1.06851255894;0.0677636638284;2;True;27;2;240.39190244656962
327;327;1449489769;2.24850606918;1.0689109563799999;0.06774543970819999;2;True;27;2;240.39190244656962
328;328;1449489769;2.2484335899400003;1.0685182809799998;0.067660972476;2;True;27;2;240.39190244656962
329;329;1449489769;2.24832344055;1.06864750385;0.0677938237786;2;True;27;2;240.39190244656962
330;330;1449489769;2.24831438065;1.0687495470000001;0.0679630562663;2;True;27;2;240.39190244656962
331;331;1449489769;2.24846816063;1.06877112389;0.0677551850677;2;True;27;2;240.39190244656962
332;332;1449489769;2.24846816063;1.06869137287;0.0678064972162;2;True;27;2;240.39190244656962
333;333;1449489769;2.24832606316;1.068754673;0.0678333342075;2;True;27;2;240.39190244656962
334;334;1449489769;2.24844622612;1.0685842037200002;0.06767605245109999;2;True;27;2;240.39190244656962
335;335;1449489769;2.24848008156;1.06865990162;0.06767512857909999;2;True;27;2;240.39190244656962
336;336;1449489769;2.2484529018400004;1.068754673;0.0677097737789;2;True;27;2;240.39190244656962
337;337;1449489769;2.24813890457;1.06851780415;0.06798547506330001;2;True;27;2;240.39190244656962
338;338;1449489769;2.2483124733;1.06861996651;0.0678665339947;2;True;27;2;240.39190244656962
339;339;1449489769;2.24853372574;1.06880569458;0.0676132887602;2;True;27;2;240.39190244656962
340;340;1449489769;2.24847435951;1.0686997175200001;0.06782002002;2;True;27;2;240.39190244656962
341;341;1449489769;2.24834942818;1.06862664223;0.0678540766239;2;True;27;2;240.39190244656962
342;342;1449489769;2.24845719337;1.0685907602299998;0.0676635578275;2;True;27;2;240.39190244656962
343;343;1449489769;2.24849891663;1.06869566441;0.0676632001996;2;True;27;2;240.39190244656962
344;344;1449489769;2.248472929;1.06870400906;0.0678044259548;2;True;27;2;240.39190244656962
345;345;1449489769;2.24850058556;1.06869876385;0.0676883161068;2;True;27;2;240.39190244656962
346;346;1449489769;2.2483613491099996;1.0685037374500002;0.06776528805490001;2;True;27;2;240.39190244656962
347;347;1449489769;2.2483279705;1.06859707832;0.067790992558;2;True;27;2;240.39190244656962
348;348;1449489769;2.24846553802;1.06850087643;0.0676143020391;2;True;27;2;240.39190244656962
349;349;1449489769;2.24850225449;1.06876432896;0.0676647946239;2;True;27;2;240.39190244656962
350;350;1449489769;2.24838232994;1.06856584549;0.0677748098969;2;True;27;2;240.39190244656962
351;351;1449489769;2.24846386909;1.06864893436;0.0676706656814;2;True;27;2;240.39190244656962
352;352;1449489769;2.24845719337;1.06851577759;0.0676514431834;2;True;27;2;240.39190244656962
353;353;1449489769;2.24849128723;1.06879270077;0.0677356347442;2;True;27;2;240.39190244656962
354;354;1449489769;2.2483284473400005;1.06864285469;0.067833699286;2;True;27;2;240.39190244656962
355;355;1449489769;2.24852252007;1.0686900615700001;0.0677679255605;2;True;27;2;240.39190244656962
356;356;1449489769;2.2484772205400003;1.06851911545;0.0676495879889;2;True;27;2;240.39190244656962
357;357;1449489769;2.24854922295;1.06878113747;0.0676855295897;2;True;27;2;240.39190244656962
358;358;1449489769;2.24838042259;1.06865859032;0.0677367076278;2;True;27;2;240.39190244656962
359;359;1449489769;2.24856209755;1.06867313385;0.0675669759512;2;True;27;2;240.39190244656962
360;360;1449489769;2.24852728844;1.0685868263200002;0.0675861537457;2;True;27;2;240.39190244656962
361;361;1449489769;2.24857020378;1.0687810182600002;0.06757044047119999;2;True;27;2;240.39190244656962
362;362;1449489769;2.2485489845299997;1.0689076185200002;0.0676437467337;2;True;27;2;240.39190244656962
363;363;1449489769;2.2485768795;1.06879448891;0.0675786435604;2;True;27;2;240.39190244656962
364;364;1449489769;2.2485401630400004;1.0687767267200001;0.0676188617945;2;True;27;2;240.39190244656962
365;365;1449489769;2.24847960472;1.0687501430500002;0.0676354989409;2;True;27;2;240.39190244656962
366;366;1449489769;2.24845695496;1.06877470016;0.0677032768726;2;True;27;2;240.39190244656962
367;367;1449489769;2.24837470055;1.06851446629;0.0677671432495;2;True;27;2;240.39190244656962
368;368;1449489769;2.2485644817400003;1.06879043579;0.0675689578056;2;True;27;2;240.39190244656962
369;369;1449489769;2.2484500408200003;1.0687754154200002;0.0677406862378;2;True;27;2;240.39190244656962
370;370;1449489769;2.24819421768;1.0686019659000001;0.0679381489754;2;True;27;2;240.39190244656962
371;371;1449489769;2.2485678196000003;1.06879782677;0.0675713196397;2;True;27;2;240.39190244656962
372;372;1449489769;2.24848151207;1.06852829456;0.06762412935499999;2;True;27;2;240.39190244656962
373;373;1449489769;2.24845552444;1.0687413215600001;0.0677169635892;2;True;27;2;240.39190244656962
374;374;1449489769;2.24853205681;1.06861150265;0.0675793886185;2;True;27;2;240.39190244656962
375;375;1449489769;2.24854826927;1.06881308556;0.0676947906613;2;True;27;2;240.39190244656962
376;376;1449489769;2.24854969978;1.06877720356;0.06758663058280001;2;True;27;2;240.39190244656962
377;377;1449489769;2.24839758873;1.0684491396;0.06767767667769999;2;True;27;2;240.39190244656962
378;378;1449489769;2.24822115898;1.06874847412;0.0678680688143;2;True;27;2;240.39190244656962
379;379;1449489769;2.2483718395200003;1.06868851185;0.0677254274487;2;True;27;2;240.39190244656962
380;380;1449489769;2.24835920334;1.06862449646;0.0677532926202;2;True;27;2;240.39190244656962
381;381;1449489769;2.24852752686;1.06874907017;0.067582115531;2;True;27;2;240.39190244656962
382;382;1449489769;2.2484776973700003;1.06852138042;0.0676337555051;2;True;27;2;240.39190244656962
383;383;1449489769;2.24840426445;1.06845736504;0.067687638104;2;True;27;2;240.39190244656962
384;384;1449489769;2.2484965324400004;1.0686887502700002;0.0676602572203;2;True;27;2;240.39190244656962
385;385;1449489769;2.24830079079;1.06856024265;0.0678039118648;2;True;27;2;240.39190244656962
386;386;1449489769;2.2484679222099997;1.06869137287;0.0678037628531;2;True;27;2;240.39190244656962
387;387;1449489769;2.24854254723;1.06882941723;0.06759980320930001;2;True;27;2;240.39190244656962
388;388;1449489769;2.24827742577;1.06871724129;0.0679147392511;2;True;27;2;240.39190244656962
389;389;1449489769;2.24836063385;1.06870400906;0.0677792429924;2;True;27;2;240.39190244656962
390;390;1449489769;2.24844551086;1.06871199608;0.0676793977618;2;True;27;2;240.39190244656962
391;391;1449489769;2.24849319458;1.0687068700799998;0.0677858367562;2;True;27;2;240.39190244656962
392;392;1449489769;2.2483088970200003;1.06849193573;0.06779608130459999;2;True;27;2;240.39190244656962
393;393;1449489769;2.24843859673;1.06869423389;0.0678074136376;2;True;27;2;240.39190244656962
394;394;1449489769;2.24836373329;1.06864154339;0.0678371861577;2;True;27;2;240.39190244656962
395;395;1449489769;2.24826860428;1.06850075722;0.0678028017282;2;True;27;2;240.39190244656962
396;396;1449489769;2.2484514713299997;1.0687152147299999;0.0676760673523;2;True;27;2;240.39190244656962
397;397;1449489769;2.24858427048;1.06890141964;0.0675749778748;2;True;27;2;240.39190244656962
398;398;1449489769;2.24854207039;1.0687828064;0.0676070451736;2;True;27;2;240.39190244656962
399;399;1449489769;2.2483291625999997;1.06859862804;0.0677367523313;2;True;27;2;240.39190244656962
400;400;1449489769;2.24837708473;1.0685167312600001;0.06778064370159999;2;True;27;2;240.39190244656962
401;401;1449489769;2.24834728241;1.0686439275700002;0.0677951797843;2;True;27;2;240.39190244656962
402;402;1449489769;2.2484574317900003;1.0685733556700001;0.0676528513432;2;True;27;2;240.39190244656962
403;403;1449489769;2.24846386909;1.06870138645;0.0676676034927;2;True;27;2;240.39190244656962
404;404;1449489769;2.2485373020200004;1.06877696514;0.0676124766469;2;True;27;2;240.39190244656962
405;405;1449489769;2.24831271172;1.06880652905;0.0679011046886;2;True;27;2;240.39190244656962
406;406;1449489769;2.24842095375;1.06882333755;0.0677883699536;2;True;27;2;240.39190244656962
407;407;1449489769;2.2485003471400002;1.06883692741;0.06766313314439999;2;True;27;2;240.39190244656962
408;408;1449489769;2.24831604958;1.0684902668;0.0677943080664;2;True;27;2;240.39190244656962
409;409;1449489769;2.2483601570099996;1.0686532259000001;0.0677831843495;2;True;27;2;240.39190244656962
410;410;1449489769;2.24858474731;1.06869018078;0.0675629898906;2;True;27;2;240.39190244656962
411;411;1449489769;2.2483813762700002;1.06843781471;0.0677072256804;2;True;27;2;240.39190244656962
412;412;1449489769;2.24853134155;1.06874597073;0.0676393806934;2;True;27;2;240.39190244656962
413;413;1449489769;2.2483932972;1.06870508194;0.067795433104;2;True;27;2;240.39190244656962
414;414;1449489769;2.24856710434;1.06879341602;0.0675675347447;2;True;27;2;240.39190244656962
415;415;1449489769;2.24847579002;1.0686515569700001;0.0676821395755;2;True;27;2;240.39190244656962
416;416;1449489769;2.24851822853;1.06866955757;0.0676009058952;2;True;27;2;240.39190244656962
417;417;1449489769;2.2485003471400002;1.06853950024;0.0676252394915;2;True;27;2;240.39190244656962
418;418;1449489769;2.24855208397;1.0687835216500001;0.06758450716730001;2;True;27;2;240.39190244656962
419;419;1449489769;2.24845314026;1.06873357296;0.0677440091968;2;True;27;2;240.39190244656962
420;420;1449489769;2.24839377403;1.06872546673;0.0677844062448;2;True;27;2;240.39190244656962
421;421;1449489769;2.24839711189;1.06862294674;0.0678105354309;2;True;27;2;240.39190244656962
422;422;1449489769;2.2483441829700004;1.06867182255;0.067820802331;2;True;27;2;240.39190244656962
423;423;1449489769;2.24833202362;1.06861901283;0.0677884742618;2;True;27;2;240.39190244656962
424;424;1449489769;2.24855566025;1.06867170334;0.0675620958209;2;True;27;2;240.39190244656962
425;425;1449489769;2.24833750725;1.06848144531;0.0677540823817;2;True;27;2;240.39190244656962
426;426;1449489769;2.24840426445;1.0686228275299998;0.0678042918444;2;True;27;2;240.39190244656962
427;427;1449489769;2.24834322929;1.06864380836;0.0677610635757;2;True;27;2;240.39190244656962
428;428;1449489769;2.24852752686;1.06876957417;0.06761011481290001;2;True;27;2;240.39190244656962
429;429;1449489769;2.24847984314;1.0685473680500002;0.0676306113601;2;True;27;2;240.39190244656962
430;430;1449489769;2.24848985672;1.06881451607;0.0676469355822;2;True;27;2;240.39190244656962
431;431;1449489769;2.2483022213;1.06860280037;0.06775800883769999;2;True;27;2;240.39190244656962
432;432;1449489769;2.24845337868;1.06862592697;0.0676816925406;2;True;27;2;240.39190244656962
433;433;1449489769;2.2485115528099997;1.0687928199799999;0.0676504969597;2;True;27;2;240.39190244656962
434;434;1449489769;2.24835109711;1.06882345676;0.0678490251303;2;True;27;2;240.39190244656962
435;435;1449489769;2.24845170975;1.0687651634200002;0.0677326396108;2;True;27;2;240.39190244656962
436;436;1449489769;2.2485096454599995;1.0688604116399998;0.0676530376077;2;True;27;2;240.39190244656962
437;437;1449489769;2.2483558654799998;1.06849491596;0.0677387416363;2;True;27;2;240.39190244656962
438;438;1449489769;2.24846696854;1.06851625443;0.06760021299119999;2;True;27;2;240.39190244656962
439;439;1449489769;2.24850440025;1.0685682296799999;0.06760622560980001;2;True;27;2;240.39190244656962
440;440;1449489769;2.24835276604;1.0684876442;0.0677628740668;2;True;27;2;240.39190244656962
441;441;1449489769;2.2483830452;1.06865274906;0.06779587268830001;2;True;27;2;240.39190244656962
442;442;1449489769;2.24854254723;1.06876111031;0.06755773723130001;2;True;27;2;240.39190244656962
443;443;1449489769;2.2484433651;1.0687972307200002;0.0676780492067;2;True;27;2;240.39190244656962
444;444;1449489769;2.24819946289;1.0685642957700001;0.0679318681359;2;True;27;2;240.39190244656962
445;445;1449489769;2.24830102921;1.06855285168;0.0677720457315;2;True;27;2;240.39190244656962
446;446;1449489769;2.24855017662;1.0688266754200002;0.06769889593119999;2;True;27;2;240.39190244656962
447;447;1449489769;2.2483847141299997;1.06856870651;0.0677983760834;2;True;27;2;240.39190244656962
448;448;1449489769;2.24831366539;1.06860387325;0.0678416490555;2;True;27;2;240.39190244656962
449;449;1449489769;2.2484345436099997;1.068759799;0.067740611732;2;True;27;2;240.39190244656962
450;450;1449489769;2.24835062027;1.06861400604;0.0677795559168;2;True;27;2;240.39190244656962
451;451;1449489769;2.2485361099200003;1.06883466244;0.0676003843546;2;True;27;2;240.39190244656962
452;452;1449489769;2.2484586238900004;1.06857180595;0.067640081048;2;True;27;2;240.39190244656962
453;453;1449489769;2.24846529961;1.0685294866600001;0.06763909012080001;2;True;27;2;240.39190244656962
454;454;1449489769;2.2482535839099995;1.0687633752799999;0.0677907690406;2;True;27;2;240.39190244656962
455;455;1449489769;2.24830007553;1.06857633591;0.0677905529737;2;True;27;2;240.39190244656962
456;456;1449489769;2.24852657318;1.0687521696100002;0.06755620241169999;2;True;27;2;240.39190244656962
457;457;1449489769;2.2483019828799997;1.06859922409;0.067784011364;2;True;27;2;240.39190244656962
458;458;1449489769;2.24849295616;1.06864237785;0.0676184147596;2;True;27;2;240.39190244656962
459;459;1449489769;2.24833989143;1.0686228275299998;0.0678516700864;2;True;27;2;240.39190244656962
460;460;1449489769;2.24849963188;1.0688250064799998;0.06763315200810001;2;True;27;2;240.39190244656962
461;461;1449489769;2.24843335152;1.06870567799;0.0676625594497;2;True;27;2;240.39190244656962
462;462;1449489769;2.24832439423;1.06866574287;0.0677482709289;2;True;27;2;240.39190244656962
463;463;1449489769;2.24827384949;1.06849205494;0.0677769109607;2;True;27;2;240.39190244656962
464;464;1449489769;2.2484865188599996;1.0689967870700001;0.0677618607879;2;True;27;2;240.39190244656962
465;465;1449489769;2.24829077721;1.06852483749;0.067783460021;2;True;27;2;240.39190244656962
466;466;1449489769;2.2484850883500003;1.0688018798799999;0.0677251443267;2;True;27;2;240.39190244656962
467;467;1449489769;2.24838042259;1.06859195232;0.06769987195730001;2;True;27;2;240.39190244656962
468;468;1449489769;2.24833917618;1.06849718094;0.0677537843585;2;True;27;2;240.39190244656962
469;469;1449489769;2.2483713626900004;1.06863927841;0.0677216649055;2;True;27;2;240.39190244656962
470;470;1449489769;2.24845099449;1.0685245990799999;0.06759697198869999;2;True;27;2;240.39190244656962
471;471;1449489769;2.24843931198;1.0687928199799999;0.0677117928863;2;True;27;2;240.39190244656962
472;472;1449489769;2.2484707832299997;1.06869614124;0.0676180794835;2;True;27;2;240.39190244656962
473;473;1449489769;2.24828529358;1.06852483749;0.0677919313312;2;True;27;2;240.39190244656962
474;474;1449489769;2.2483315467800002;1.06848466396;0.0677664354444;2;True;27;2;240.39190244656962
475;475;1449489769;2.24835348129;1.06871163845;0.0677427202463;2;True;27;2;240.39190244656962
476;476;1449489769;2.24844527245;1.0687391758;0.06773319095369999;2;True;27;2;240.39190244656962
477;477;1449489769;2.2483332157099998;1.06862163544;0.067834854126;2;True;27;2;240.39190244656962
478;478;1449489769;2.2485098838799997;1.06858992577;0.06758723407980001;2;True;27;2;240.39190244656962
479;479;1449489769;2.2482814788799996;1.06872534752;0.0678873285651;2;True;27;2;240.39190244656962
480;480;1449489769;2.2484283447299998;1.06870043278;0.0677937418222;2;True;27;2;240.39190244656962
481;481;1449489770;2.24831199646;1.0684491396;0.0677692294121;3;True;27;2;240.39190244656962
482;482;1449489770;2.2482931613900003;1.06854653358;0.0678079724312;3;True;27;2;240.39190244656962
483;483;1449489770;2.2484905719799997;1.06882822514;0.0676378756762;3;True;27;2;240.39190244656962
484;484;1449489770;2.2485203743;1.06876945496;0.0676092505455;3;True;27;2;240.39190244656962
485;485;1449489770;2.24832892418;1.0688393116;0.0678296238184;3;True;27;2;240.39190244656962
486;486;1449489770;2.24832010269;1.06862163544;0.0678347274661;3;True;27;2;240.39190244656962
487;487;1449489770;2.24857592583;1.06895983219;0.067580550909;3;True;27;2;240.39190244656962
488;488;1449489770;2.24847507477;1.0685428381;0.067630186677;3;True;27;2;240.39190244656962
489;489;1449489770;2.2483139038099997;1.06858766079;0.067779302597;3;True;27;2;240.39190244656962
490;490;1449489770;2.2483689785;1.06864988804;0.0678256005049;3;True;27;2;240.39190244656962
491;491;1449489770;2.24849200249;1.06881964207;0.0676448494196;3;True;27;2;240.39190244656962
492;492;1449489770;2.24853944778;1.0687922239299998;0.0675888434052;3;True;27;2;240.39190244656962
493;493;1449489770;2.2484469413799997;1.0687543153799999;0.06773792207240001;3;True;27;2;240.39190244656962
494;494;1449489770;2.2482612133;1.06866753101;0.0678814426064;3;True;27;2;240.39190244656962
495;495;1449489770;2.2485532760599996;1.0687713623000001;0.06757046282290001;3;True;27;2;240.39190244656962
496;496;1449489770;2.24829864502;1.06850779057;0.0677849203348;3;True;27;2;240.39190244656962
497;497;1449489770;2.24839615822;1.06874763966;0.0677764415741;3;True;27;2;240.39190244656962
498;498;1449489770;2.2484965324400004;1.06883847713;0.0676460787654;3;True;27;2;240.39190244656962
499;499;1449489770;2.2483587265000002;1.06875538826;0.067771114409;3;True;27;2;240.39190244656962
500;500;1449489770;2.24849891663;1.06883192062;0.0676375031471;3;True;27;2;240.39190244656962
501;501;1449489770;2.24827575684;1.0687195062600001;0.06796970963480001;3;True;27;2;240.39190244656962
502;502;1449489770;2.2483382225;1.0686339139899999;0.0678346008062;3;True;27;2;240.39190244656962
503;503;1449489770;2.24847698212;1.0689811706499999;0.0677682831883;3;True;27;2;240.39190244656962
504;504;1449489770;2.2483985424;1.0687212944;0.0678059235215;3;True;27;2;240.39190244656962
505;505;1449489770;2.24831223488;1.06867051125;0.0678075775504;3;True;27;2;240.39190244656962
506;506;1449489770;2.24853634834;1.06869578362;0.0675839260221;3;True;27;2;240.39190244656962
507;507;1449489770;2.24817991257;1.06841027737;0.06786984205249999;3;True;27;2;240.39190244656962
508;508;1449489770;2.24854803085;1.06866037846;0.06757933646440001;3;True;27;2;240.39190244656962
509;509;1449489770;2.24849939346;1.06877934933;0.06791421771049999;3;True;27;2;240.39190244656962
510;510;1449489770;2.2484536171;1.0686019659000001;0.0676773190498;3;True;27;2;240.39190244656962
511;511;1449489770;2.2482244968400003;1.0685020685200002;0.0679221972823;3;True;27;2;240.39190244656962
512;512;1449489770;2.24855995178;1.06880795956;0.06757420301440001;3;True;27;2;240.39190244656962
513;513;1449489770;2.24847054482;1.06852340698;0.06765332818030001;3;True;27;2;240.39190244656962
514;514;1449489770;2.24846816063;1.06877684593;0.0676664486527;3;True;27;2;240.39190244656962
515;515;1449489770;2.24829602242;1.0685871839499999;0.0677999854088;3;True;27;2;240.39190244656962
516;516;1449489770;2.24843263626;1.06872022152;0.0676918104291;3;True;27;2;240.39190244656962
517;517;1449489770;2.24854683876;1.06866598129;0.06757047027350001;3;True;27;2;240.39190244656962
518;518;1449489770;2.24833130836;1.06862103939;0.0677930116653;3;True;27;2;240.39190244656962
519;519;1449489770;2.24832749367;1.06859660149;0.0678000003099;3;True;27;2;240.39190244656962
520;520;1449489770;2.24830412865;1.0685801506000001;0.0677591338754;3;True;27;2;240.39190244656962
521;521;1449489770;2.24821233749;1.06866717339;0.0680184215307;3;True;27;2;240.39190244656962
522;522;1449489770;2.24848222733;1.06856453419;0.067625887692;3;True;27;2;240.39190244656962
523;523;1449489770;2.24839234352;1.0687342882200002;0.0677850991488;3;True;27;2;240.39190244656962
524;524;1449489770;2.24850392342;1.06858301163;0.0676047131419;3;True;27;2;240.39190244656962
525;525;1449489770;2.2483251094799996;1.06865417957;0.0678467825055;3;True;27;2;240.39190244656962
526;526;1449489770;2.24842023849;1.06848180294;0.067648075521;3;True;27;2;240.39190244656962
527;527;1449489770;2.2483112812;1.06851994991;0.0677874311805;3;True;27;2;240.39190244656962
528;528;1449489770;2.24853897095;1.0687631368600001;0.0675847306848;3;True;27;2;240.39190244656962
529;529;1449489770;2.2484102249099998;1.06865143776;0.0677057057619;3;True;27;2;240.39190244656962
530;530;1449489770;2.24832940102;1.06855785847;0.0677880942822;3;True;27;2;240.39190244656962
531;531;1449489770;2.2483463287400003;1.06848597527;0.0677598193288;3;True;27;2;240.39190244656962
532;532;1449489770;2.24845433235;1.06879985332;0.0677263587713;3;True;27;2;240.39190244656962
533;533;1449489770;2.24854278564;1.06883049011;0.0676217004657;3;True;27;2;240.39190244656962
534;534;1449489770;2.2484793663;1.0686234235799998;0.0676703974605;3;True;27;2;240.39190244656962
535;535;1449489770;2.24847269058;1.0687094926799998;0.06780876219269999;3;True;27;2;240.39190244656962
536;536;1449489770;2.24853229523;1.06874883175;0.0676564574242;3;True;27;2;240.39190244656962
537;537;1449489770;2.24835681915;1.06866133213;0.06774756312369999;3;True;27;2;240.39190244656962
538;538;1449489770;2.24841332436;1.06849932671;0.0676836445928;3;True;27;2;240.39190244656962
539;539;1449489770;2.2485580444299997;1.06879687309;0.0675774738193;3;True;27;2;240.39190244656962
540;540;1449489770;2.248513937;1.06857764721;0.06761309504509999;3;True;27;2;240.39190244656962
541;541;1449489770;2.24837350845;1.06863951683;0.0677373334765;3;True;27;2;240.39190244656962
542;542;1449489770;2.24848389626;1.0685553550700002;0.067633472383;3;True;27;2;240.39190244656962
543;543;1449489770;2.24845075607;1.06859135628;0.0676639601588;3;True;27;2;240.39190244656962
544;544;1449489770;2.24845600128;1.0685915947;0.0676674097776;3;True;27;2;240.39190244656962
545;545;1449489770;2.24854254723;1.06877875328;0.0676261261106;3;True;27;2;240.39190244656962
546;546;1449489770;2.2484979629499997;1.06866335869;0.0676737502217;3;True;27;2;240.39190244656962
547;547;1449489770;2.2483818531;1.0688656568500001;0.06784169375900001;3;True;27;2;240.39190244656962
548;548;1449489770;2.24857330322;1.0688878297799997;0.0676486641169;3;True;27;2;240.39190244656962
549;549;1449489770;2.2486600875900002;1.06891214848;0.0675970688462;3;True;27;2;240.39190244656962
550;550;1449489770;2.24839735031;1.0686019659000001;0.067762106657;3;True;27;2;240.39190244656962
551;551;1449489770;2.24831199646;1.06847012043;0.0678013041615;3;True;27;2;240.39190244656962
552;552;1449489770;2.2485845089;1.06892335415;0.06758837401869999;3;True;27;2;240.39190244656962
553;553;1449489770;2.24835205078;1.06869542599;0.06783901154989999;3;True;27;2;240.39190244656962
554;554;1449489770;2.2485058307599997;1.06891417503;0.0676921308041;3;True;27;2;240.39190244656962
555;555;1449489770;2.24846243858;1.06852507591;0.0676529929042;3;True;27;2;240.39190244656962
556;556;1449489770;2.2483797073400003;1.0685043335;0.067771628499;3;True;27;2;240.39190244656962
557;557;1449489770;2.24825501442;1.068759799;0.0678069218993;3;True;27;2;240.39190244656962
558;558;1449489770;2.2484612464900002;1.06850981712;0.06765562295909999;3;True;27;2;240.39190244656962
559;559;1449489770;2.24829077721;1.0685441493999999;0.0677851364017;3;True;27;2;240.39190244656962
560;560;1449489770;2.24845504761;1.068764925;0.0677318647504;3;True;27;2;240.39190244656962
561;561;1449489770;2.24834442139;1.06846046448;0.06772107630969999;3;True;27;2;240.39190244656962
562;562;1449489770;2.24853801727;1.06863057613;0.0675797313452;3;True;27;2;240.39190244656962
563;563;1449489770;2.24850296974;1.06886434555;0.067735247314;3;True;27;2;240.39190244656962
564;564;1449489770;2.24831581116;1.06849336624;0.0677898824215;3;True;27;2;240.39190244656962
565;565;1449489770;2.24840831757;1.06855869293;0.0677044987679;3;True;27;2;240.39190244656962
566;566;1449489770;2.24848937988;1.06873738766;0.0676743388176;3;True;27;2;240.39190244656962
567;567;1449489770;2.24850273132;1.06855988503;0.067615583539;3;True;27;2;240.39190244656962
568;568;1449489770;2.24837779999;1.06855094433;0.0677280500531;3;True;27;2;240.39190244656962
569;569;1449489770;2.24827337265;1.06854426861;0.0678003802896;3;True;27;2;240.39190244656962
570;570;1449489770;2.24845528603;1.06876552105;0.0677325129509;3;True;27;2;240.39190244656962
571;571;1449489770;2.2483196258500002;1.06861841679;0.06779310852289999;3;True;27;2;240.39190244656962
572;572;1449489770;2.2485537529;1.06880009174;0.0675644651055;3;True;27;2;240.39190244656962
573;573;1449489770;2.2484092712400003;1.06860280037;0.0676904395223;3;True;27;2;240.39190244656962
574;574;1449489770;2.2483601570099996;1.06844866276;0.06770730763669999;3;True;27;2;240.39190244656962
575;575;1449489770;2.24833512306;1.06861579418;0.067746296525;3;True;27;2;240.39190244656962
576;576;1449489770;2.24847912788;1.06870245934;0.0678198859096;3;True;27;2;240.39190244656962
577;577;1449489770;2.24849009514;1.06882810593;0.0677423328161;3;True;27;2;240.39190244656962
578;578;1449489770;2.24852108955;1.0687633752799999;0.0675779879093;3;True;27;2;240.39190244656962
579;579;1449489770;2.24853229523;1.06864118576;0.0675809755921;3;True;27;2;240.39190244656962
580;580;1449489770;2.24846100807;1.0687942504899999;0.0677036345005;3;True;27;2;240.39190244656962
581;581;1449489770;2.2484862804400003;1.06881940365;0.0676669031382;3;True;27;2;240.39190244656962
582;582;1449489770;2.24841713905;1.06847774982;0.0676732882857;3;True;27;2;240.39190244656962
583;583;1449489770;2.24840283394;1.06854534149;0.067709416151;3;True;27;2;240.39190244656962
584;584;1449489770;2.24835109711;1.06865000725;0.0678491145372;3;True;27;2;240.39190244656962
585;585;1449489770;2.2483949661300002;1.0686850547799998;0.0678031072021;3;True;27;2;240.39190244656962
586;586;1449489770;2.2484350204499997;1.06871688366;0.0676483213902;3;True;27;2;240.39190244656962
587;587;1449489770;2.2485315799700003;1.06865060329;0.0675871819258;3;True;27;2;240.39190244656962
588;588;1449489770;2.2485253810900003;1.0688408613200002;0.0676116943359;3;True;27;2;240.39190244656962
589;589;1449489770;2.24844431877;1.06850981712;0.0676640197635;3;True;27;2;240.39190244656962
590;590;1449489770;2.24834132195;1.06869351864;0.0678232684731;3;True;27;2;240.39190244656962
591;591;1449489770;2.2485330104799996;1.06884050369;0.0676748976111;3;True;27;2;240.39190244656962
592;592;1449489770;2.24853134155;1.06860876083;0.0676035508513;3;True;27;2;240.39190244656962
593;593;1449489770;2.2484023571000002;1.0686801672;0.067796766758;3;True;27;2;240.39190244656962
594;594;1449489770;2.24835681915;1.06864082813;0.0677484571934;3;True;27;2;240.39190244656962
595;595;1449489770;2.2484910488099996;1.06875908375;0.0676725283265;3;True;27;2;240.39190244656962
596;596;1449489770;2.24835324287;1.06865143776;0.0678506568074;3;True;27;2;240.39190244656962
597;597;1449489770;2.2483615875200003;1.0685415267899998;0.06777268648149999;3;True;27;2;240.39190244656962
598;598;1449489770;2.24849843979;1.06879675388;0.06768849492069999;3;True;27;2;240.39190244656962
599;599;1449489770;2.2483019828799997;1.06857514381;0.06778869777919999;3;True;27;2;240.39190244656962
600;600;1449489770;2.24857139587;1.06875443459;0.0675750225782;3;True;27;2;240.39190244656962
601;601;1449489770;2.24848008156;1.06875300407;0.06779335439209999;3;True;27;2;240.39190244656962
602;602;1449489770;2.2484488487200003;1.0687003135700002;0.0676753818989;3;True;27;2;240.39190244656962
603;603;1449489770;2.24849152565;1.0686686039;0.0676151439548;3;True;27;2;240.39190244656962
604;604;1449489770;2.2483761310599997;1.06851506233;0.0677124485373;3;True;27;2;240.39190244656962
605;605;1449489770;2.24849700928;1.06880903244;0.0676738470793;3;True;27;2;240.39190244656962
606;606;1449489770;2.24835801125;1.06869697571;0.0677869021893;3;True;27;2;240.39190244656962
607;607;1449489770;2.2481577396400003;1.06844460964;0.0679775103927;3;True;27;2;240.39190244656962
608;608;1449489770;2.24851465225;1.06873548031;0.0677498653531;3;True;27;2;240.39190244656962
609;609;1449489770;2.24836397171;1.06852090359;0.0677625834942;3;True;27;2;240.39190244656962
610;610;1449489770;2.24841618538;1.0685659647;0.06770687550309999;3;True;27;2;240.39190244656962
