;Unnamed: 0;header_stamp_secs;pose_position_x;pose_position_y;pose_position_z;seconds;drop_values;flight_number;label;dtw
0;0;1449490039;2.0583748817400003;1.02070701122;0.06576983630660001;0;True;29;2;191.96008753825015
1;1;1449490039;2.05828547478;1.02069759369;0.0658269077539;0;True;29;2;191.96008753825015
2;2;1449490039;2.0583863258400004;1.02069938183;0.0658284798265;0;True;29;2;191.96008753825015
3;3;1449490039;2.05829691887;1.0206637382500001;0.0658305063844;0;True;29;2;191.96008753825015
4;4;1449490039;2.05831646919;1.02065849304;0.0658073052764;0;True;29;2;191.96008753825015
5;5;1449490039;2.0584139823900003;1.02082717419;0.06575268507;0;True;29;2;191.96008753825015
6;6;1449490039;2.0582473278;1.02051985264;0.0657240748405;0;True;29;2;191.96008753825015
7;7;1449490039;2.05841469765;1.02063453197;0.0657152086496;0;True;29;2;191.96008753825015
8;8;1449490039;2.05835938454;1.0207217931700001;0.0657934099436;0;True;29;2;191.96008753825015
9;9;1449490039;2.05846858025;1.0208733081799999;0.0657796934247;0;True;29;2;191.96008753825015
10;10;1449490039;2.0584139823900003;1.02080929279;0.065754070878;0;True;29;2;191.96008753825015
11;11;1449490039;2.0584359169;1.02078175545;0.0657968074083;0;True;29;2;191.96008753825015
12;12;1449490039;2.05838918686;1.02058255672;0.0657095834613;0;True;29;2;191.96008753825015
13;13;1449490039;2.05843424797;1.0207785368;0.0656752809882;0;True;29;2;191.96008753825015
14;14;1449490039;2.05833959579;1.0205837488200002;0.0657739192247;0;True;29;2;191.96008753825015
15;15;1449490039;2.0582852363599997;1.02067017555;0.0657386481762;0;True;29;2;191.96008753825015
16;16;1449490039;2.05827260017;1.02049565315;0.0658308491111;0;True;29;2;191.96008753825015
17;17;1449490039;2.05832958221;1.0206696987200001;0.0657819807529;0;True;29;2;191.96008753825015
18;18;1449490039;2.05835700035;1.02069699764;0.0658164173365;0;True;29;2;191.96008753825015
19;19;1449490039;2.05826735497;1.0206288099299998;0.0658381432295;0;True;29;2;191.96008753825015
20;20;1449490039;2.05826830864;1.02060556412;0.06582822650669999;0;True;29;2;191.96008753825015
21;21;1449490039;2.05839705467;1.02051150799;0.0656644776464;0;True;29;2;191.96008753825015
22;22;1449490039;2.0584731102;1.02071857452;0.0656083226204;0;True;29;2;191.96008753825015
23;23;1449490039;2.05839323997;1.02070665359;0.0657760426402;0;True;29;2;191.96008753825015
24;24;1449490039;2.05819439888;1.0206277370499999;0.06580550968650001;0;True;29;2;191.96008753825015
25;25;1449490039;2.05838418007;1.0207098722499999;0.0657790750265;0;True;29;2;191.96008753825015
26;26;1449490039;2.05845451355;1.02067363262;0.0656604841352;0;True;29;2;191.96008753825015
27;27;1449490039;2.05824661255;1.02056455612;0.0658152401447;0;True;29;2;191.96008753825015
28;28;1449490039;2.05826830864;1.02059137821;0.0658272132277;0;True;29;2;191.96008753825015
29;29;1449490039;2.0584306716900005;1.02058088779;0.0656362399459;0;True;29;2;191.96008753825015
30;30;1449490039;2.05840587616;1.02068769932;0.0657184198499;0;True;29;2;191.96008753825015
31;31;1449490039;2.0584664344799997;1.02069509029;0.0656451433897;0;True;29;2;191.96008753825015
32;32;1449490039;2.05840682983;1.0204949379000001;0.0656703412533;0;True;29;2;191.96008753825015
33;33;1449490039;2.0583267211900003;1.0206997394600001;0.0658205002546;0;True;29;2;191.96008753825015
34;34;1449490039;2.05842089653;1.02076494694;0.0657073259354;0;True;29;2;191.96008753825015
35;35;1449490039;2.05822396278;1.02078378201;0.0659161061049;0;True;29;2;191.96008753825015
36;36;1449490039;2.0583524704;1.02072787285;0.0658350512385;0;True;29;2;191.96008753825015
37;37;1449490039;2.05826568604;1.02060246468;0.0657889991999;0;True;29;2;191.96008753825015
38;38;1449490039;2.05826401711;1.02074074745;0.0658278018236;0;True;29;2;191.96008753825015
39;39;1449490039;2.05836820602;1.0207051038700001;0.0657998546958;0;True;29;2;191.96008753825015
40;40;1449490039;2.05833292007;1.02069246769;0.0658206567168;0;True;29;2;191.96008753825015
41;41;1449490039;2.0583820343;1.02069544792;0.0658208057284;0;True;29;2;191.96008753825015
42;42;1449490039;2.0584897994999998;1.0209740400299998;0.06563039124009999;0;True;29;2;191.96008753825015
43;43;1449490039;2.05827140808;1.02044379711;0.06582684814930001;0;True;29;2;191.96008753825015
44;44;1449490039;2.05837607384;1.02079463005;0.0657231807709;0;True;29;2;191.96008753825015
45;45;1449490039;2.05823659897;1.02060520649;0.0658219903708;0;True;29;2;191.96008753825015
46;46;1449490039;2.058385849;1.0204832553899998;0.06566693633790001;0;True;29;2;191.96008753825015
47;47;1449490039;2.0583562851;1.02063775063;0.0658336207271;0;True;29;2;191.96008753825015
48;48;1449490039;2.05840969086;1.02065134048;0.0656589493155;0;True;29;2;191.96008753825015
49;49;1449490039;2.05837059021;1.02071976662;0.06583099812269999;0;True;29;2;191.96008753825015
50;50;1449490039;2.05831027031;1.02069413662;0.0658017545938;0;True;29;2;191.96008753825015
51;51;1449490039;2.05827260017;1.0203726291700002;0.0658107697964;0;True;29;2;191.96008753825015
52;52;1449490039;2.05746769905;1.02163004875;0.0651083290577;0;True;29;2;191.96008753825015
53;53;1449490039;2.05833888054;1.0206719636900001;0.0658219456673;0;True;29;2;191.96008753825015
54;54;1449490039;2.0582921505000003;1.02081823349;0.06579118222;0;True;29;2;191.96008753825015
55;55;1449490039;2.05830693245;1.0206445455600002;0.0658034458756;0;True;29;2;191.96008753825015
56;56;1449490039;2.0583190918;1.0206818580600001;0.0658272504807;0;True;29;2;191.96008753825015
57;57;1449490039;2.05839586258;1.0204719305;0.06565754860640001;0;True;29;2;191.96008753825015
58;58;1449490039;2.05845665932;1.02074611187;0.0656438916922;0;True;29;2;191.96008753825015
59;59;1449490039;2.05822730064;1.0206875801100002;0.0658429041505;0;True;29;2;191.96008753825015
60;60;1449490039;2.05844402313;1.02073311806;0.065690279007;0;True;29;2;191.96008753825015
61;61;1449490039;2.05837893486;1.02068948746;0.0657899454236;0;True;29;2;191.96008753825015
62;62;1449490039;2.05830526352;1.0208107233;0.0658553317189;0;True;29;2;191.96008753825015
63;63;1449490039;2.0582599639900003;1.02064907551;0.065785638988;0;True;29;2;191.96008753825015
64;64;1449490039;2.05820274353;1.02049064636;0.0659360960126;0;True;29;2;191.96008753825015
65;65;1449490039;2.0584027767200004;1.0206832885700001;0.0657114461064;0;True;29;2;191.96008753825015
66;66;1449490039;2.0583238601700002;1.02067768574;0.0658172369003;0;True;29;2;191.96008753825015
67;67;1449490039;2.05836439133;1.0207430124299999;0.06581060588359999;0;True;29;2;191.96008753825015
68;68;1449490039;2.05815935135;1.02039825916;0.0658791661263;0;True;29;2;191.96008753825015
69;69;1449490039;2.05833530426;1.02074456215;0.065834030509;0;True;29;2;191.96008753825015
70;70;1449490039;2.05848622322;1.02076172829;0.0656271129847;0;True;29;2;191.96008753825015
71;71;1449490039;2.05836462975;1.0207645893100001;0.06574267148969999;0;True;29;2;191.96008753825015
72;72;1449490039;2.05828809738;1.02073597908;0.0658209845424;0;True;29;2;191.96008753825015
73;73;1449490039;2.05804371834;1.02113628387;0.06577240675689999;0;True;29;2;191.96008753825015
74;74;1449490039;2.0582163333900003;1.02076613903;0.0659913644195;0;True;29;2;191.96008753825015
75;75;1449490039;2.05834507942;1.02071523666;0.0658206045628;0;True;29;2;191.96008753825015
76;76;1449490039;2.05834531784;1.0207087993600001;0.0658234506845;0;True;29;2;191.96008753825015
77;77;1449490039;2.05832839012;1.0206515789;0.0657893195748;0;True;29;2;191.96008753825015
78;78;1449490039;2.0583081245400003;1.02072644234;0.06583761423830001;0;True;29;2;191.96008753825015
79;79;1449490039;2.0582733154299997;1.0206001997;0.0658342987299;0;True;29;2;191.96008753825015
80;80;1449490039;2.058334589;1.0206121206299998;0.0657611936331;0;True;29;2;191.96008753825015
81;81;1449490039;2.05833315849;1.02052199841;0.06575354188680001;0;True;29;2;191.96008753825015
82;82;1449490039;2.05838441849;1.0205196142200001;0.0656890720129;0;True;29;2;191.96008753825015
83;83;1449490039;2.05831980705;1.02063119411;0.0658344626427;0;True;29;2;191.96008753825015
84;84;1449490039;2.05828619003;1.02046477795;0.06580313295130001;0;True;29;2;191.96008753825015
85;85;1449490039;2.05829763412;1.02059352398;0.0658346265554;0;True;29;2;191.96008753825015
86;86;1449490039;2.0584025383;1.02069664001;0.0658207684755;0;True;29;2;191.96008753825015
87;87;1449490039;2.0584013462099997;1.0207135677299999;0.0658230856061;0;True;29;2;191.96008753825015
88;88;1449490039;2.05838441849;1.02069437504;0.065768443048;0;True;29;2;191.96008753825015
89;89;1449490039;2.0582416057599997;1.02087342739;0.06590250134469999;0;True;29;2;191.96008753825015
90;90;1449490039;2.05839705467;1.02072429657;0.06582384556530001;0;True;29;2;191.96008753825015
91;91;1449490039;2.05829882622;1.0205973386799998;0.0658216923475;0;True;29;2;191.96008753825015
92;92;1449490039;2.05843424797;1.02068340778;0.0657956898212;0;True;29;2;191.96008753825015
93;93;1449490039;2.05844807625;1.02076196671;0.0658003911376;0;True;29;2;191.96008753825015
94;94;1449490039;2.0582489967299997;1.0206820964799999;0.0658002719283;0;True;29;2;191.96008753825015
95;95;1449490039;2.0584001541099997;1.02070558071;0.0657500848174;0;True;29;2;191.96008753825015
96;96;1449490039;2.05838489532;1.0207773447;0.06579747051;0;True;29;2;191.96008753825015
97;97;1449490039;2.05846524239;1.0206389427200002;0.0656370073557;0;True;29;2;191.96008753825015
98;98;1449490039;2.0584769249;1.0207667350799998;0.0656525939703;0;True;29;2;191.96008753825015
99;99;1449490039;2.05829811096;1.0207824707;0.06570859998459999;0;True;29;2;191.96008753825015
100;100;1449490039;2.0583460331;1.02075016499;0.06576072424650001;0;True;29;2;191.96008753825015
101;101;1449490039;2.0583436489099998;1.0207550525700002;0.06579663604500001;0;True;29;2;191.96008753825015
102;102;1449490039;2.0584506988499998;1.02076554298;0.06579679995780001;0;True;29;2;191.96008753825015
103;103;1449490039;2.05855464935;1.02088809013;0.0656250417233;0;True;29;2;191.96008753825015
104;104;1449490039;2.05830645561;1.02055907249;0.0658443719149;0;True;29;2;191.96008753825015
105;105;1449490039;2.0579655170400004;1.0208467245100001;0.0658564865589;0;True;29;2;191.96008753825015
106;106;1449490039;2.05825853348;1.02068018913;0.0658109635115;0;True;29;2;191.96008753825015
107;107;1449490039;2.05833721161;1.02070128918;0.0658067539334;0;True;29;2;191.96008753825015
108;108;1449490039;2.0582571029700003;1.02037918568;0.0658041834831;0;True;29;2;191.96008753825015
109;109;1449490039;2.05828166008;1.02064824104;0.0658209696412;0;True;29;2;191.96008753825015
110;110;1449490039;2.05831336975;1.0206912756;0.0658213421702;0;True;29;2;191.96008753825015
111;111;1449490039;2.05830597878;1.0205324888200002;0.0658147856593;0;True;29;2;191.96008753825015
112;112;1449490039;2.05828547478;1.0204478502299998;0.0657921209931;0;True;29;2;191.96008753825015
113;113;1449490039;2.058344841;1.02075052261;0.0658030286431;0;True;29;2;191.96008753825015
114;114;1449490039;2.05835986137;1.02071774006;0.0658062770963;0;True;29;2;191.96008753825015
115;115;1449490039;2.05821895599;1.0207233429;0.0659095421433;0;True;29;2;191.96008753825015
116;116;1449490039;2.05843114853;1.02077281475;0.0658082962036;0;True;29;2;191.96008753825015
117;117;1449490039;2.05836844444;1.02064931393;0.0658225864172;0;True;29;2;191.96008753825015
118;118;1449490039;2.05835390091;1.02066338062;0.0657975152135;0;True;29;2;191.96008753825015
119;119;1449490039;2.0583815574599997;1.02073192596;0.0657969862223;0;True;29;2;191.96008753825015
120;120;1449490039;2.05847334862;1.02071130276;0.0656617879868;0;True;29;2;191.96008753825015
121;121;1449490039;2.0584795475;1.02091383934;0.0656639933586;0;True;29;2;191.96008753825015
122;122;1449490039;2.0584609508500002;1.0206193924;0.0656300857663;0;True;29;2;191.96008753825015
123;123;1449490039;2.0584638118700003;1.02078866959;0.06568980962040001;0;True;29;2;191.96008753825015
124;124;1449490039;2.0583169460299997;1.0206217765799999;0.0658227428794;0;True;29;2;191.96008753825015
125;125;1449490039;2.05810165405;1.0205103159;0.0660138577223;0;True;29;2;191.96008753825015
126;126;1449490039;2.05832624435;1.02079391479;0.0658305212855;0;True;29;2;191.96008753825015
127;127;1449490039;2.05842494965;1.0208193063700002;0.0657585337758;0;True;29;2;191.96008753825015
128;128;1449490039;2.0583517551400003;1.02067279816;0.0658109635115;0;True;29;2;191.96008753825015
129;129;1449490039;2.0583400726299996;1.02066850662;0.0657595694065;0;True;29;2;191.96008753825015
130;130;1449490039;2.0584332943;1.02060842514;0.06565944105390001;0;True;29;2;191.96008753825015
131;131;1449490039;2.0582368373900004;1.02056109905;0.0658509284258;0;True;29;2;191.96008753825015
132;132;1449490039;2.05824232101;1.02069079876;0.0658603683114;0;True;29;2;191.96008753825015
133;133;1449490039;2.05831170082;1.0207234620999999;0.06583020091059999;0;True;29;2;191.96008753825015
134;134;1449490039;2.0583729744;1.0207149982500001;0.0658098161221;0;True;29;2;191.96008753825015
135;135;1449490039;2.05836892128;1.02073943615;0.06579812616109999;0;True;29;2;191.96008753825015
136;136;1449490039;2.05843639374;1.0207880735400001;0.0657645091414;0;True;29;2;191.96008753825015
137;137;1449490039;2.05831837654;1.0206469297399998;0.06583829969169999;0;True;29;2;191.96008753825015
138;138;1449490039;2.05838489532;1.0207039117799999;0.0658214539289;0;True;29;2;191.96008753825015
139;139;1449490039;2.05827498436;1.02067351341;0.0658211484551;0;True;29;2;191.96008753825015
140;140;1449490039;2.05828642845;1.02065432072;0.06583777070050001;0;True;29;2;191.96008753825015
141;141;1449490039;2.0583426952400004;1.0206623077399999;0.06582189351319999;0;True;29;2;191.96008753825015
142;142;1449490039;2.0582985878;1.0206314325299999;0.0658612474799;0;True;29;2;191.96008753825015
143;143;1449490039;2.05848908424;1.02092862129;0.0656494274735;0;True;29;2;191.96008753825015
144;144;1449490039;2.05828785896;1.02066099644;0.0658389180899;0;True;29;2;191.96008753825015
145;145;1449490039;2.0583004951499997;1.02065908909;0.0658299252391;0;True;29;2;191.96008753825015
146;146;1449490039;2.05823469162;1.02061522007;0.06585606932640001;0;True;29;2;191.96008753825015
147;147;1449490039;2.0582652092;1.02061676979;0.0658167228103;0;True;29;2;191.96008753825015
148;148;1449490039;2.05828690529;1.02080714703;0.0658184960485;0;True;29;2;191.96008753825015
149;149;1449490039;2.05829524994;1.02067363262;0.0658246651292;0;True;29;2;191.96008753825015
150;150;1449490039;2.0584487915;1.02074587345;0.0657644569874;0;True;29;2;191.96008753825015
151;151;1449490039;2.0584597587599998;1.02078282833;0.0657068863511;0;True;29;2;191.96008753825015
152;152;1449490039;2.05843639374;1.02084219456;0.0657703354955;0;True;29;2;191.96008753825015
153;153;1449490039;2.0583121776599995;1.02068305016;0.065827280283;0;True;29;2;191.96008753825015
154;154;1449490039;2.0583422184;1.0207337141;0.0658585205674;0;True;29;2;191.96008753825015
155;155;1449490039;2.05844950676;1.0205793380700001;0.0656264573336;0;True;29;2;191.96008753825015
156;156;1449490039;2.05833101273;1.02067923546;0.06580872088669999;0;True;29;2;191.96008753825015
157;157;1449490039;2.0584187507599996;1.02081406116;0.0657280609012;0;True;29;2;191.96008753825015
158;158;1449490039;2.05829811096;1.0206648111299998;0.0658400654793;0;True;29;2;191.96008753825015
159;159;1449490039;2.05835795403;1.02073585987;0.0658079385757;0;True;29;2;191.96008753825015
160;160;1449490039;2.05846309662;1.02063798904;0.065632507205;0;True;29;2;191.96008753825015
161;161;1449490039;2.0582995414700003;1.02081859112;0.0657761096954;0;True;29;2;191.96008753825015
162;162;1449490039;2.05844974518;1.02079951763;0.0656836926937;0;True;29;2;191.96008753825015
163;163;1449490039;2.05828356743;1.02068889141;0.0658214241266;0;True;29;2;191.96008753825015
164;164;1449490039;2.0583124160799997;1.02065098286;0.06584812700749999;0;True;29;2;191.96008753825015
165;165;1449490039;2.05849504471;1.0207551717799999;0.0656369328499;0;True;29;2;191.96008753825015
166;166;1449490039;2.05848431587;1.02079415321;0.06566952914;0;True;29;2;191.96008753825015
167;167;1449490039;2.05842041969;1.02068710327;0.0658331289887;0;True;29;2;191.96008753825015
168;168;1449490039;2.05826187134;1.02070188522;0.06582707166669999;0;True;29;2;191.96008753825015
169;169;1449490039;2.0583024025;1.02060830593;0.0657580420375;0;True;29;2;191.96008753825015
170;170;1449490039;2.05830144882;1.02065312862;0.0658347606659;0;True;29;2;191.96008753825015
171;171;1449490039;2.05827140808;1.02071475983;0.0658333525062;0;True;29;2;191.96008753825015
172;172;1449490039;2.05836391449;1.02074110508;0.0657981932163;0;True;29;2;191.96008753825015
173;173;1449490039;2.05838036537;1.02071762085;0.0657868683338;0;True;29;2;191.96008753825015
174;174;1449490039;2.0583312511400003;1.0205897092799998;0.06574852019550001;0;True;29;2;191.96008753825015
175;175;1449490039;2.0582606792400004;1.02039813995;0.06581015884880001;0;True;29;2;191.96008753825015
176;176;1449490039;2.05837225914;1.0206789970399999;0.06581067293880001;0;True;29;2;191.96008753825015
177;177;1449490039;2.05841803551;1.02075612545;0.0658049657941;0;True;29;2;191.96008753825015
178;178;1449490039;2.05827879906;1.02052247524;0.0657897740602;0;True;29;2;191.96008753825015
179;179;1449490039;2.05832028389;1.0206353664399999;0.065828718245;0;True;29;2;191.96008753825015
180;180;1449490039;2.05836319923;1.0207448005700002;0.0658236816525;0;True;29;2;191.96008753825015
181;181;1449490039;2.0583090782199998;1.02066493034;0.0658274590969;0;True;29;2;191.96008753825015
182;182;1449490039;2.0583884716;1.0206745863;0.06570175290109999;0;True;29;2;191.96008753825015
183;183;1449490039;2.0583209991499998;1.02061021328;0.0658223628998;0;True;29;2;191.96008753825015
184;184;1449490039;2.05829071999;1.02061259747;0.0658230260015;0;True;29;2;191.96008753825015
185;185;1449490039;2.05830097198;1.02059018612;0.06582746654749999;0;True;29;2;191.96008753825015
186;186;1449490039;2.05829524994;1.02084517479;0.0658458471298;0;True;29;2;191.96008753825015
187;187;1449490039;2.05825638771;1.0206121206299998;0.0658835396171;0;True;29;2;191.96008753825015
188;188;1449490039;2.05838418007;1.02077579498;0.0657515153289;0;True;29;2;191.96008753825015
189;189;1449490039;2.05829691887;1.0206155776999999;0.065817758441;0;True;29;2;191.96008753825015
190;190;1449490039;2.0582742691;1.02058887482;0.06580762565140001;0;True;29;2;191.96008753825015
191;191;1449490039;2.0583751201599996;1.0206575393700001;0.0657371208072;0;True;29;2;191.96008753825015
192;192;1449490039;2.0583083629599996;1.0206743478799998;0.0658100396395;0;True;29;2;191.96008753825015
193;193;1449490039;2.05828666687;1.020809412;0.06580647081140001;0;True;29;2;191.96008753825015
194;194;1449490040;2.05828142166;1.02065968513;0.06580073386429999;1;True;29;2;191.96008753825015
195;195;1449490040;2.05826234818;1.02038729191;0.0657937973738;1;True;29;2;191.96008753825015
196;196;1449490040;2.05813598633;1.02072668076;0.0659086257219;1;True;29;2;191.96008753825015
197;197;1449490040;2.05836033821;1.02074050903;0.0657892674208;1;True;29;2;191.96008753825015
198;198;1449490040;2.05835366249;1.02069747448;0.06579884141680001;1;True;29;2;191.96008753825015
199;199;1449490040;2.0582847595200002;1.02074682713;0.0658085048199;1;True;29;2;191.96008753825015
200;200;1449490040;2.05822920799;1.02064573765;0.0657584965229;1;True;29;2;191.96008753825015
201;201;1449490040;2.05826997757;1.0207093954100002;0.0658172219992;1;True;29;2;191.96008753825015
202;202;1449490040;2.05829596519;1.02063691616;0.065775603056;1;True;29;2;191.96008753825015
203;203;1449490040;2.0583794117;1.0207015276;0.0658071041107;1;True;29;2;191.96008753825015
204;204;1449490040;2.05829763412;1.0206586122499999;0.0658136233687;1;True;29;2;191.96008753825015
205;205;1449490040;2.05819892883;1.02044761181;0.065840691328;1;True;29;2;191.96008753825015
206;206;1449490040;2.05829834938;1.0206608772299999;0.06578902900219999;1;True;29;2;191.96008753825015
207;207;1449490040;2.05838942528;1.0204538106899999;0.0656670928001;1;True;29;2;191.96008753825015
208;208;1449490040;2.05829834938;1.0205947160700002;0.06577843427659999;1;True;29;2;191.96008753825015
209;209;1449490040;2.05841135979;1.02080488205;0.0657531097531;1;True;29;2;191.96008753825015
210;210;1449490040;2.0583658218400003;1.02068769932;0.0657391622663;1;True;29;2;191.96008753825015
211;211;1449490040;2.0582678318000003;1.0204398632;0.065815217793;1;True;29;2;191.96008753825015
212;212;1449490040;2.0583217144;1.0207747220999999;0.065831258893;1;True;29;2;191.96008753825015
213;213;1449490040;2.05839204788;1.02069246769;0.0658317506313;1;True;29;2;191.96008753825015
214;214;1449490040;2.05843114853;1.02062761784;0.0656537413597;1;True;29;2;191.96008753825015
215;215;1449490040;2.0582613944999997;1.0206050872799999;0.06580606102940001;1;True;29;2;191.96008753825015
216;216;1449490040;2.05840206146;1.02068424225;0.0658279582858;1;True;29;2;191.96008753825015
217;217;1449490040;2.0583229064900004;1.02063214779;0.06578474491830001;1;True;29;2;191.96008753825015
218;218;1449490040;2.05827879906;1.02049160004;0.0657977759838;1;True;29;2;191.96008753825015
219;219;1449490040;2.05828928947;1.0206696987200001;0.06581863015890001;1;True;29;2;191.96008753825015
220;220;1449490040;2.0582909584;1.0206003189100001;0.065851919353;1;True;29;2;191.96008753825015
221;221;1449490040;2.05837607384;1.02074468136;0.06579715013500001;1;True;29;2;191.96008753825015
222;222;1449490040;2.05833315849;1.02066707611;0.0658013895154;1;True;29;2;191.96008753825015
223;223;1449490040;2.05847764015;1.0207436084700001;0.0656132623553;1;True;29;2;191.96008753825015
224;224;1449490040;2.0584535598800002;1.02084994316;0.0657562613487;1;True;29;2;191.96008753825015
225;225;1449490040;2.05826210976;1.02067470551;0.06586474180219999;1;True;29;2;191.96008753825015
226;226;1449490040;2.05815958977;1.0204218626000001;0.0660005509853;1;True;29;2;191.96008753825015
227;227;1449490040;2.05840063095;1.0206991434100001;0.0657501146197;1;True;29;2;191.96008753825015
228;228;1449490040;2.05828094482;1.02055454254;0.0657920613885;1;True;29;2;191.96008753825015
229;229;1449490040;2.05830574036;1.02060234547;0.0658295825124;1;True;29;2;191.96008753825015
230;230;1449490040;2.05840539932;1.02061676979;0.0657332018018;1;True;29;2;191.96008753825015
231;231;1449490040;2.05839347839;1.0207003355;0.06579233706;1;True;29;2;191.96008753825015
232;232;1449490040;2.05829191208;1.02068257332;0.065807133913;1;True;29;2;191.96008753825015
233;233;1449490040;2.0583288669599997;1.02074241638;0.065812587738;1;True;29;2;191.96008753825015
234;234;1449490040;2.05779600143;1.02092468739;0.0657099410892;1;True;29;2;191.96008753825015
235;235;1449490040;2.05836629868;1.02069187164;0.06565714627500001;1;True;29;2;191.96008753825015
236;236;1449490040;2.05849981308;1.02071917057;0.0656833425164;1;True;29;2;191.96008753825015
237;237;1449490040;2.05836248398;1.02070665359;0.06581626087430001;1;True;29;2;191.96008753825015
238;238;1449490040;2.05838465691;1.02069747448;0.0657980814576;1;True;29;2;191.96008753825015
239;239;1449490040;2.0582990646400003;1.0206130743000001;0.0657937899232;1;True;29;2;191.96008753825015
240;240;1449490040;2.0584552288099998;1.02058887482;0.0656227394938;1;True;29;2;191.96008753825015
241;241;1449490040;2.05835294724;1.0207226276399999;0.06582918763159999;1;True;29;2;191.96008753825015
242;242;1449490040;2.05830168724;1.02065205574;0.065814845264;1;True;29;2;191.96008753825015
243;243;1449490040;2.05833363533;1.0206190347700002;0.0658359155059;1;True;29;2;191.96008753825015
244;244;1449490040;2.0584161281599997;1.02068006992;0.065727442503;1;True;29;2;191.96008753825015
245;245;1449490040;2.0583763122599996;1.02068316936;0.0658050402999;1;True;29;2;191.96008753825015
246;246;1449490040;2.05841517448;1.02083778381;0.06570965796709999;1;True;29;2;191.96008753825015
247;247;1449490040;2.0584087371799997;1.02081596851;0.0657161697745;1;True;29;2;191.96008753825015
248;248;1449490040;2.05843281746;1.02072906494;0.0657047480345;1;True;29;2;191.96008753825015
249;249;1449490040;2.0582704544099997;1.0206227302600002;0.0658128932118;1;True;29;2;191.96008753825015
250;250;1449490040;2.05835390091;1.02059578896;0.0657070204616;1;True;29;2;191.96008753825015
251;251;1449490040;2.05825948715;1.0206938982;0.0658208653331;1;True;29;2;191.96008753825015
252;252;1449490040;2.05834102631;1.0206663608600002;0.0657986626029;1;True;29;2;191.96008753825015
253;253;1449490040;2.0582416057599997;1.0203794241;0.0657799988985;1;True;29;2;191.96008753825015
254;254;1449490040;2.0582935810099996;1.02068054676;0.0657787695527;1;True;29;2;191.96008753825015
255;255;1449490040;2.05834436417;1.02066862583;0.0657893419266;1;True;29;2;191.96008753825015
256;256;1449490040;2.0584256649;1.02073431015;0.0657820105553;1;True;29;2;191.96008753825015
257;257;1449490040;2.05825424194;1.020408988;0.0657968223095;1;True;29;2;191.96008753825015
258;258;1449490040;2.0584228038799997;1.02084410191;0.06571489572530001;1;True;29;2;191.96008753825015
259;259;1449490040;2.05833983421;1.02058243752;0.06577043980359999;1;True;29;2;191.96008753825015
260;260;1449490040;2.0584619045299997;1.02085781097;0.0656939223409;1;True;29;2;191.96008753825015
261;261;1449490040;2.05844306946;1.02077209949;0.0656572431326;1;True;29;2;191.96008753825015
262;262;1449490040;2.0582599639900003;1.02063655853;0.0660168379545;1;True;29;2;191.96008753825015
263;263;1449490040;2.0584635734599996;1.02121901512;0.06565804034469999;1;True;29;2;191.96008753825015
264;264;1449490040;2.0583956241599997;1.02070748806;0.0657635480165;1;True;29;2;191.96008753825015
265;265;1449490040;2.0583083629599996;1.0206723213200002;0.0658101737499;1;True;29;2;191.96008753825015
266;266;1449490040;2.05839896202;1.02064335346;0.0656645148993;1;True;29;2;191.96008753825015
267;267;1449490040;2.05843949318;1.02056014538;0.0656275004148;1;True;29;2;191.96008753825015
268;268;1449490040;2.05842757225;1.02076637745;0.0657781213522;1;True;29;2;191.96008753825015
269;269;1449490040;2.05830383301;1.02059817314;0.0657458677888;1;True;29;2;191.96008753825015
270;270;1449490040;2.0584623813599996;1.0207550525700002;0.0655867755413;1;True;29;2;191.96008753825015
271;271;1449490040;2.05826735497;1.0206489562999999;0.0657907649875;1;True;29;2;191.96008753825015
272;272;1449490040;2.0582818984999998;1.02054035664;0.06578043103219999;1;True;29;2;191.96008753825015
273;273;1449490040;2.0581386089300002;1.02036273479;0.0658603534102;1;True;29;2;191.96008753825015
274;274;1449490040;2.05827760696;1.02037799358;0.06578481197359999;1;True;29;2;191.96008753825015
275;275;1449490040;2.05808353424;1.02071237564;0.06573203951119999;1;True;29;2;191.96008753825015
276;276;1449490040;2.05844473839;1.02083098888;0.065702944994;1;True;29;2;191.96008753825015
277;277;1449490040;2.05843663216;1.0205657482100001;0.06564186513419999;1;True;29;2;191.96008753825015
278;278;1449490040;2.0580871105200003;1.0207974910700002;0.0659945085645;1;True;29;2;191.96008753825015
279;279;1449490040;2.05826640129;1.02061164379;0.06581427901980001;1;True;29;2;191.96008753825015
280;280;1449490040;2.05825805664;1.0204759836200001;0.0658086761832;1;True;29;2;191.96008753825015
281;281;1449490040;2.05839800835;1.02075338364;0.0657867491245;1;True;29;2;191.96008753825015
282;282;1449490040;2.05823159218;1.0206663608600002;0.0658586844802;1;True;29;2;191.96008753825015
283;283;1449490040;2.05839443207;1.0204834938;0.06564868241550001;1;True;29;2;191.96008753825015
284;284;1449490040;2.05835008621;1.02069342136;0.0658354535699;1;True;29;2;191.96008753825015
285;285;1449490040;2.05834579468;1.0206874609;0.0658041536808;1;True;29;2;191.96008753825015
286;286;1449490040;2.05844521523;1.0207631588;0.0656934976578;1;True;29;2;191.96008753825015
287;287;1449490040;2.05836081505;1.0206230878799998;0.0658214539289;1;True;29;2;191.96008753825015
288;288;1449490040;2.05828118324;1.0203961134000001;0.0658020228148;1;True;29;2;191.96008753825015
289;289;1449490040;2.0583050250999997;1.0206172466299999;0.0658266022801;1;True;29;2;191.96008753825015
290;290;1449490040;2.0583724975599997;1.0206744670899999;0.06579719483850001;1;True;29;2;191.96008753825015
291;291;1449490040;2.05846858025;1.02069592476;0.0656283050776;1;True;29;2;191.96008753825015
292;292;1449490040;2.05831170082;1.02069020271;0.06586104631419999;1;True;29;2;191.96008753825015
293;293;1449490040;2.05839681625;1.02070665359;0.0657711476088;1;True;29;2;191.96008753825015
294;294;1449490040;2.0584127903;1.02069449425;0.06581807136540001;1;True;29;2;191.96008753825015
295;295;1449490040;2.05831193924;1.02058684826;0.06580001860859999;1;True;29;2;191.96008753825015
296;296;1449490040;2.05842804909;1.02050220966;0.06565176695590001;1;True;29;2;191.96008753825015
297;297;1449490040;2.05806231499;1.0204859972;0.0660533756018;1;True;29;2;191.96008753825015
298;298;1449490040;2.0584199428599996;1.02071928978;0.06576814502480001;1;True;29;2;191.96008753825015
299;299;1449490040;2.05837798119;1.02069377899;0.0657726973295;1;True;29;2;191.96008753825015
300;300;1449490040;2.0583896637;1.02071022987;0.0658027082682;1;True;29;2;191.96008753825015
301;301;1449490040;2.05831599236;1.0206190347700002;0.06582849472760001;1;True;29;2;191.96008753825015
302;302;1449490040;2.05830669403;1.02077519894;0.0658678263426;1;True;29;2;191.96008753825015
303;303;1449490040;2.05836606026;1.02070105076;0.0658136159182;1;True;29;2;191.96008753825015
304;304;1449490040;2.05841350555;1.02071559429;0.06583014875649999;1;True;29;2;191.96008753825015
305;305;1449490040;2.05845093727;1.0205878019299999;0.0656411796808;1;True;29;2;191.96008753825015
306;306;1449490040;2.05849027634;1.02094316483;0.06566012650729999;1;True;29;2;191.96008753825015
307;307;1449490040;2.0582420826;1.0206170082100001;0.06582649052140001;1;True;29;2;191.96008753825015
308;308;1449490040;2.0582921505000003;1.02069664001;0.0659000426531;1;True;29;2;191.96008753825015
309;309;1449490040;2.05848670006;1.0207324028;0.0656509697437;1;True;29;2;191.96008753825015
310;310;1449490040;2.05837583542;1.02067780495;0.0657304227352;1;True;29;2;191.96008753825015
311;311;1449490040;2.0584161281599997;1.02076280117;0.0656830742955;1;True;29;2;191.96008753825015
312;312;1449490040;2.05830025673;1.0207300186200001;0.06580398231739999;1;True;29;2;191.96008753825015
313;313;1449490040;2.05828380585;1.02061057091;0.0658217743039;1;True;29;2;191.96008753825015
314;314;1449490040;2.05841088295;1.02079975605;0.06576047092680001;1;True;29;2;191.96008753825015
315;315;1449490040;2.05846691132;1.02078008652;0.06568027287719999;1;True;29;2;191.96008753825015
316;316;1449490040;2.05828332901;1.02067184448;0.06582200527189999;1;True;29;2;191.96008753825015
317;317;1449490040;2.0582852363599997;1.02073740959;0.0658054128289;1;True;29;2;191.96008753825015
318;318;1449490040;2.05844283104;1.02073442936;0.0656804442406;1;True;29;2;191.96008753825015
319;319;1449490040;2.05828118324;1.0205912590000001;0.06580064445730001;1;True;29;2;191.96008753825015
320;320;1449490040;2.05836033821;1.0206567049;0.0659585520625;1;True;29;2;191.96008753825015
321;321;1449490040;2.05833983421;1.02056515217;0.0658200457692;1;True;29;2;191.96008753825015
322;322;1449490040;2.05840063095;1.0204659700399998;0.0656906813383;1;True;29;2;191.96008753825015
323;323;1449490040;2.05847668648;1.0207067728;0.0656578987837;1;True;29;2;191.96008753825015
324;324;1449490040;2.05826616287;1.02058923244;0.0658812820911;1;True;29;2;191.96008753825015
325;325;1449490040;2.0584025383;1.02077317238;0.0657716318965;1;True;29;2;191.96008753825015
326;326;1449490040;2.0583987236000003;1.02068483829;0.0657543987036;1;True;29;2;191.96008753825015
327;327;1449490040;2.05833768845;1.0206769704799998;0.0658289119601;1;True;29;2;191.96008753825015
328;328;1449490040;2.05831718445;1.02078819275;0.0658334642649;1;True;29;2;191.96008753825015
329;329;1449490040;2.05827355385;1.02038669586;0.0658059716225;1;True;29;2;191.96008753825015
330;330;1449490040;2.0583240985900004;1.02068126202;0.0658381730318;1;True;29;2;191.96008753825015
331;331;1449490040;2.05807828903;1.0206961631799998;0.0659119412303;1;True;29;2;191.96008753825015
332;332;1449490040;2.0583949089099995;1.0206977129;0.0657870471478;1;True;29;2;191.96008753825015
333;333;1449490040;2.0584769249;1.0207054615;0.0656573846936;1;True;29;2;191.96008753825015
334;334;1449490040;2.05839371681;1.0206515789;0.06575150042769999;1;True;29;2;191.96008753825015
335;335;1449490040;2.0584173202500002;1.02048742771;0.06567103415730001;1;True;29;2;191.96008753825015
336;336;1449490040;2.0583717823;1.02069413662;0.06583653390409999;1;True;29;2;191.96008753825015
337;337;1449490040;2.05841255188;1.0207351446200001;0.06573878228659999;1;True;29;2;191.96008753825015
338;338;1449490040;2.05835151672;1.02074015141;0.06581369787449999;1;True;29;2;191.96008753825015
339;339;1449490040;2.05829739571;1.02041351795;0.0658022537827;1;True;29;2;191.96008753825015
340;340;1449490040;2.05825805664;1.02071917057;0.0658338963985;1;True;29;2;191.96008753825015
341;341;1449490040;2.05825638771;1.02059900761;0.0658503472805;1;True;29;2;191.96008753825015
342;342;1449490040;2.0584049224900003;1.02048885822;0.065670453012;1;True;29;2;191.96008753825015
343;343;1449490040;2.0582921505000003;1.02060568333;0.0658086538315;1;True;29;2;191.96008753825015
344;344;1449490040;2.05828404427;1.02057826519;0.06568621099;1;True;29;2;191.96008753825015
345;345;1449490040;2.0583434104900005;1.0206643343000001;0.0658088326454;1;True;29;2;191.96008753825015
346;346;1449490040;2.0586745739;1.0210703611399998;0.06625827401880001;1;True;29;2;191.96008753825015
347;347;1449490040;2.0584526062;1.02089357376;0.0657153129578;1;True;29;2;191.96008753825015
348;348;1449490040;2.05828857422;1.02058112621;0.0658186078072;1;True;29;2;191.96008753825015
349;349;1449490040;2.05838322639;1.02071201801;0.06579583138230001;1;True;29;2;191.96008753825015
350;350;1449490040;2.05832695961;1.02062904835;0.06575249880549999;1;True;29;2;191.96008753825015
351;351;1449490040;2.0583910942099997;1.02070748806;0.0658152997494;1;True;29;2;191.96008753825015
352;352;1449490040;2.05827760696;1.0207524299600002;0.0658056437969;1;True;29;2;191.96008753825015
353;353;1449490040;2.05828952789;1.02047133446;0.065806530416;1;True;29;2;191.96008753825015
354;354;1449490040;2.0582904815700003;1.02047252655;0.065802000463;1;True;29;2;191.96008753825015
355;355;1449490040;2.0583524704;1.0207054615;0.06580158323049999;1;True;29;2;191.96008753825015
356;356;1449490040;2.0583152771;1.02063119411;0.06580891460180001;1;True;29;2;191.96008753825015
357;357;1449490040;2.05833244324;1.02066886425;0.0657989382744;1;True;29;2;191.96008753825015
358;358;1449490040;2.0583386421200003;1.0207951068899999;0.06586802750830001;1;True;29;2;191.96008753825015
359;359;1449490040;2.05832624435;1.02065038681;0.06580048799510001;1;True;29;2;191.96008753825015
360;360;1449490040;2.05834031105;1.02059686184;0.0657238811255;1;True;29;2;191.96008753825015
361;361;1449490040;2.05844163895;1.02076816559;0.0656867921352;1;True;29;2;191.96008753825015
362;362;1449490040;2.05836820602;1.02063012123;0.065738812089;1;True;29;2;191.96008753825015
363;363;1449490040;2.05854010582;1.02088630199;0.0656156763434;1;True;29;2;191.96008753825015
364;364;1449490040;2.0584988594099998;1.02096021175;0.0656678080559;1;True;29;2;191.96008753825015
365;365;1449490040;2.05840587616;1.02068924904;0.065794415772;1;True;29;2;191.96008753825015
366;366;1449490040;2.0584001541099997;1.0212751626999998;0.06568549573419999;1;True;29;2;191.96008753825015
367;367;1449490040;2.05827617645;1.02071106434;0.0658080950379;1;True;29;2;191.96008753825015
368;368;1449490040;2.0582413673400004;1.02064239979;0.0656559243798;1;True;29;2;191.96008753825015
369;369;1449490040;2.05818128586;1.02085447311;0.0657025426626;1;True;29;2;191.96008753825015
370;370;1449490040;2.05843305588;1.0206987857799998;0.0657136142254;1;True;29;2;191.96008753825015
371;371;1449490040;2.0583481788599998;1.0207008123399999;0.06581024825569999;1;True;29;2;191.96008753825015
372;372;1449490040;2.05829453468;1.02059555054;0.0658151134849;1;True;29;2;191.96008753825015
373;373;1449490040;2.05844569206;1.0207079649;0.0658816993237;1;True;29;2;191.96008753825015
374;374;1449490040;2.0583238601700002;1.0206874609;0.065833196044;1;True;29;2;191.96008753825015
375;375;1449490040;2.05835223198;1.02068471909;0.06580491364;1;True;29;2;191.96008753825015
376;376;1449490040;2.05829024315;1.02058637142;0.06582390517000002;1;True;29;2;191.96008753825015
377;377;1449490040;2.05834293365;1.02073216438;0.0657397732139;1;True;29;2;191.96008753825015
378;378;1449490040;2.05832123756;1.02083528042;0.0657140091062;1;True;29;2;191.96008753825015
379;379;1449490040;2.0584359169;1.0206845998799998;0.065691575408;1;True;29;2;191.96008753825015
380;380;1449490040;2.0584969520599996;1.02093553543;0.0656308010221;1;True;29;2;191.96008753825015
381;381;1449490040;2.0583341121700003;1.02064466476;0.0658284723759;1;True;29;2;191.96008753825015
382;382;1449490040;2.05827260017;1.02061808109;0.065763771534;1;True;29;2;191.96008753825015
383;383;1449490040;2.0584619045299997;1.02083063126;0.0656571909785;1;True;29;2;191.96008753825015
384;384;1449490040;2.0584909915900003;1.02071404457;0.06594209373;1;True;29;2;191.96008753825015
385;385;1449490040;2.05837416649;1.02064239979;0.0658199042082;1;True;29;2;191.96008753825015
386;386;1449490040;2.05831122398;1.02061855793;0.0658257678151;1;True;29;2;191.96008753825015
387;387;1449490040;2.0582947731;1.02064824104;0.065807916224;1;True;29;2;191.96008753825015
388;388;1449490040;2.05833935738;1.02063012123;0.06580413877960001;1;True;29;2;191.96008753825015
389;389;1449490040;2.05830955505;1.02051866055;0.0658117979765;1;True;29;2;191.96008753825015
390;390;1449490040;2.058365345;1.02077138424;0.0657888874412;1;True;29;2;191.96008753825015
391;391;1449490040;2.0583081245400003;1.02067923546;0.0658119544387;1;True;29;2;191.96008753825015
392;392;1449490040;2.05827283859;1.02061629295;0.0658190920949;1;True;29;2;191.96008753825015
393;393;1449490040;2.05846834183;1.0206925868999999;0.0656373426318;1;True;29;2;191.96008753825015
394;394;1449490040;2.05837440491;1.0207153558700002;0.0657615810633;1;True;29;2;191.96008753825015
395;395;1449490040;2.05843400955;1.0207356214499999;0.06578958779569999;1;True;29;2;191.96008753825015
396;396;1449490040;2.0583379268599997;1.02067148685;0.0658140107989;1;True;29;2;191.96008753825015
397;397;1449490040;2.0584976673099997;1.02067828178;0.065907612443;1;True;29;2;191.96008753825015
398;398;1449490040;2.05844426155;1.02079582214;0.06578411906960001;1;True;29;2;191.96008753825015
399;399;1449490040;2.0584609508500002;1.02057528496;0.06562405079599999;1;True;29;2;191.96008753825015
400;400;1449490040;2.05832576752;1.02066767216;0.0658078193665;1;True;29;2;191.96008753825015
401;401;1449490040;2.05819654465;1.0204309225100001;0.0658413097262;1;True;29;2;191.96008753825015
402;402;1449490040;2.05822896957;1.0205060243600002;0.0658596381545;1;True;29;2;191.96008753825015
403;403;1449490040;2.0581045150799997;1.0208206176799999;0.0656388029456;1;True;29;2;191.96008753825015
404;404;1449490040;2.05828380585;1.0205790996600002;0.0657161325216;1;True;29;2;191.96008753825015
405;405;1449490040;2.05792665482;1.02058458328;0.0657007992268;1;True;29;2;191.96008753825015
406;406;1449490040;2.0584423542;1.02068853378;0.0658076927066;1;True;29;2;191.96008753825015
407;407;1449490040;2.05824494362;1.02062010765;0.0658045485616;1;True;29;2;191.96008753825015
408;408;1449490040;2.05831122398;1.0206743478799998;0.0658065378666;1;True;29;2;191.96008753825015
409;409;1449490040;2.0583074092900002;1.0206719636900001;0.06579623371360001;1;True;29;2;191.96008753825015
410;410;1449490040;2.05813169479;1.02043068409;0.06622287631030001;1;True;29;2;191.96008753825015
411;411;1449490040;2.05835986137;1.02074670792;0.0658056512475;1;True;29;2;191.96008753825015
412;412;1449490040;2.0581312179599998;1.02103364468;0.0654273405671;1;True;29;2;191.96008753825015
413;413;1449490040;2.05841970444;1.02066349983;0.0656981393695;1;True;29;2;191.96008753825015
414;414;1449490040;2.0584337711300003;1.02067530155;0.06571858376260001;1;True;29;2;191.96008753825015
415;415;1449490040;2.0584306716900005;1.02069652081;0.065817117691;1;True;29;2;191.96008753825015
416;416;1449490040;2.05840444565;1.02067768574;0.0657506510615;1;True;29;2;191.96008753825015
417;417;1449490040;2.05831122398;1.02057421207;0.0658240020275;1;True;29;2;191.96008753825015
418;418;1449490040;2.05851578712;1.02097475529;0.065661162138;1;True;29;2;191.96008753825015
419;419;1449490040;2.05840849876;1.02068424225;0.0658156871796;1;True;29;2;191.96008753825015
420;420;1449490040;2.05841088295;1.0204714536700001;0.0656552910805;1;True;29;2;191.96008753825015
421;421;1449490040;2.05842709541;1.0205744504899998;0.06566005945209999;1;True;29;2;191.96008753825015
422;422;1449490040;2.0583193302200002;1.0206601619700002;0.0658064782619;1;True;29;2;191.96008753825015
423;423;1449490040;2.058406353;1.02047097683;0.0656547024846;1;True;29;2;191.96008753825015
424;424;1449490040;2.05836629868;1.02065908909;0.0657925307751;1;True;29;2;191.96008753825015
425;425;1449490040;2.05836105347;1.0209324359899998;0.06569522619250001;1;True;29;2;191.96008753825015
426;426;1449490040;2.05843162537;1.02103483677;0.0656672641635;1;True;29;2;191.96008753825015
427;427;1449490040;2.0583214759799997;1.02068924904;0.0658231526613;1;True;29;2;191.96008753825015
428;428;1449490040;2.0583729744;1.02072906494;0.0657766386867;1;True;29;2;191.96008753825015
429;429;1449490040;2.05848026276;1.0212470293;0.0656538978219;1;True;29;2;191.96008753825015
430;430;1449490040;2.05827474594;1.0205085277600001;0.0658141598105;1;True;29;2;191.96008753825015
431;431;1449490040;2.05834174156;1.02066338062;0.0658027082682;1;True;29;2;191.96008753825015
432;432;1449490040;2.05835676193;1.02068853378;0.0657883509994;1;True;29;2;191.96008753825015
433;433;1449490040;2.05841517448;1.0206233263;0.0657347068191;1;True;29;2;191.96008753825015
434;434;1449490041;2.05826592445;1.02078735828;0.06588339805599999;2;True;29;2;191.96008753825015
435;435;1449490041;2.0582978725400003;1.02050542831;0.0658053606749;2;True;29;2;191.96008753825015
436;436;1449490041;2.0584001541099997;1.0206040144;0.0657137483358;2;True;29;2;191.96008753825015
437;437;1449490041;2.05835485458;1.02070856094;0.0657730400562;2;True;29;2;191.96008753825015
438;438;1449490041;2.0583951473199997;1.020657897;0.0657733380795;2;True;29;2;191.96008753825015
439;439;1449490041;2.0585706234;1.02121806145;0.0656855776906;2;True;29;2;191.96008753825015
440;440;1449490041;2.05828666687;1.02067816257;0.065884321928;2;True;29;2;191.96008753825015
441;441;1449490041;2.0582678318000003;1.02039527893;0.065785266459;2;True;29;2;191.96008753825015
442;442;1449490041;2.0584537982900004;1.02074563503;0.0657967478037;2;True;29;2;191.96008753825015
443;443;1449490041;2.0584814548500003;1.0207194089899998;0.0656210109591;2;True;29;2;191.96008753825015
444;444;1449490041;2.05828332901;1.02057135105;0.065795019269;2;True;29;2;191.96008753825015
445;445;1449490041;2.05830025673;1.02057337761;0.0658150166273;2;True;29;2;191.96008753825015
446;446;1449490041;2.0583314895599996;1.02064907551;0.0658223032951;2;True;29;2;191.96008753825015
447;447;1449490041;2.05845880508;1.02074205875;0.0656670555472;2;True;29;2;191.96008753825015
448;448;1449490041;2.0583629608200003;1.02064406872;0.0657461807132;2;True;29;2;191.96008753825015
449;449;1449490041;2.05838322639;1.02071511745;0.06574829667809999;2;True;29;2;191.96008753825015
450;450;1449490041;2.05840325356;1.02069687843;0.06582822650669999;2;True;29;2;191.96008753825015
451;451;1449490041;2.05836319923;1.0208414793;0.065765812993;2;True;29;2;191.96008753825015
452;452;1449490041;2.05842423439;1.02072799206;0.06582216173410001;2;True;29;2;191.96008753825015
453;453;1449490041;2.05836415291;1.02067494392;0.06576947867869999;2;True;29;2;191.96008753825015
454;454;1449490041;2.05828738213;1.02064418793;0.0658183544874;2;True;29;2;191.96008753825015
455;455;1449490041;2.0583949089099995;1.0207003355;0.0657462328672;2;True;29;2;191.96008753825015
456;456;1449490041;2.0584602356;1.02077543736;0.06567770242689999;2;True;29;2;191.96008753825015
457;457;1449490041;2.0583822727200003;1.02067160606;0.0657769739628;2;True;29;2;191.96008753825015
458;458;1449490041;2.05832123756;1.02055072784;0.0657765194774;2;True;29;2;191.96008753825015
459;459;1449490041;2.05832648277;1.0206836462;0.0658334717155;2;True;29;2;191.96008753825015
460;460;1449490041;2.05851078033;1.0209597349200001;0.06565476953980001;2;True;29;2;191.96008753825015
461;461;1449490041;2.0583441257499997;1.0206668376899999;0.0658109933138;2;True;29;2;191.96008753825015
462;462;1449490041;2.05832791328;1.0204892158499999;0.0657416433096;2;True;29;2;191.96008753825015
463;463;1449490041;2.05828785896;1.02061808109;0.0658291503787;2;True;29;2;191.96008753825015
464;464;1449490041;2.05837798119;1.02070653439;0.0658141821623;2;True;29;2;191.96008753825015
465;465;1449490041;2.0582954883599998;1.02066528797;0.0658110231161;2;True;29;2;191.96008753825015
466;466;1449490041;2.05837678909;1.02061164379;0.0658628717065;2;True;29;2;191.96008753825015
467;467;1449490041;2.05849909782;1.02090537548;0.0656462311745;2;True;29;2;191.96008753825015
468;468;1449490041;2.05839300156;1.02070629597;0.0658217445016;2;True;29;2;191.96008753825015
469;469;1449490041;2.05848765373;1.02068781853;0.0656566470861;2;True;29;2;191.96008753825015
470;470;1449490041;2.05838489532;1.02071392536;0.0658181831241;2;True;29;2;191.96008753825015
471;471;1449490041;2.05831646919;1.02061283588;0.0658347830176;2;True;29;2;191.96008753825015
472;472;1449490041;2.05836820602;1.02071094513;0.06581354141239999;2;True;29;2;191.96008753825015
473;473;1449490041;2.05844473839;1.0209414959;0.0657137185335;2;True;29;2;191.96008753825015
474;474;1449490041;2.05832481384;1.0206139087700001;0.0658313110471;2;True;29;2;191.96008753825015
475;475;1449490041;2.0584206581099997;1.02053165436;0.0657306909561;2;True;29;2;191.96008753825015
476;476;1449490041;2.05849003792;1.02069294453;0.0656636729836;2;True;29;2;191.96008753825015
477;477;1449490041;2.05829191208;1.0206227302600002;0.06582581251860001;2;True;29;2;191.96008753825015
478;478;1449490041;2.05829524994;1.02058601379;0.0658728703856;2;True;29;2;191.96008753825015
479;479;1449490041;2.05835676193;1.02062094212;0.0658182799816;2;True;29;2;191.96008753825015
480;480;1449490041;2.0583763122599996;1.02066910267;0.0657782033086;2;True;29;2;191.96008753825015
481;481;1449490041;2.05833888054;1.0207098722499999;0.0658196657896;2;True;29;2;191.96008753825015
482;482;1449490041;2.0583221912400003;1.02065825462;0.0658214017749;2;True;29;2;191.96008753825015
483;483;1449490041;2.05837607384;1.0205873251000002;0.0657524392009;2;True;29;2;191.96008753825015
484;484;1449490041;2.05825352669;1.0209852457;0.0657379105687;2;True;29;2;191.96008753825015
485;485;1449490041;2.05848503113;1.0207400322;0.06564391404389999;2;True;29;2;191.96008753825015
486;486;1449490041;2.0583474636099997;1.0206627845799998;0.0657673254609;2;True;29;2;191.96008753825015
487;487;1449490041;2.05840063095;1.0207436084700001;0.0658164098859;2;True;29;2;191.96008753825015
488;488;1449490041;2.05839538574;1.02070617676;0.06580700725319999;2;True;29;2;191.96008753825015
489;489;1449490041;2.0583024025;1.0206900835;0.0658254846931;2;True;29;2;191.96008753825015
490;490;1449490041;2.05832338333;1.0206592083;0.0658191889524;2;True;29;2;191.96008753825015
491;491;1449490041;2.0584664344799997;1.0207773447;0.06566349416969999;2;True;29;2;191.96008753825015
492;492;1449490041;2.0582883358;1.0206087827700001;0.06582053005699999;2;True;29;2;191.96008753825015
493;493;1449490041;2.05833554268;1.0206172466299999;0.0658048167825;2;True;29;2;191.96008753825015
494;494;1449490041;2.05835676193;1.02064073086;0.0658291503787;2;True;29;2;191.96008753825015
495;495;1449490041;2.05846333504;1.02078998089;0.0657082647085;2;True;29;2;191.96008753825015
496;496;1449490041;2.05826830864;1.0206260681200001;0.0657841414213;2;True;29;2;191.96008753825015
497;497;1449490041;2.05842089653;1.0208054781;0.0657539144158;2;True;29;2;191.96008753825015
498;498;1449490041;2.05827093124;1.02059006691;0.065803937614;2;True;29;2;191.96008753825015
499;499;1449490041;2.05832648277;1.0207216739700002;0.0657989308238;2;True;29;2;191.96008753825015
500;500;1449490041;2.05829334259;1.0204832553899998;0.06582745164630001;2;True;29;2;191.96008753825015
501;501;1449490041;2.05845046043;1.02078926563;0.0657036677003;2;True;29;2;191.96008753825015
502;502;1449490041;2.05835437775;1.020647645;0.06580021977419999;2;True;29;2;191.96008753825015
503;503;1449490041;2.05832791328;1.02070009708;0.0658741593361;2;True;29;2;191.96008753825015
504;504;1449490041;2.05842781067;1.0207310915;0.0658077821136;2;True;29;2;191.96008753825015
505;505;1449490041;2.05803799629;1.02112436295;0.0656688287854;2;True;29;2;191.96008753825015
506;506;1449490041;2.05828237534;1.02078163624;0.0658188164234;2;True;29;2;191.96008753825015
507;507;1449490041;2.05837130547;1.02061581612;0.0657467767596;2;True;29;2;191.96008753825015
508;508;1449490041;2.05832982063;1.02072536945;0.0657170116901;2;True;29;2;191.96008753825015
509;509;1449490041;2.0582571029700003;1.02055037022;0.0658239200711;2;True;29;2;191.96008753825015
510;510;1449490041;2.05827999115;1.02060210705;0.06581205129619999;2;True;29;2;191.96008753825015
511;511;1449490041;2.05849003792;1.02074110508;0.0656317099929;2;True;29;2;191.96008753825015
512;512;1449490041;2.0583729744;1.02066838741;0.0657897815108;2;True;29;2;191.96008753825015
513;513;1449490041;2.05836200714;1.0206855535500001;0.0657749548554;2;True;29;2;191.96008753825015
514;514;1449490041;2.05841684341;1.020819664;0.0657622367144;2;True;29;2;191.96008753825015
515;515;1449490041;2.05847525597;1.02078020573;0.0656756088138;2;True;29;2;191.96008753825015
516;516;1449490041;2.0584387779199997;1.02072739601;0.06565208733080001;2;True;29;2;191.96008753825015
517;517;1449490041;2.05826020241;1.02050030231;0.06583013385530001;2;True;29;2;191.96008753825015
518;518;1449490041;2.0583627224;1.0206307172799998;0.0657860860229;2;True;29;2;191.96008753825015
519;519;1449490041;2.05828714371;1.0203795433;0.065806850791;2;True;29;2;191.96008753825015
520;520;1449490041;2.05831360817;1.02052044868;0.0657532960176;2;True;29;2;191.96008753825015
521;521;1449490041;2.0583691597;1.0207563638700001;0.0657018721104;2;True;29;2;191.96008753825015
522;522;1449490041;2.0584070682499997;1.02069103718;0.06578418612480001;2;True;29;2;191.96008753825015
523;523;1449490041;2.05827283859;1.02063262463;0.0658019557595;2;True;29;2;191.96008753825015
524;524;1449490041;2.0583901405300002;1.0206540823;0.0657392591238;2;True;29;2;191.96008753825015
525;525;1449490041;2.05838441849;1.0207190513600002;0.0657597929239;2;True;29;2;191.96008753825015
526;526;1449490041;2.05836820602;1.02064716816;0.0657167732716;2;True;29;2;191.96008753825015
527;527;1449490041;2.05831646919;1.02060806751;0.0658005401492;2;True;29;2;191.96008753825015
528;528;1449490041;2.05832719803;1.02055740356;0.0657232627273;2;True;29;2;191.96008753825015
529;529;1449490041;2.05837464333;1.0206745863;0.065832734108;2;True;29;2;191.96008753825015
530;530;1449490041;2.0583434104900005;1.02052032948;0.0657531991601;2;True;29;2;191.96008753825015
531;531;1449490041;2.05848002434;1.02078568935;0.06568549573419999;2;True;29;2;191.96008753825015
532;532;1449490041;2.05828261375;1.0205937623999999;0.06581494957209999;2;True;29;2;191.96008753825015
533;533;1449490041;2.05831313133;1.0207736492200001;0.0657841786742;2;True;29;2;191.96008753825015
534;534;1449490041;2.0583155155200004;1.02066469193;0.0658223554492;2;True;29;2;191.96008753825015
535;535;1449490041;2.05847883224;1.02077782154;0.0656867325306;2;True;29;2;191.96008753825015
536;536;1449490041;2.05827355385;1.02038216591;0.0658164694905;2;True;29;2;191.96008753825015
537;537;1449490041;2.05826187134;1.02064704895;0.0658429041505;2;True;29;2;191.96008753825015
538;538;1449490041;2.05822491646;1.02050328255;0.0657878294587;2;True;29;2;191.96008753825015
539;539;1449490041;2.05829238892;1.0206464529000001;0.0657998099923;2;True;29;2;191.96008753825015
540;540;1449490041;2.0582692623099996;1.0204544067399999;0.0657546669245;2;True;29;2;191.96008753825015
541;541;1449490041;2.05834245682;1.02063500881;0.0657617077231;2;True;29;2;191.96008753825015
542;542;1449490041;2.05834078789;1.02066802979;0.0657878369093;2;True;29;2;191.96008753825015
543;543;1449490041;2.0582890510599996;1.02071797848;0.065946303308;2;True;29;2;191.96008753825015
544;544;1449490041;2.05823516846;1.02084803581;0.0659935176373;2;True;29;2;191.96008753825015
545;545;1449490041;2.05832505226;1.02064180374;0.0658263936639;2;True;29;2;191.96008753825015
546;546;1449490041;2.0582780838;1.0207693576799999;0.0658142417669;2;True;29;2;191.96008753825015
547;547;1449490041;2.05833721161;1.02069044113;0.0658192411065;2;True;29;2;191.96008753825015
548;548;1449490041;2.0584094524400003;1.02076375484;0.0657638460398;2;True;29;2;191.96008753825015
549;549;1449490041;2.05844044685;1.02077758312;0.06570226699109999;2;True;29;2;191.96008753825015
550;550;1449490041;2.05837798119;1.0206773281100001;0.06578503549100001;2;True;29;2;191.96008753825015
551;551;1449490041;2.0584490299200002;1.0207488536799998;0.0658022761345;2;True;29;2;191.96008753825015
552;552;1449490041;2.05824947357;1.0206733942;0.0656401216984;2;True;29;2;191.96008753825015
553;553;1449490041;2.0583524704;1.020622015;0.0658255144954;2;True;29;2;191.96008753825015
554;554;1449490041;2.05836367607;1.02062189579;0.0657192543149;2;True;29;2;191.96008753825015
555;555;1449490041;2.0582792758900004;1.0204975605;0.0657788962126;2;True;29;2;191.96008753825015
556;556;1449490041;2.05840396881;1.0206723213200002;0.0658090040088;2;True;29;2;191.96008753825015
557;557;1449490041;2.05827474594;1.02066302299;0.0658382624388;2;True;29;2;191.96008753825015
558;558;1449490041;2.05829811096;1.0206271409999998;0.065826267004;2;True;29;2;191.96008753825015
559;559;1449490041;2.0584735870400004;1.02085280418;0.06571963429449999;2;True;29;2;191.96008753825015
560;560;1449490041;2.0584895610799996;1.0206958055500002;0.0656531602144;2;True;29;2;191.96008753825015
561;561;1449490041;2.05835938454;1.02065086365;0.0657543838024;2;True;29;2;191.96008753825015
562;562;1449490041;2.0583178997;1.02067816257;0.0658243298531;2;True;29;2;191.96008753825015
563;563;1449490041;2.05840301514;1.0206409692799998;0.0657487884164;2;True;29;2;191.96008753825015
564;564;1449490041;2.05845856667;1.02077805996;0.0656931772828;2;True;29;2;191.96008753825015
565;565;1449490041;2.0583748817400003;1.02051389217;0.0657569691539;2;True;29;2;191.96008753825015
566;566;1449490041;2.05832028389;1.02063035965;0.0658069625497;2;True;29;2;191.96008753825015
567;567;1449490041;2.0584731102;1.02078533173;0.0656684041023;2;True;29;2;191.96008753825015
568;568;1449490041;2.05830168724;1.0206059217499999;0.0657665282488;2;True;29;2;191.96008753825015
569;569;1449490041;2.05838561058;1.0206654071799999;0.06576855480669999;2;True;29;2;191.96008753825015
570;570;1449490041;2.05835795403;1.02074956894;0.0658204257488;2;True;29;2;191.96008753825015
571;571;1449490041;2.05837345123;1.02068316936;0.0657930895686;2;True;29;2;191.96008753825015
572;572;1449490041;2.05829763412;1.02041614056;0.06579218059780001;2;True;29;2;191.96008753825015
573;573;1449490041;2.0583627224;1.0207153558700002;0.0658148750663;2;True;29;2;191.96008753825015
574;574;1449490041;2.0583612918900003;1.0206875801100002;0.0658086538315;2;True;29;2;191.96008753825015
575;575;1449490041;2.05842208862;1.02069854736;0.06583042442800001;2;True;29;2;191.96008753825015
576;576;1449490041;2.05835080147;1.02064406872;0.0657923817635;2;True;29;2;191.96008753825015
577;577;1449490041;2.0584201812700003;1.02071833611;0.0657916218042;2;True;29;2;191.96008753825015
578;578;1449490041;2.05826592445;1.02060520649;0.06584595888849999;2;True;29;2;191.96008753825015
579;579;1449490041;2.0583114624000003;1.02064740658;0.0658229514956;2;True;29;2;191.96008753825015
580;580;1449490041;2.0584213733700003;1.02071416378;0.06574209034440001;2;True;29;2;191.96008753825015
581;581;1449490041;2.0583214759799997;1.02065181732;0.065784022212;2;True;29;2;191.96008753825015
582;582;1449490041;2.0582950115200003;1.020632267;0.0658198669553;2;True;29;2;191.96008753825015
583;583;1449490041;2.0583629608200003;1.02063405514;0.0657137408853;2;True;29;2;191.96008753825015
584;584;1449490041;2.0583124160799997;1.02063012123;0.06588946282859999;2;True;29;2;191.96008753825015
585;585;1449490041;2.0583333969099997;1.02065908909;0.06583656370640001;2;True;29;2;191.96008753825015
586;586;1449490041;2.0583550930000003;1.02065932751;0.0657635182142;2;True;29;2;191.96008753825015
587;587;1449490041;2.05831623077;1.0205852985400001;0.0658407956362;2;True;29;2;191.96008753825015
588;588;1449490041;2.05839729309;1.02066099644;0.0657258704305;2;True;29;2;191.96008753825015
589;589;1449490041;2.05842208862;1.0206861496;0.06584551930430001;2;True;29;2;191.96008753825015
590;590;1449490041;2.05839443207;1.0207220315899999;0.065919585526;2;True;29;2;191.96008753825015
591;591;1449490041;2.0582888126400003;1.02042067051;0.0658205598593;2;True;29;2;191.96008753825015
592;592;1449490041;2.0584304332700003;1.02072191238;0.0657800883055;2;True;29;2;191.96008753825015
593;593;1449490041;2.0583510398900002;1.0206608772299999;0.0658056810498;2;True;29;2;191.96008753825015
594;594;1449490041;2.05847668648;1.020596385;0.0656435415149;2;True;29;2;191.96008753825015
595;595;1449490041;2.0584921836900003;1.02087378502;0.0657843202353;2;True;29;2;191.96008753825015
596;596;1449490041;2.05832481384;1.02078402042;0.0658268406987;2;True;29;2;191.96008753825015
597;597;1449490041;2.0583426952400004;1.02056515217;0.065856538713;2;True;29;2;191.96008753825015
598;598;1449490041;2.05830860138;1.0206011533700001;0.0658353045583;2;True;29;2;191.96008753825015
599;599;1449490041;2.05845236778;1.0206769704799998;0.0657348260283;2;True;29;2;191.96008753825015
600;600;1449490041;2.05841374397;1.02070248127;0.06584419310089999;2;True;29;2;191.96008753825015
601;601;1449490041;2.0583679676099997;1.02069687843;0.06583793461319999;2;True;29;2;191.96008753825015
602;602;1449490041;2.05838751793;1.02067327499;0.0657951682806;2;True;29;2;191.96008753825015
603;603;1449490041;2.05826020241;1.02059626579;0.0658096075058;2;True;29;2;191.96008753825015
604;604;1449490041;2.05830383301;1.02058851719;0.0658368840814;2;True;29;2;191.96008753825015
605;605;1449490041;2.05844950676;1.02068507671;0.0658297613263;2;True;29;2;191.96008753825015
606;606;1449490041;2.05849480629;1.02078700066;0.06571175903080001;2;True;29;2;191.96008753825015
607;607;1449490041;2.05850076675;1.02071678638;0.0656597316265;2;True;29;2;191.96008753825015
608;608;1449490041;2.05841302872;1.02070891857;0.0658199414611;2;True;29;2;191.96008753825015
609;609;1449490041;2.0584757328;1.02058517933;0.065652474761;2;True;29;2;191.96008753825015
610;610;1449490041;2.0582909584;1.02064430714;0.0658450722694;2;True;29;2;191.96008753825015
611;611;1449490041;2.05832910538;1.02067279816;0.0658498257399;2;True;29;2;191.96008753825015
