;Unnamed: 0;header_stamp_secs;pose_position_x;pose_position_y;pose_position_z;seconds;drop_values;flight_number;label;dtw
0;0;1449483845;2.0896556377400004;0.762617707253;0.033333625644400004;0;True;3;2;112.14114522972004
1;1;1449483845;2.0898776054400003;0.762689292431;0.0326864384115;0;True;3;2;112.14114522972004
2;2;1449483845;2.0892162323;0.762548446655;0.0334268026054;0;True;3;2;112.14114522972004
3;3;1449483845;2.08969664574;0.762614965439;0.0328805297613;0;True;3;2;112.14114522972004
4;4;1449483845;2.08991074562;0.762685477734;0.0326186642051;0;True;3;2;112.14114522972004
5;5;1449483845;2.08996343613;0.7626890540119999;0.0326056629419;0;True;3;2;112.14114522972004
6;6;1449483845;2.0894041061400004;0.762674987316;0.033405970782;0;True;3;2;112.14114522972004
7;7;1449483845;2.08976078033;0.762511491776;0.032854527235;0;True;3;2;112.14114522972004
8;8;1449483845;2.0899636745500003;0.7626862525939999;0.0325892306864;0;True;3;2;112.14114522972004
9;9;1449483845;2.0898938178999997;0.762668788433;0.0326535850763;0;True;3;2;112.14114522972004
10;10;1449483845;2.08960866928;0.7626258134839999;0.0329327061772;0;True;3;2;112.14114522972004
11;11;1449483845;2.08965587616;0.7626385092739999;0.033151704818000005;0;True;3;2;112.14114522972004
12;12;1449483845;2.0899274349200003;0.7626849412919999;0.032622680068;0;True;3;2;112.14114522972004
13;13;1449483845;2.0898764133500003;0.762614488602;0.032782569527599996;0;True;3;2;112.14114522972004
14;14;1449483845;2.0899560451499997;0.7626958489419999;0.032662969082599996;0;True;3;2;112.14114522972004
15;15;1449483845;2.08997607231;0.7626866698270001;0.0326005220413;0;True;3;2;112.14114522972004
16;16;1449483845;2.08994889259;0.762691855431;0.0326638780534;0;True;3;2;112.14114522972004
17;17;1449483845;2.0899105072;0.762689590454;0.0327112786472;0;True;3;2;112.14114522972004
18;18;1449483845;2.0893497467;0.762623667717;0.0333938412368;0;True;3;2;112.14114522972004
19;19;1449483845;2.08992767334;0.7626924514769999;0.0326432995498;0;True;3;2;112.14114522972004
20;20;1449483845;2.0896203517900003;0.7626010179520001;0.03275218606;0;True;3;2;112.14114522972004
21;21;1449483845;2.08992552757;0.7626872658730001;0.0326452665031;0;True;3;2;112.14114522972004
22;22;1449483845;2.08976888657;0.762609183788;0.0329583138227;0;True;3;2;112.14114522972004
23;23;1449483845;2.08967328072;0.7626343369480001;0.0327567793429;0;True;3;2;112.14114522972004
24;24;1449483845;2.0899155139900003;0.7626915574070001;0.0326744280756;0;True;3;2;112.14114522972004
25;25;1449483845;2.0897817611700003;0.762587845325;0.0328817851841;0;True;3;2;112.14114522972004
26;26;1449483845;2.08976507187;0.7625635862350001;0.0328627340496;0;True;3;2;112.14114522972004
27;27;1449483845;2.08991956711;0.7626928687100001;0.0326343365014;0;True;3;2;112.14114522972004
28;28;1449483845;2.08969020844;0.762557208538;0.0329061374068;0;True;3;2;112.14114522972004
29;29;1449483845;2.0897512435900003;0.7625718712809999;0.0328865610063;0;True;3;2;112.14114522972004
30;30;1449483845;2.08946466446;0.762586772442;0.033029358834;0;True;3;2;112.14114522972004
31;31;1449483845;2.08994984627;0.7627072334289999;0.0326766483486;0;True;3;2;112.14114522972004
32;32;1449483845;2.0899753570599997;0.76269119978;0.0326193384826;0;True;3;2;112.14114522972004
33;33;1449483845;2.0897765159599997;0.762596070766;0.032900556922;0;True;3;2;112.14114522972004
34;34;1449483845;2.08991479874;0.7626850605009999;0.0326461009681;0;True;3;2;112.14114522972004
35;35;1449483845;2.08991622925;0.762703299522;0.0326293818653;0;True;3;2;112.14114522972004
36;36;1449483845;2.0899007320400003;0.762674808502;0.0326678305864;0;True;3;2;112.14114522972004
37;37;1449483845;2.08992671967;0.7626924514769999;0.0326561108232;0;True;3;2;112.14114522972004
38;38;1449483845;2.08942866325;0.762606739998;0.033346734940999996;0;True;3;2;112.14114522972004
39;39;1449483845;2.08983159065;0.7626875042919999;0.032697379589100004;0;True;3;2;112.14114522972004
40;40;1449483845;2.0897467136400003;0.762592613697;0.032923586666599995;0;True;3;2;112.14114522972004
41;41;1449483845;2.08966588974;0.7625705003740001;0.0328834541142;0;True;3;2;112.14114522972004
42;42;1449483845;2.0896565914200003;0.762632846832;0.033162053674499994;0;True;3;2;112.14114522972004
43;43;1449483845;2.08947825432;0.762606203556;0.0332149118185;0;True;3;2;112.14114522972004
44;44;1449483845;2.0896298885299998;0.762623786926;0.0328812375665;0;True;3;2;112.14114522972004
45;45;1449483845;2.08983778954;0.762678861618;0.0326717086136;0;True;3;2;112.14114522972004
46;46;1449483845;2.0899181366;0.762693226337;0.0326531715691;0;True;3;2;112.14114522972004
47;47;1449483845;2.08996486664;0.7627034783359999;0.0326091647148;0;True;3;2;112.14114522972004
48;48;1449483845;2.08946585655;0.7626998424529999;0.0333936028183;0;True;3;2;112.14114522972004
49;49;1449483845;2.0891032218900003;0.762595832348;0.033487822860500005;0;True;3;2;112.14114522972004
50;50;1449483845;2.08982896805;0.7626630067829999;0.0327220782638;0;True;3;2;112.14114522972004
51;51;1449483845;2.08929991722;0.762697279453;0.0334296524525;0;True;3;2;112.14114522972004
52;52;1449483845;2.08936262131;0.762630581856;0.0333568379283;0;True;3;2;112.14114522972004
53;53;1449483845;2.08970594406;0.762644290924;0.0328357703984;0;True;3;2;112.14114522972004
54;54;1449483845;2.08970212936;0.762536346912;0.0328970886767;0;True;3;2;112.14114522972004
55;55;1449483845;2.0892789363900004;0.7626056075100001;0.0333702713251;0;True;3;2;112.14114522972004
56;56;1449483845;2.0896937847099997;0.762614965439;0.0329125039279;0;True;3;2;112.14114522972004
57;57;1449483846;2.08967804909;0.762639462948;0.0328554660082;1;True;3;2;112.14114522972004
58;58;1449483846;2.08991193771;0.762681007385;0.0326498188078;1;True;3;2;112.14114522972004
59;59;1449483846;2.08963489532;0.76262229681;0.032880507409599996;1;True;3;2;112.14114522972004
60;60;1449483846;2.0898463726;0.762600958347;0.0327445827425;1;True;3;2;112.14114522972004
61;61;1449483846;2.08967852592;0.762627899647;0.0328161790967;1;True;3;2;112.14114522972004
62;62;1449483846;2.0897192955;0.762617051601;0.0327359326184;1;True;3;2;112.14114522972004
63;63;1449483846;2.0898923873900004;0.7626833915710001;0.032626055181;1;True;3;2;112.14114522972004
64;64;1449483846;2.08967471123;0.7625917792319999;0.0329118445516;1;True;3;2;112.14114522972004
65;65;1449483846;2.08991575241;0.762667417526;0.0326534509659;1;True;3;2;112.14114522972004
66;66;1449483846;2.08988809586;0.762666702271;0.032656930387;1;True;3;2;112.14114522972004
67;67;1449483846;2.0896992683400004;0.762638270855;0.032710686326;1;True;3;2;112.14114522972004
68;68;1449483846;2.0897371769;0.762643396854;0.032793201506099996;1;True;3;2;112.14114522972004
69;69;1449483846;2.08985424042;0.762627899647;0.0327025651932;1;True;3;2;112.14114522972004
70;70;1449483846;2.0898926258099997;0.7626712322239999;0.032630879432;1;True;3;2;112.14114522972004
71;71;1449483846;2.08955097198;0.762737512589;0.0332630723715;1;True;3;2;112.14114522972004
72;72;1449483846;2.08965396881;0.762525498867;0.0328933820128;1;True;3;2;112.14114522972004
73;73;1449483846;2.08979415894;0.762672841549;0.0326831713319;1;True;3;2;112.14114522972004
74;74;1449483846;2.08974719048;0.762674570084;0.0326848886907;1;True;3;2;112.14114522972004
75;75;1449483846;2.08991646767;0.76268440485;0.0326581671834;1;True;3;2;112.14114522972004
76;76;1449483846;2.0896496772799997;0.762585937977;0.0328504219651;1;True;3;2;112.14114522972004
77;77;1449483846;2.0897779464700004;0.762709319592;0.0326747782528;1;True;3;2;112.14114522972004
78;78;1449483846;2.08967328072;0.762580215931;0.0329012610018;1;True;3;2;112.14114522972004
79;79;1449483846;2.0898976326;0.7627003192899999;0.0326505042613;1;True;3;2;112.14114522972004
80;80;1449483846;2.0898690223700003;0.76269453764;0.0326004810631;1;True;3;2;112.14114522972004
81;81;1449483846;2.08991384506;0.7626853585240001;0.0326314046979;1;True;3;2;112.14114522972004
82;82;1449483846;2.0896673202500002;0.7626000046729999;0.0326703824103;1;True;3;2;112.14114522972004
83;83;1449483846;2.0894582271599997;0.762659907341;0.033313110470799996;1;True;3;2;112.14114522972004
84;84;1449483846;2.08988618851;0.762694001198;0.032616045326;1;True;3;2;112.14114522972004
85;85;1449483846;2.0896832943;0.762526631355;0.032845474779599995;1;True;3;2;112.14114522972004
86;86;1449483846;2.08956313133;0.762628436089;0.0328881777823;1;True;3;2;112.14114522972004
87;87;1449483846;2.08973097801;0.76260894537;0.0329104848206;1;True;3;2;112.14114522972004
88;88;1449483846;2.08969688416;0.762553930283;0.0328755192459;1;True;3;2;112.14114522972004
89;89;1449483846;2.08933949471;0.7625458836560001;0.0333099812269;1;True;3;2;112.14114522972004
90;90;1449483846;2.08992195129;0.7626643776890001;0.0326281301677;1;True;3;2;112.14114522972004
91;91;1449483846;2.08966374397;0.76261228323;0.032689388841400005;1;True;3;2;112.14114522972004
92;92;1449483846;2.08987832069;0.762668788433;0.0326633453369;1;True;3;2;112.14114522972004
93;93;1449483846;2.0895817279799997;0.762606620789;0.0329191163182;1;True;3;2;112.14114522972004
94;94;1449483846;2.08983540535;0.762613177299;0.0327075384557;1;True;3;2;112.14114522972004
95;95;1449483846;2.08969569206;0.762620329857;0.032848905772;1;True;3;2;112.14114522972004
96;96;1449483846;2.0896692276;0.762538850307;0.032868359237900005;1;True;3;2;112.14114522972004
97;97;1449483846;2.08962798119;0.762591063976;0.0331845730543;1;True;3;2;112.14114522972004
98;98;1449483846;2.08966588974;0.762619793415;0.032904639840099996;1;True;3;2;112.14114522972004
99;99;1449483846;2.0893881321000003;0.7626240253450001;0.0333323776722;1;True;3;2;112.14114522972004
100;100;1449483846;2.08986353874;0.7626779675480001;0.0326650254428;1;True;3;2;112.14114522972004
101;101;1449483846;2.0897319316900003;0.762567460537;0.0328510887921;1;True;3;2;112.14114522972004
102;102;1449483846;2.08987498283;0.762661397457;0.0326532535255;1;True;3;2;112.14114522972004
103;103;1449483846;2.0899014473;0.7626791596410001;0.032626286149;1;True;3;2;112.14114522972004
104;104;1449483846;2.08992767334;0.762674331665;0.032644033432;1;True;3;2;112.14114522972004
105;105;1449483846;2.0898206234;0.762628734112;0.032717410475;1;True;3;2;112.14114522972004
106;106;1449483846;2.08960390091;0.762633442879;0.0328831970692;1;True;3;2;112.14114522972004
107;107;1449483846;2.08992195129;0.7626784443860001;0.0326143726707;1;True;3;2;112.14114522972004
108;108;1449483846;2.08990621567;0.762694835663;0.0326472260058;1;True;3;2;112.14114522972004
109;109;1449483846;2.08972144127;0.762531220913;0.0328522548079;1;True;3;2;112.14114522972004
110;110;1449483846;2.08960390091;0.762633442879;0.0329710021615;1;True;3;2;112.14114522972004
111;111;1449483846;2.08973264694;0.762553155422;0.0328513421118;1;True;3;2;112.14114522972004
112;112;1449483846;2.0893216133099997;0.762573778629;0.0333478115499;1;True;3;2;112.14114522972004
113;113;1449483846;2.0899088382700004;0.762689948082;0.032628461718599996;1;True;3;2;112.14114522972004
114;114;1449483846;2.0899105072;0.762701928616;0.032626837492;1;True;3;2;112.14114522972004
115;115;1449483846;2.08992099762;0.76268774271;0.0326500087976;1;True;3;2;112.14114522972004
116;116;1449483846;2.08989334106;0.762711524963;0.0326184406877;1;True;3;2;112.14114522972004
117;117;1449483846;2.08974027634;0.762608885765;0.032902866601900005;1;True;3;2;112.14114522972004
118;118;1449483846;2.08988022804;0.762703418732;0.0326185822487;1;True;3;2;112.14114522972004
119;119;1449483846;2.0899214744599997;0.762689709663;0.0326590426266;1;True;3;2;112.14114522972004
120;120;1449483846;2.08987545967;0.762693285942;0.0326715894043;1;True;3;2;112.14114522972004
121;121;1449483846;2.08988618851;0.762695133686;0.0326979979873;1;True;3;2;112.14114522972004
122;122;1449483846;2.08988189697;0.762668728828;0.0326403416693;1;True;3;2;112.14114522972004
123;123;1449483846;2.08989310265;0.762703895569;0.0326195396483;1;True;3;2;112.14114522972004
124;124;1449483846;2.08988404274;0.7626922130580001;0.0326731167734;1;True;3;2;112.14114522972004
125;125;1449483846;2.08990526199;0.762687027454;0.0326217114925;1;True;3;2;112.14114522972004
126;126;1449483846;2.089625597;0.762631416321;0.0328541845083;1;True;3;2;112.14114522972004
127;127;1449483846;2.08992910385;0.7626813650130001;0.0326394960284;1;True;3;2;112.14114522972004
128;128;1449483846;2.0898771286;0.762693345547;0.032698441296799996;1;True;3;2;112.14114522972004
129;129;1449483846;2.08960700035;0.762627243996;0.0329052694142;1;True;3;2;112.14114522972004
130;130;1449483846;2.0898535251599997;0.762696385384;0.0327284000814;1;True;3;2;112.14114522972004
131;131;1449483846;2.0897715091699998;0.7626751661300001;0.0327964946628;1;True;3;2;112.14114522972004
132;132;1449483846;2.08990192413;0.7627038359639999;0.0326605066657;1;True;3;2;112.14114522972004
133;133;1449483846;2.08991217613;0.762680828571;0.032652173191299996;1;True;3;2;112.14114522972004
134;134;1449483846;2.0896594524400003;0.76260638237;0.0329492352903;1;True;3;2;112.14114522972004
135;135;1449483846;2.0891187191;0.762446165085;0.0334193743765;1;True;3;2;112.14114522972004
136;136;1449483846;2.08995437622;0.7626827359199999;0.0326622799039;1;True;3;2;112.14114522972004
137;137;1449483846;2.08987951279;0.762679219246;0.0326858982444;1;True;3;2;112.14114522972004
138;138;1449483846;2.08993220329;0.7626827359199999;0.0326693318784;1;True;3;2;112.14114522972004
139;139;1449483846;2.0898230075799997;0.762578368187;0.0328224860132;1;True;3;2;112.14114522972004
140;140;1449483846;2.08978843689;0.762701094151;0.0326788127422;1;True;3;2;112.14114522972004
141;141;1449483846;2.08961677551;0.7626243233679999;0.0329281687737;1;True;3;2;112.14114522972004
142;142;1449483846;2.0899202823599996;0.7626983523370001;0.032662793993900006;1;True;3;2;112.14114522972004
143;143;1449483846;2.08988809586;0.7626833915710001;0.0326682962477;1;True;3;2;112.14114522972004
144;144;1449483846;2.0899143219;0.762684881687;0.0326450429857;1;True;3;2;112.14114522972004
145;145;1449483846;2.08976888657;0.762593150139;0.032881628722;1;True;3;2;112.14114522972004
146;146;1449483846;2.08988904953;0.762682795525;0.0327044501901;1;True;3;2;112.14114522972004
147;147;1449483846;2.08993697166;0.762692987919;0.0326745323837;1;True;3;2;112.14114522972004
148;148;1449483846;2.08928012848;0.762255311012;0.0333058275282;1;True;3;2;112.14114522972004
149;149;1449483846;2.0896441936500003;0.762631952763;0.0329296626151;1;True;3;2;112.14114522972004
150;150;1449483846;2.08993577957;0.762674331665;0.0326479300857;1;True;3;2;112.14114522972004
151;151;1449483846;2.0894973278;0.762624084949;0.0332406833768;1;True;3;2;112.14114522972004
152;152;1449483846;2.08976697922;0.7626073956489999;0.0328995585442;1;True;3;2;112.14114522972004
153;153;1449483846;2.08961963654;0.762610137463;0.0328681543469;1;True;3;2;112.14114522972004
154;154;1449483846;2.08991456032;0.762684464455;0.0325762368739;1;True;3;2;112.14114522972004
155;155;1449483846;2.08982753754;0.762670278549;0.0326475165784;1;True;3;2;112.14114522972004
156;156;1449483846;2.08966636658;0.762544631958;0.0328653231263;1;True;3;2;112.14114522972004
157;157;1449483846;2.0897512435900003;0.7625406384469999;0.0328242480755;1;True;3;2;112.14114522972004
158;158;1449483846;2.08957338333;0.762620568275;0.0328918248415;1;True;3;2;112.14114522972004
159;159;1449483846;2.0894181728400003;0.762632012367;0.033265411853800005;1;True;3;2;112.14114522972004
160;160;1449483846;2.08988022804;0.762672901154;0.0326572060585;1;True;3;2;112.14114522972004
161;161;1449483846;2.08991622925;0.762660384178;0.0326288677752;1;True;3;2;112.14114522972004
162;162;1449483846;2.08989524841;0.7626666426659999;0.0326237119734;1;True;3;2;112.14114522972004
163;163;1449483846;2.08933353424;0.7627264857289999;0.033528890460700005;1;True;3;2;112.14114522972004
164;164;1449483846;2.0899207592;0.7626723647120001;0.032642994076;1;True;3;2;112.14114522972004
165;165;1449483846;2.0898962020900003;0.762663543224;0.0326815210283;1;True;3;2;112.14114522972004
166;166;1449483846;2.08991622925;0.762681901455;0.032638952136;1;True;3;2;112.14114522972004
167;167;1449483846;2.08977603912;0.7626889348029999;0.0326845012605;1;True;3;2;112.14114522972004
168;168;1449483846;2.0895011425;0.7626259326929999;0.0332297757268;1;True;3;2;112.14114522972004
169;169;1449483846;2.08974409103;0.762610375881;0.0329036675394;1;True;3;2;112.14114522972004
170;170;1449483846;2.08991456032;0.7626759409899999;0.0326446443796;1;True;3;2;112.14114522972004
171;171;1449483846;2.08965086937;0.762596130371;0.0329499468207;1;True;3;2;112.14114522972004
172;172;1449483846;2.08974456787;0.762621879578;0.0329019315541;1;True;3;2;112.14114522972004
173;173;1449483846;2.08961725235;0.762630105019;0.032929882407200003;1;True;3;2;112.14114522972004
174;174;1449483846;2.08990430832;0.7626826763150001;0.0326328016818;1;True;3;2;112.14114522972004
175;175;1449483846;2.08981180191;0.7626236081119999;0.0327878668904;1;True;3;2;112.14114522972004
176;176;1449483846;2.08965754509;0.762605369091;0.0327292717993;1;True;3;2;112.14114522972004
177;177;1449483846;2.0897283554099997;0.7626053094859999;0.032930098474;1;True;3;2;112.14114522972004
178;178;1449483846;2.0898718833900003;0.762670278549;0.032661005854599995;1;True;3;2;112.14114522972004
179;179;1449483846;2.08977675438;0.762689232826;0.0326620712876;1;True;3;2;112.14114522972004
180;180;1449483846;2.0899007320400003;0.7626727223399999;0.032637257129;1;True;3;2;112.14114522972004
181;181;1449483846;2.08989834785;0.762684464455;0.0326258577406;1;True;3;2;112.14114522972004
182;182;1449483846;2.08989429474;0.762678265572;0.0326649956405;1;True;3;2;112.14114522972004
183;183;1449483846;2.08990716934;0.7626859545710001;0.0326343551278;1;True;3;2;112.14114522972004
184;184;1449483846;2.08972334862;0.762623786926;0.0329174846411;1;True;3;2;112.14114522972004
185;185;1449483846;2.0891704559299997;0.7625585794449999;0.0334430076182;1;True;3;2;112.14114522972004
186;186;1449483846;2.0896115303;0.7626270055769999;0.032901182770700005;1;True;3;2;112.14114522972004
187;187;1449483846;2.08961558342;0.762633562088;0.0329019799829;1;True;3;2;112.14114522972004
188;188;1449483846;2.08987498283;0.762664496899;0.032649282366;1;True;3;2;112.14114522972004
189;189;1449483846;2.08984684944;0.7626765966419999;0.0326431691647;1;True;3;2;112.14114522972004
190;190;1449483846;2.0898776054400003;0.762676298618;0.032616268843400006;1;True;3;2;112.14114522972004
191;191;1449483846;2.08966684341;0.762551248074;0.0328782238066;1;True;3;2;112.14114522972004
192;192;1449483846;2.0895302295700002;0.762681603432;0.0332912281156;1;True;3;2;112.14114522972004
193;193;1449483846;2.0898706913;0.762660384178;0.0326447859406;1;True;3;2;112.14114522972004
194;194;1449483846;2.08942866325;0.762572705746;0.0332626104355;1;True;3;2;112.14114522972004
195;195;1449483846;2.08963918686;0.7626088261599999;0.032699823379500004;1;True;3;2;112.14114522972004
196;196;1449483846;2.08988618851;0.7626719474789999;0.0326202064753;1;True;3;2;112.14114522972004
197;197;1449483846;2.0898475647;0.7626732587809999;0.032586146146100003;1;True;3;2;112.14114522972004
198;198;1449483846;2.0893354415900003;0.762654781342;0.033337283879499996;1;True;3;2;112.14114522972004
199;199;1449483846;2.0897631645200003;0.762595951557;0.0327896811068;1;True;3;2;112.14114522972004
200;200;1449483846;2.08989882469;0.7626678347589999;0.0326266996562;1;True;3;2;112.14114522972004
201;201;1449483846;2.0896418094599998;0.762593328953;0.0328323245049;1;True;3;2;112.14114522972004
202;202;1449483846;2.08965063095;0.762544333935;0.0328452289104;1;True;3;2;112.14114522972004
203;203;1449483846;2.0896320343;0.762528955936;0.0328566804528;1;True;3;2;112.14114522972004
204;204;1449483846;2.08968186378;0.762622177601;0.0326948463917;1;True;3;2;112.14114522972004
205;205;1449483846;2.08936023712;0.7626228332520001;0.0334096699953;1;True;3;2;112.14114522972004
206;206;1449483846;2.0897357463799997;0.762590646744;0.032854642719;1;True;3;2;112.14114522972004
207;207;1449483846;2.08962154388;0.762574017048;0.032697420567299997;1;True;3;2;112.14114522972004
208;208;1449483846;2.08930706978;0.762634992599;0.0333913192153;1;True;3;2;112.14114522972004
209;209;1449483846;2.0898971557599997;0.762663662434;0.0326315909624;1;True;3;2;112.14114522972004
210;210;1449483846;2.08988547325;0.762686192989;0.0326179340482;1;True;3;2;112.14114522972004
211;211;1449483846;2.08966231346;0.762607336044;0.032847527414599995;1;True;3;2;112.14114522972004
212;212;1449483846;2.08961033821;0.762659966946;0.0332351103425;1;True;3;2;112.14114522972004
213;213;1449483846;2.0898873806;0.762683928013;0.0326175652444;1;True;3;2;112.14114522972004
214;214;1449483846;2.08972811699;0.7626079916949999;0.0329068414867;1;True;3;2;112.14114522972004
215;215;1449483846;2.0898666381799997;0.762695908546;0.0326027162373;1;True;3;2;112.14114522972004
216;216;1449483846;2.0898969173400004;0.762682497501;0.032647036016000004;1;True;3;2;112.14114522972004
217;217;1449483846;2.0897355079700004;0.762580156326;0.0328392311931;1;True;3;2;112.14114522972004
218;218;1449483846;2.08927226067;0.762673437595;0.0334284715354;1;True;3;2;112.14114522972004
219;219;1449483846;2.0897271633099996;0.762611865997;0.0328724682331;1;True;3;2;112.14114522972004
220;220;1449483846;2.08938622475;0.7626264095309999;0.033364571631;1;True;3;2;112.14114522972004
221;221;1449483846;2.08985161781;0.7626840472220001;0.0326507277787;1;True;3;2;112.14114522972004
222;222;1449483846;2.08987879753;0.762698590755;0.0326167941093;1;True;3;2;112.14114522972004
223;223;1449483846;2.0899024009700002;0.762673556805;0.0326282642782;1;True;3;2;112.14114522972004
224;224;1449483846;2.08987379074;0.762690424919;0.0326121523976;1;True;3;2;112.14114522972004
225;225;1449483846;2.0899143219;0.762684702873;0.0325829423964;1;True;3;2;112.14114522972004
226;226;1449483846;2.0898630619;0.7626819610600001;0.032636880874600004;1;True;3;2;112.14114522972004
227;227;1449483846;2.08985424042;0.7626862525939999;0.0326570942998;1;True;3;2;112.14114522972004
228;228;1449483846;2.08958721161;0.762624561787;0.0328929722309;1;True;3;2;112.14114522972004
229;229;1449483846;2.0897488594099998;0.7626119256020001;0.032890304923099994;1;True;3;2;112.14114522972004
230;230;1449483846;2.08990311623;0.762698709965;0.0326398983598;1;True;3;2;112.14114522972004
231;231;1449483846;2.08970594406;0.7626358270649999;0.032742939889400004;1;True;3;2;112.14114522972004
232;232;1449483846;2.08987593651;0.762688577175;0.0326614864171;1;True;3;2;112.14114522972004
233;233;1449483846;2.08957624435;0.762648403645;0.0329691208899;1;True;3;2;112.14114522972004
234;234;1449483846;2.08988571167;0.7627011537549999;0.0326201207936;1;True;3;2;112.14114522972004
235;235;1449483846;2.0898923873900004;0.7626950144769999;0.0326265767217;1;True;3;2;112.14114522972004
236;236;1449483846;2.08958601952;0.7626201510430001;0.032909031957400005;1;True;3;2;112.14114522972004
237;237;1449483846;2.08990454674;0.7626902461049999;0.0326312370598;1;True;3;2;112.14114522972004
238;238;1449483846;2.08986639977;0.7626643776890001;0.0326622463763;1;True;3;2;112.14114522972004
239;239;1449483846;2.0897333622;0.7625656127930001;0.0328344628215;1;True;3;2;112.14114522972004
240;240;1449483846;2.0892107486700002;0.762551724911;0.033363327384000004;1;True;3;2;112.14114522972004
241;241;1449483846;2.08985185623;0.7625914216040001;0.032746501266999996;1;True;3;2;112.14114522972004
242;242;1449483846;2.08980345726;0.762601435184;0.0327901467681;1;True;3;2;112.14114522972004
243;243;1449483846;2.0899002552;0.7626672387119999;0.0325991697609;1;True;3;2;112.14114522972004
244;244;1449483846;2.08976078033;0.7626168131829999;0.0327903218567;1;True;3;2;112.14114522972004
245;245;1449483846;2.08971571922;0.762573063374;0.0328328534961;1;True;3;2;112.14114522972004
246;246;1449483846;2.0898969173400004;0.7626754641529999;0.032619506120700005;1;True;3;2;112.14114522972004
247;247;1449483846;2.08987951279;0.7626658678049999;0.0326309651136;1;True;3;2;112.14114522972004
248;248;1449483846;2.0898208618200003;0.762612879276;0.0327739194036;1;True;3;2;112.14114522972004
249;249;1449483846;2.08977913857;0.762614190578;0.0327856130898;1;True;3;2;112.14114522972004
250;250;1449483846;2.08986830711;0.762678802013;0.0326141528785;1;True;3;2;112.14114522972004
251;251;1449483846;2.0898532867400004;0.7626871466640001;0.0325930304825;1;True;3;2;112.14114522972004
252;252;1449483846;2.08930182457;0.7625562548639999;0.0332563333213;1;True;3;2;112.14114522972004
253;253;1449483846;2.08964633942;0.762607634068;0.0329237803817;1;True;3;2;112.14114522972004
254;254;1449483846;2.08956956863;0.762620449066;0.0329136475921;1;True;3;2;112.14114522972004
255;255;1449483846;2.0896501541099997;0.762557864189;0.032869305461599996;1;True;3;2;112.14114522972004
256;256;1449483846;2.08970594406;0.762544929981;0.0328726284206;1;True;3;2;112.14114522972004
257;257;1449483846;2.08989906311;0.762688219547;0.032569084316500005;1;True;3;2;112.14114522972004
258;258;1449483846;2.08988404274;0.762674689293;0.0326470248401;1;True;3;2;112.14114522972004
259;259;1449483846;2.08987808228;0.7626746296879999;0.032641500234599996;1;True;3;2;112.14114522972004
260;260;1449483846;2.0892894268;0.76274561882;0.0333965793252;1;True;3;2;112.14114522972004
261;261;1449483846;2.0898630619;0.7626644372939999;0.0327422507107;1;True;3;2;112.14114522972004
262;262;1449483846;2.0897333622;0.7625806331630001;0.0328516811132;1;True;3;2;112.14114522972004
263;263;1449483846;2.08959841728;0.762636899948;0.0329228155315;1;True;3;2;112.14114522972004
264;264;1449483846;2.0898525714900003;0.762639701366;0.0327694304287;1;True;3;2;112.14114522972004
265;265;1449483846;2.08960056305;0.7626418471340001;0.032938633114099995;1;True;3;2;112.14114522972004
266;266;1449483846;2.08992815018;0.7627145648;0.0326865948737;1;True;3;2;112.14114522972004
267;267;1449483846;2.08991193771;0.762723863125;0.0326743163168;1;True;3;2;112.14114522972004
268;268;1449483846;2.0899088382700004;0.7627024650570001;0.0327127575874;1;True;3;2;112.14114522972004
269;269;1449483846;2.08975481987;0.76265847683;0.0327901802957;1;True;3;2;112.14114522972004
270;270;1449483846;2.0897040367099997;0.762561321259;0.0328876525164;1;True;3;2;112.14114522972004
271;271;1449483846;2.0895242691;0.762715518475;0.0333963036537;1;True;3;2;112.14114522972004
272;272;1449483846;2.08985877037;0.762629389763;0.0327894575894;1;True;3;2;112.14114522972004
273;273;1449483846;2.0897476673099997;0.76262819767;0.0329653806984;1;True;3;2;112.14114522972004
274;274;1449483846;2.0899155139900003;0.76269954443;0.0326607935131;1;True;3;2;112.14114522972004
275;275;1449483846;2.08991456032;0.762688994408;0.032662291079799996;1;True;3;2;112.14114522972004
276;276;1449483846;2.08943724632;0.762648046017;0.0334263667464;1;True;3;2;112.14114522972004
277;277;1449483846;2.08970832825;0.762643575668;0.032920900732299994;1;True;3;2;112.14114522972004
278;278;1449483846;2.0896055698400002;0.762624442577;0.0329107306898;1;True;3;2;112.14114522972004
279;279;1449483846;2.08989429474;0.762670874596;0.0326895602047;1;True;3;2;112.14114522972004
280;280;1449483846;2.08988285065;0.7626657485959999;0.0326928608119;1;True;3;2;112.14114522972004
281;281;1449483846;2.0898387432099996;0.762666225433;0.0326724164188;1;True;3;2;112.14114522972004
282;282;1449483846;2.0898883342700003;0.762670040131;0.0327015072107;1;True;3;2;112.14114522972004
283;283;1449483846;2.08958315849;0.762632250786;0.0329234786332;1;True;3;2;112.14114522972004
284;284;1449483846;2.08990383148;0.7626659274099999;0.032685998827200004;1;True;3;2;112.14114522972004
285;285;1449483846;2.08986854553;0.7626740336419999;0.0326747819781;1;True;3;2;112.14114522972004
286;286;1449483846;2.08961486816;0.7625979185100001;0.0327533632517;1;True;3;2;112.14114522972004
287;287;1449483846;2.08989095688;0.7626757621770001;0.0326748080552;1;True;3;2;112.14114522972004
288;288;1449483846;2.0898864269299997;0.762696564198;0.0326274819672;1;True;3;2;112.14114522972004
289;289;1449483846;2.0895972251900004;0.762624979019;0.0329356864095;1;True;3;2;112.14114522972004
290;290;1449483846;2.08991980553;0.7626780271529999;0.0326590612531;1;True;3;2;112.14114522972004
291;291;1449483846;2.0897500515000003;0.7625828981399999;0.0328844338655;1;True;3;2;112.14114522972004
292;292;1449483846;2.08948898315;0.762696623802;0.0334553718567;1;True;3;2;112.14114522972004
293;293;1449483846;2.08962965012;0.7625792026520001;0.032711841166;1;True;3;2;112.14114522972004
294;294;1449483846;2.08986115456;0.7626206278800001;0.0327282473445;1;True;3;2;112.14114522972004
295;295;1449483846;2.08989453316;0.762687087059;0.0326519310474;1;True;3;2;112.14114522972004
296;296;1449483847;2.0898659229299996;0.7626778483390001;0.0326512381434;2;True;3;2;112.14114522972004
297;297;1449483847;2.08990335464;0.762687206268;0.032637741416700006;2;True;3;2;112.14114522972004
298;298;1449483847;2.0897321701;0.762586772442;0.032848816365;2;True;3;2;112.14114522972004
299;299;1449483847;2.08971977234;0.7626457214360001;0.0327390022576;2;True;3;2;112.14114522972004
300;300;1449483847;2.08991217613;0.7626906633380001;0.0326395593584;2;True;3;2;112.14114522972004
301;301;1449483847;2.08972620964;0.762618362904;0.0329414121807;2;True;3;2;112.14114522972004
302;302;1449483847;2.08976697922;0.762570619583;0.0328619666398;2;True;3;2;112.14114522972004
303;303;1449483847;2.08965921402;0.762625873089;0.0329065546393;2;True;3;2;112.14114522972004
304;304;1449483847;2.0897381305700002;0.762666285038;0.0327517464757;2;True;3;2;112.14114522972004
305;305;1449483847;2.08992528915;0.7627090811730001;0.0326735116541;2;True;3;2;112.14114522972004
306;306;1449483847;2.08993530273;0.762708008289;0.0326068028808;2;True;3;2;112.14114522972004
307;307;1449483847;2.08971595764;0.7626499533650001;0.0327439680696;2;True;3;2;112.14114522972004
308;308;1449483847;2.08992791176;0.762697458267;0.0326690003276;2;True;3;2;112.14114522972004
309;309;1449483847;2.08967709541;0.762569487095;0.0328945703804;2;True;3;2;112.14114522972004
310;310;1449483847;2.08967328072;0.76255440712;0.0329206287861;2;True;3;2;112.14114522972004
311;311;1449483847;2.08989787102;0.76267772913;0.0326427333057;2;True;3;2;112.14114522972004
312;312;1449483847;2.0896878242500003;0.7625964879989999;0.0328949019313;2;True;3;2;112.14114522972004
313;313;1449483847;2.0898723602300002;0.7626562118529999;0.0326203107834;2;True;3;2;112.14114522972004
314;314;1449483847;2.08954739571;0.762581884861;0.0328419283032;2;True;3;2;112.14114522972004
315;315;1449483847;2.08984804153;0.762663066387;0.0325685851276;2;True;3;2;112.14114522972004
316;316;1449483847;2.0892333984400002;0.762593448162;0.0334437005222;2;True;3;2;112.14114522972004
317;317;1449483847;2.0896759033200003;0.762600362301;0.0329061895609;2;True;3;2;112.14114522972004
318;318;1449483847;2.0898282527900003;0.762615680695;0.0327901206911;2;True;3;2;112.14114522972004
319;319;1449483847;2.08992195129;0.762690424919;0.0325760953128;2;True;3;2;112.14114522972004
320;320;1449483847;2.0898618698099996;0.7626816630359999;0.0326281115413;2;True;3;2;112.14114522972004
321;321;1449483847;2.08978772163;0.7626264095309999;0.0327058397233;2;True;3;2;112.14114522972004
322;322;1449483847;2.08917713165;0.762697935104;0.0335039943457;2;True;3;2;112.14114522972004
323;323;1449483847;2.0902554988900004;0.7626909613609999;0.032735198736200004;2;True;3;2;112.14114522972004
324;324;1449483847;2.08987927437;0.762688100338;0.0326076745987;2;True;3;2;112.14114522972004
325;325;1449483847;2.0897128582;0.762612164021;0.032925184816099996;2;True;3;2;112.14114522972004
326;326;1449483847;2.0898339748400003;0.7626149058339999;0.0327780656517;2;True;3;2;112.14114522972004
327;327;1449483847;2.0898659229299996;0.762682259083;0.0326767936349;2;True;3;2;112.14114522972004
328;328;1449483847;2.0898487567900004;0.762675821781;0.0326737128198;2;True;3;2;112.14114522972004
329;329;1449483847;2.08972597122;0.762559294701;0.032797653228000004;2;True;3;2;112.14114522972004
330;330;1449483847;2.08987998962;0.7626684904100001;0.0326317995787;2;True;3;2;112.14114522972004
331;331;1449483847;2.08965826035;0.7625401616099999;0.03287037462;2;True;3;2;112.14114522972004
332;332;1449483847;2.0895500183099998;0.762620389462;0.0331976674497;2;True;3;2;112.14114522972004
333;333;1449483847;2.08991718292;0.762678205967;0.0325767658651;2;True;3;2;112.14114522972004
334;334;1449483847;2.08986234665;0.762674510479;0.0326405242085;2;True;3;2;112.14114522972004
335;335;1449483847;2.0896422863;0.7626147270199999;0.0327384732664;2;True;3;2;112.14114522972004
336;336;1449483847;2.08958721161;0.76261138916;0.032900504767900005;2;True;3;2;112.14114522972004
337;337;1449483847;2.0896158218400003;0.762612342834;0.0327275395393;2;True;3;2;112.14114522972004
338;338;1449483847;2.08962750435;0.762652277946;0.0331354774535;2;True;3;2;112.14114522972004
339;339;1449483847;2.08989548683;0.762699365616;0.032629266381299996;2;True;3;2;112.14114522972004
340;340;1449483847;2.08989524841;0.7627059817309999;0.0326177813113;2;True;3;2;112.14114522972004
341;341;1449483847;2.08930826187;0.762648284435;0.0333972536027;2;True;3;2;112.14114522972004
342;342;1449483847;2.08988165855;0.762721121311;0.0326044298708;2;True;3;2;112.14114522972004
343;343;1449483847;2.08975100517;0.762609183788;0.032885979860999996;2;True;3;2;112.14114522972004
344;344;1449483847;2.0893836021400003;0.7625889182089999;0.033454246819;2;True;3;2;112.14114522972004
345;345;1449483847;2.0899176597599998;0.762687683105;0.0325880944729;2;True;3;2;112.14114522972004
346;346;1449483847;2.0898706913;0.762612342834;0.0326945595443;2;True;3;2;112.14114522972004
347;347;1449483847;2.0898892879499997;0.762696743011;0.0326546654105;2;True;3;2;112.14114522972004
348;348;1449483847;2.08989548683;0.762686550617;0.032631572335999996;2;True;3;2;112.14114522972004
349;349;1449483847;2.08988070488;0.762668013573;0.0326658897102;2;True;3;2;112.14114522972004
350;350;1449483847;2.0897769928;0.7627052664759999;0.0326693840325;2;True;3;2;112.14114522972004
351;351;1449483847;2.08964276314;0.762623846531;0.0327339060605;2;True;3;2;112.14114522972004
352;352;1449483847;2.08970570564;0.7625281810760001;0.0328279100358;2;True;3;2;112.14114522972004
353;353;1449483847;2.08970332146;0.7625699043269999;0.0329083651304;2;True;3;2;112.14114522972004
354;354;1449483847;2.08992385864;0.762683212757;0.0326551869512;2;True;3;2;112.14114522972004
355;355;1449483847;2.0899374484999997;0.7626896500589999;0.0326513871551;2;True;3;2;112.14114522972004
356;356;1449483847;2.08973455429;0.7626060247419999;0.0329303070903;2;True;3;2;112.14114522972004
357;357;1449483847;2.089656353;0.76261395216;0.0327645801008;2;True;3;2;112.14114522972004
358;358;1449483847;2.08976960182;0.76257032156;0.0328777208924;2;True;3;2;112.14114522972004
359;359;1449483847;2.0899746418;0.762709617615;0.0326266027987;2;True;3;2;112.14114522972004
360;360;1449483847;2.0899260044099996;0.7626924514769999;0.0326492004097;2;True;3;2;112.14114522972004
361;361;1449483847;2.08990859985;0.7626950144769999;0.032651972025599996;2;True;3;2;112.14114522972004
362;362;1449483847;2.0895781517;0.762630701065;0.032930329442;2;True;3;2;112.14114522972004
363;363;1449483847;2.08982920647;0.762612998486;0.0328059978783;2;True;3;2;112.14114522972004
364;364;1449483847;2.0894985199000002;0.7626493573190001;0.033221755176800004;2;True;3;2;112.14114522972004
365;365;1449483847;2.0896794796;0.762533783913;0.032906431704799996;2;True;3;2;112.14114522972004
366;366;1449483847;2.08976411819;0.7626134157179999;0.032914865762;2;True;3;2;112.14114522972004
367;367;1449483847;2.0893738269799997;0.7626754641529999;0.033372864127199996;2;True;3;2;112.14114522972004
368;368;1449483847;2.08992052078;0.7626980543140001;0.0326379053295;2;True;3;2;112.14114522972004
369;369;1449483847;2.08981537819;0.762634634972;0.0327121540904;2;True;3;2;112.14114522972004
370;370;1449483847;2.0899901390099997;0.76268184185;0.0326029248536;2;True;3;2;112.14114522972004
371;371;1449483847;2.0897006988499998;0.762586534023;0.032904218882299996;2;True;3;2;112.14114522972004
372;372;1449483847;2.08985185623;0.7626725435259999;0.032637301832400004;2;True;3;2;112.14114522972004
373;373;1449483847;2.08966135979;0.762642681599;0.0328578054905;2;True;3;2;112.14114522972004
374;374;1449483847;2.0899300575299997;0.7626690864560001;0.0326372310519;2;True;3;2;112.14114522972004
375;375;1449483847;2.08986473083;0.762598872185;0.0327315740287;2;True;3;2;112.14114522972004
376;376;1449483847;2.08975958824;0.762609899044;0.032930258661500005;2;True;3;2;112.14114522972004
377;377;1449483847;2.08992862701;0.7626648545270001;0.032669309526700004;2;True;3;2;112.14114522972004
378;378;1449483847;2.08979463577;0.7625691890719999;0.0328578203917;2;True;3;2;112.14114522972004
379;379;1449483847;2.0895345211;0.762727558613;0.033285073936;2;True;3;2;112.14114522972004
380;380;1449483847;2.08932781219;0.76260894537;0.0333999469876;2;True;3;2;112.14114522972004
381;381;1449483847;2.08984446526;0.762670099735;0.0326734744012;2;True;3;2;112.14114522972004
382;382;1449483847;2.08970999718;0.762635946274;0.0331682153046;2;True;3;2;112.14114522972004
383;383;1449483847;2.08992695808;0.762685716152;0.0327238850296;2;True;3;2;112.14114522972004
384;384;1449483847;2.0896363258400004;0.762634754181;0.032885972410400005;2;True;3;2;112.14114522972004
385;385;1449483847;2.0899074077599997;0.7626766562459999;0.0326623097062;2;True;3;2;112.14114522972004
386;386;1449483847;2.08991003036;0.762707471848;0.032644864171700004;2;True;3;2;112.14114522972004
387;387;1449483847;2.08988809586;0.7626774311069999;0.032622642815099995;2;True;3;2;112.14114522972004
388;388;1449483847;2.0892119407700003;0.76257032156;0.0333139374852;2;True;3;2;112.14114522972004
389;389;1449483847;2.08984827995;0.762680768967;0.0326487198472;2;True;3;2;112.14114522972004
390;390;1449483847;2.0898911953;0.7626915574070001;0.0326230190694;2;True;3;2;112.14114522972004
391;391;1449483847;2.08989191055;0.762686729431;0.0326276868582;2;True;3;2;112.14114522972004
392;392;1449483847;2.08960747719;0.7626258134839999;0.0333541445434;2;True;3;2;112.14114522972004
393;393;1449483847;2.0896992683400004;0.7626209259029999;0.0328827537596;2;True;3;2;112.14114522972004
394;394;1449483847;2.0898873806;0.76267683506;0.0326291620731;2;True;3;2;112.14114522972004
395;395;1449483847;2.08990049362;0.7626586556430001;0.032632589340200004;2;True;3;2;112.14114522972004
396;396;1449483847;2.0894639492;0.7626166343690001;0.0332951433957;2;True;3;2;112.14114522972004
397;397;1449483847;2.08917427063;0.7626385092739999;0.0334326326847;2;True;3;2;112.14114522972004
398;398;1449483847;2.0898771286;0.76267772913;0.0325990766287;2;True;3;2;112.14114522972004
399;399;1449483847;2.0896689891799998;0.762536585331;0.0328576378524;2;True;3;2;112.14114522972004
400;400;1449483847;2.0898926258099997;0.7626684904100001;0.0326174907386;2;True;3;2;112.14114522972004
401;401;1449483847;2.0892932415;0.762674987316;0.0335015915334;2;True;3;2;112.14114522972004
402;402;1449483847;2.08959031105;0.7626390457150001;0.032853521406700004;2;True;3;2;112.14114522972004
403;403;1449483847;2.08986353874;0.762664616108;0.0326550081372;2;True;3;2;112.14114522972004
404;404;1449483847;2.08984780312;0.762661993504;0.032634183764499995;2;True;3;2;112.14114522972004
405;405;1449483847;2.08988809586;0.7626849412919999;0.0326049588621;2;True;3;2;112.14114522972004
406;406;1449483847;2.08929395676;0.7625734806059999;0.0333498418331;2;True;3;2;112.14114522972004
407;407;1449483847;2.08988499641;0.762669682503;0.0326190702617;2;True;3;2;112.14114522972004
408;408;1449483847;2.08957719803;0.762614130974;0.0328487232327;2;True;3;2;112.14114522972004
409;409;1449483847;2.08966970444;0.7626268267630001;0.0327205881476;2;True;3;2;112.14114522972004
410;410;1449483847;2.0898962020900003;0.762667357922;0.0326331220567;2;True;3;2;112.14114522972004
411;411;1449483847;2.08992576599;0.7626814246179999;0.0325833410025;2;True;3;2;112.14114522972004
412;412;1449483847;2.0893223285699998;0.762624442577;0.0332798026502;2;True;3;2;112.14114522972004
413;413;1449483847;2.08989167213;0.7626710534100001;0.0326167494059;2;True;3;2;112.14114522972004
414;414;1449483847;2.08986258507;0.762685656548;0.032597456127400004;2;True;3;2;112.14114522972004
415;415;1449483847;2.08973932266;0.7626181840899999;0.0328859463334;2;True;3;2;112.14114522972004
416;416;1449483847;2.08946204185;0.762511014938;0.033338457346;2;True;3;2;112.14114522972004
417;417;1449483847;2.0896759033200003;0.7625513672830001;0.032875970005999997;2;True;3;2;112.14114522972004
418;418;1449483847;2.08987140656;0.7626799941060001;0.0326047725976;2;True;3;2;112.14114522972004
419;419;1449483847;2.08970332146;0.7625331282619999;0.032817818224400004;2;True;3;2;112.14114522972004
420;420;1449483847;2.08982515335;0.762612462044;0.0327244363725;2;True;3;2;112.14114522972004
421;421;1449483847;2.08985424042;0.762680530548;0.032673221081500003;2;True;3;2;112.14114522972004
422;422;1449483847;2.08980464935;0.762616872787;0.0327089726925;2;True;3;2;112.14114522972004
423;423;1449483847;2.0898571014400003;0.762685418129;0.0326003059745;2;True;3;2;112.14114522972004
424;424;1449483847;2.08940529823;0.762493669987;0.033372238278399996;2;True;3;2;112.14114522972004
425;425;1449483847;2.08987045288;0.7626791596410001;0.0326063036919;2;True;3;2;112.14114522972004
426;426;1449483847;2.08934760094;0.7625902891159999;0.033232532441599995;2;True;3;2;112.14114522972004
427;427;1449483847;2.0898573398599996;0.762672007084;0.0325930714607;2;True;3;2;112.14114522972004
428;428;1449483847;2.0896673202500002;0.762623310089;0.032759822905099996;2;True;3;2;112.14114522972004
429;429;1449483847;2.08972406387;0.7626039981839999;0.032859496772300004;2;True;3;2;112.14114522972004
430;430;1449483847;2.08985948563;0.7626670598980001;0.0326145775616;2;True;3;2;112.14114522972004
431;431;1449483847;2.08988881111;0.7626853585240001;0.0326039530337;2;True;3;2;112.14114522972004
432;432;1449483847;2.08956050873;0.7624816298479999;0.0332204960287;2;True;3;2;112.14114522972004
433;433;1449483847;2.08988809586;0.7626833915710001;0.0326182805002;2;True;3;2;112.14114522972004
434;434;1449483847;2.0896604061099997;0.762538433075;0.032855559140400004;2;True;3;2;112.14114522972004
435;435;1449483847;2.08988428116;0.762699186802;0.0326126813889;2;True;3;2;112.14114522972004
436;436;1449483847;2.08986711502;0.762693405151;0.032603289932;2;True;3;2;112.14114522972004
437;437;1449483847;2.0898110866499997;0.762623310089;0.0327245146036;2;True;3;2;112.14114522972004
438;438;1449483847;2.08984804153;0.7626923322679999;0.0326436236501;2;True;3;2;112.14114522972004
439;439;1449483847;2.0898349285099997;0.76267439127;0.0326339416206;2;True;3;2;112.14114522972004
440;440;1449483847;2.0892355441999997;0.7626041173929999;0.0333988815546;2;True;3;2;112.14114522972004
441;441;1449483847;2.08977556229;0.762615859509;0.0327738896012;2;True;3;2;112.14114522972004
442;442;1449483847;2.08932375908;0.762583613396;0.033375844359400005;2;True;3;2;112.14114522972004
443;443;1449483847;2.08969473839;0.76260894537;0.0328973196447;2;True;3;2;112.14114522972004
444;444;1449483847;2.08927202225;0.7625833153720001;0.033300567418299995;2;True;3;2;112.14114522972004
445;445;1449483847;2.08983111382;0.762678623199;0.0326600261033;2;True;3;2;112.14114522972004
446;446;1449483847;2.08984923363;0.762662470341;0.0325970426202;2;True;3;2;112.14114522972004
447;447;1449483847;2.08987045288;0.762676000595;0.032612126320599996;2;True;3;2;112.14114522972004
448;448;1449483847;2.08978557587;0.7626772522930001;0.0327102206647;2;True;3;2;112.14114522972004
449;449;1449483847;2.0897035598800002;0.762599647045;0.0328922346234;2;True;3;2;112.14114522972004
450;450;1449483847;2.08955860138;0.762616157532;0.0328881070018;2;True;3;2;112.14114522972004
451;451;1449483847;2.0897808075;0.7626816630359999;0.0326390527189;2;True;3;2;112.14114522972004
452;452;1449483847;2.0898690223700003;0.7626751661300001;0.0326102413237;2;True;3;2;112.14114522972004
453;453;1449483847;2.0894043445599997;0.762698233128;0.033263836056;2;True;3;2;112.14114522972004
454;454;1449483847;2.08914756775;0.7623884677889999;0.0333273932338;2;True;3;2;112.14114522972004
455;455;1449483847;2.0895678997;0.762637019157;0.032887626439299995;2;True;3;2;112.14114522972004
456;456;1449483847;2.0897164344799997;0.762576282024;0.0328676886857;2;True;3;2;112.14114522972004
457;457;1449483847;2.08977174759;0.762706935406;0.0326433740556;2;True;3;2;112.14114522972004
458;458;1449483847;2.08988046646;0.7626894116399999;0.0326222293079;2;True;3;2;112.14114522972004
459;459;1449483847;2.08991932869;0.762702047825;0.0325825810432;2;True;3;2;112.14114522972004
460;460;1449483847;2.08952689171;0.7626160383220001;0.0332149155438;2;True;3;2;112.14114522972004
461;461;1449483847;2.0899341106400002;0.762684702873;0.032594688236700003;2;True;3;2;112.14114522972004
462;462;1449483847;2.08987879753;0.7626833915710001;0.0326144434512;2;True;3;2;112.14114522972004
463;463;1449483847;2.08990216255;0.762691318989;0.0326264165342;2;True;3;2;112.14114522972004
464;464;1449483847;2.08988070488;0.762669801712;0.0326412729919;2;True;3;2;112.14114522972004
465;465;1449483847;2.08989739418;0.7626679539679999;0.032632127404200004;2;True;3;2;112.14114522972004
466;466;1449483847;2.08965921402;0.762549757957;0.0328770987689;2;True;3;2;112.14114522972004
467;467;1449483847;2.0898971557599997;0.762684464455;0.032632637769;2;True;3;2;112.14114522972004
468;468;1449483847;2.08963942528;0.762519001961;0.032882735133199996;2;True;3;2;112.14114522972004
469;469;1449483847;2.0897128582;0.762651264668;0.0327550582588;2;True;3;2;112.14114522972004
470;470;1449483847;2.08988022804;0.762678325176;0.0326087884605;2;True;3;2;112.14114522972004
471;471;1449483847;2.0898680687;0.762682259083;0.0325887575746;2;True;3;2;112.14114522972004
472;472;1449483847;2.0897188186599998;0.7625901103020001;0.0328946597874;2;True;3;2;112.14114522972004
473;473;1449483847;2.08987259865;0.7626921534540001;0.0325974784791;2;True;3;2;112.14114522972004
474;474;1449483847;2.08970618248;0.762601435184;0.0329073406756;2;True;3;2;112.14114522972004
475;475;1449483847;2.08985447884;0.7626653313639999;0.0326326750219;2;True;3;2;112.14114522972004
476;476;1449483847;2.08975768089;0.762600064278;0.032855365425299994;2;True;3;2;112.14114522972004
477;477;1449483847;2.0898156166099997;0.762680411339;0.032671373337500004;2;True;3;2;112.14114522972004
478;478;1449483847;2.08987522125;0.762696623802;0.032590162009;2;True;3;2;112.14114522972004
479;479;1449483847;2.0893931388900002;0.762626886368;0.0333734340966;2;True;3;2;112.14114522972004
480;480;1449483847;2.0897076129900003;0.7625961899760001;0.032883271575000005;2;True;3;2;112.14114522972004
481;481;1449483847;2.0896885395099996;0.7625477314;0.032884631305900004;2;True;3;2;112.14114522972004
482;482;1449483847;2.0898411274;0.7626044154170001;0.0327129922807;2;True;3;2;112.14114522972004
483;483;1449483847;2.0898814201400002;0.762674570084;0.0326432958245;2;True;3;2;112.14114522972004
484;484;1449483847;2.08989071846;0.762678623199;0.0326080210507;2;True;3;2;112.14114522972004
485;485;1449483847;2.08975982666;0.762586057186;0.0328278616071;2;True;3;2;112.14114522972004
486;486;1449483847;2.08945322037;0.7625874280930001;0.0332072153687;2;True;3;2;112.14114522972004
487;487;1449483847;2.08988952637;0.762691497803;0.0326159968972;2;True;3;2;112.14114522972004
488;488;1449483847;2.08993172646;0.7626903057100001;0.0325827263296;2;True;3;2;112.14114522972004
489;489;1449483847;2.0898976326;0.7626883387569999;0.0326069518924;2;True;3;2;112.14114522972004
490;490;1449483847;2.08986091614;0.7625929713249999;0.0327059701085;2;True;3;2;112.14114522972004
491;491;1449483847;2.0899064540900003;0.7626814246179999;0.032632272690499994;2;True;3;2;112.14114522972004
492;492;1449483847;2.08960723877;0.762620329857;0.032875385135400004;2;True;3;2;112.14114522972004
493;493;1449483847;2.08975362778;0.7626821398739999;0.0326658524573;2;True;3;2;112.14114522972004
494;494;1449483847;2.08961248398;0.762626290321;0.032843083143199996;2;True;3;2;112.14114522972004
495;495;1449483847;2.0895812511400003;0.76261729002;0.0329302176833;2;True;3;2;112.14114522972004
496;496;1449483847;2.08987927437;0.762690424919;0.0325803868473;2;True;3;2;112.14114522972004
497;497;1449483847;2.0897192955;0.762604653835;0.032924596220299994;2;True;3;2;112.14114522972004
498;498;1449483847;2.08978390694;0.7626872658730001;0.0326518602669;2;True;3;2;112.14114522972004
499;499;1449483847;2.0898690223700003;0.762675404549;0.032640114426599996;2;True;3;2;112.14114522972004
500;500;1449483847;2.08956003189;0.7627056837080001;0.033280685543999995;2;True;3;2;112.14114522972004
501;501;1449483847;2.08987593651;0.762686908245;0.0326071679592;2;True;3;2;112.14114522972004
502;502;1449483847;2.0897257328;0.762610435486;0.0329422652721;2;True;3;2;112.14114522972004
503;503;1449483847;2.08967971802;0.762615203857;0.0328344479203;2;True;3;2;112.14114522972004
504;504;1449483847;2.08960843086;0.762624800205;0.032830119133000005;2;True;3;2;112.14114522972004
505;505;1449483847;2.08972454071;0.762553155422;0.0328912511468;2;True;3;2;112.14114522972004
506;506;1449483847;2.08977556229;0.7626862525939999;0.032668594270900006;2;True;3;2;112.14114522972004
507;507;1449483847;2.0895981788599998;0.7626293301579999;0.032929431647099994;2;True;3;2;112.14114522972004
508;508;1449483847;2.0898134708400002;0.762697935104;0.032701104879400006;2;True;3;2;112.14114522972004
509;509;1449483847;2.08987379074;0.762672662735;0.0326572880149;2;True;3;2;112.14114522972004
510;510;1449483847;2.0898151397699998;0.7626439332960001;0.032719030976299995;2;True;3;2;112.14114522972004
511;511;1449483847;2.0898771286;0.762676119804;0.0326619930565;2;True;3;2;112.14114522972004
512;512;1449483847;2.08953619003;0.762636005878;0.0333747155964;2;True;3;2;112.14114522972004
513;513;1449483847;2.08952999115;0.762713670731;0.0332918316126;2;True;3;2;112.14114522972004
514;514;1449483847;2.0898835659;0.762672662735;0.0326938703656;2;True;3;2;112.14114522972004
515;515;1449483847;2.08989214897;0.762684702873;0.0326256677508;2;True;3;2;112.14114522972004
516;516;1449483847;2.08959507942;0.7624793648720001;0.0332854986191;2;True;3;2;112.14114522972004
517;517;1449483847;2.08994197845;0.7626863718029999;0.032582592219099996;2;True;3;2;112.14114522972004
518;518;1449483847;2.08961462975;0.762632071972;0.032888710498799996;2;True;3;2;112.14114522972004
519;519;1449483847;2.08957648277;0.762616991997;0.0331655777991;2;True;3;2;112.14114522972004
520;520;1449483847;2.08977770805;0.7626941800120001;0.032669361680700004;2;True;3;2;112.14114522972004
521;521;1449483847;2.0897903442400003;0.7626270055769999;0.0328162610531;2;True;3;2;112.14114522972004
522;522;1449483847;2.08934140205;0.762592554092;0.0332653038204;2;True;3;2;112.14114522972004
523;523;1449483847;2.08925557137;0.762689590454;0.0334974788129;2;True;3;2;112.14114522972004
524;524;1449483847;2.08992624283;0.762696683407;0.0326464883983;2;True;3;2;112.14114522972004
525;525;1449483847;2.0895054340400003;0.762657642365;0.033278580754999995;2;True;3;2;112.14114522972004
526;526;1449483847;2.08989191055;0.762687027454;0.0326933450997;2;True;3;2;112.14114522972004
527;527;1449483847;2.08964061737;0.7626166939740001;0.0327424816787;2;True;3;2;112.14114522972004
528;528;1449483847;2.0899128913900005;0.762684464455;0.0326406471431;2;True;3;2;112.14114522972004
529;529;1449483847;2.08989310265;0.7626906633380001;0.032657738775;2;True;3;2;112.14114522972004
530;530;1449483847;2.08963894844;0.762638688087;0.032882284373;2;True;3;2;112.14114522972004
531;531;1449483847;2.0899102687799997;0.762686312199;0.0326693579555;2;True;3;2;112.14114522972004
532;532;1449483847;2.08992910385;0.76268517971;0.0326548703015;2;True;3;2;112.14114522972004
533;533;1449483847;2.08976817131;0.762578308582;0.0328495763242;2;True;3;2;112.14114522972004
534;534;1449483847;2.08974790573;0.762608468533;0.0328794717789;2;True;3;2;112.14114522972004
535;535;1449483848;2.08989906311;0.762702584267;0.0326518192887;3;True;3;2;112.14114522972004
536;536;1449483848;2.0899240970599995;0.7627012133600001;0.0326133407652;3;True;3;2;112.14114522972004
537;537;1449483848;2.08973860741;0.7626407146449999;0.0328784063458;3;True;3;2;112.14114522972004
538;538;1449483848;2.0902543067900003;0.762669682503;0.0327771790326;3;True;3;2;112.14114522972004
539;539;1449483848;2.08971810341;0.762576043606;0.0328730531037;3;True;3;2;112.14114522972004
540;540;1449483848;2.08987951279;0.762707531452;0.0326593033969;3;True;3;2;112.14114522972004
541;541;1449483848;2.08963108063;0.762681484222;0.0332262665033;3;True;3;2;112.14114522972004
542;542;1449483848;2.0896487236000003;0.762686431408;0.033202070742799995;3;True;3;2;112.14114522972004
543;543;1449483848;2.08990859985;0.76270198822;0.032646868377900005;3;True;3;2;112.14114522972004
544;544;1449483848;2.08961319923;0.762642085552;0.0328893326223;3;True;3;2;112.14114522972004
545;545;1449483848;2.08980774879;0.762696325779;0.0326520688832;3;True;3;2;112.14114522972004
546;546;1449483848;2.08988690376;0.7626752257350001;0.0326521880925;3;True;3;2;112.14114522972004
547;547;1449483848;2.0896525383;0.762547850609;0.0328770503402;3;True;3;2;112.14114522972004
548;548;1449483848;2.08971905708;0.7626655697820001;0.0327690243721;3;True;3;2;112.14114522972004
549;549;1449483848;2.08986020088;0.762673437595;0.032644316554099995;3;True;3;2;112.14114522972004
550;550;1449483848;2.08982610703;0.762612998486;0.0327164530754;3;True;3;2;112.14114522972004
551;551;1449483848;2.08983182907;0.7626184225079999;0.0327146761119;3;True;3;2;112.14114522972004
552;552;1449483848;2.0898668766;0.762681782246;0.0326364971697;3;True;3;2;112.14114522972004
553;553;1449483848;2.08990621567;0.7626678347589999;0.032625194639;3;True;3;2;112.14114522972004
554;554;1449483848;2.08987498283;0.762701809406;0.032602127641400004;3;True;3;2;112.14114522972004
555;555;1449483848;2.08986401558;0.762683808804;0.0326544940472;3;True;3;2;112.14114522972004
556;556;1449483848;2.0898852348299997;0.762690603733;0.0325987003744;3;True;3;2;112.14114522972004
557;557;1449483848;2.0897369384799998;0.762661099434;0.0327467247844;3;True;3;2;112.14114522972004
558;558;1449483848;2.08977103233;0.762679576874;0.032642081379900004;3;True;3;2;112.14114522972004
559;559;1449483848;2.0896537303900002;0.7626166939740001;0.0326878502965;3;True;3;2;112.14114522972004
560;560;1449483848;2.08984851837;0.762674689293;0.0326429344714;3;True;3;2;112.14114522972004
561;561;1449483848;2.08940148354;0.7626566290860001;0.0334213934839;3;True;3;2;112.14114522972004
562;562;1449483848;2.0898892879499997;0.762668430805;0.032670468092;3;True;3;2;112.14114522972004
563;563;1449483848;2.08989191055;0.762672305107;0.032608035951900004;3;True;3;2;112.14114522972004
564;564;1449483848;2.08971810341;0.762653768063;0.0327664874494;3;True;3;2;112.14114522972004
565;565;1449483848;2.0898222923299996;0.7626045942309999;0.032750960439400005;3;True;3;2;112.14114522972004
566;566;1449483848;2.0898733138999996;0.762689888477;0.032585348933900006;3;True;3;2;112.14114522972004
567;567;1449483848;2.08988165855;0.7626780271529999;0.0326033681631;3;True;3;2;112.14114522972004
568;568;1449483848;2.08974075317;0.7626875638959999;0.0326580032706;3;True;3;2;112.14114522972004
569;569;1449483848;2.0899007320400003;0.762670040131;0.0326335728168;3;True;3;2;112.14114522972004
570;570;1449483848;2.08941030502;0.76268106699;0.0333745479584;3;True;3;2;112.14114522972004
571;571;1449483848;2.08989214897;0.7626759409899999;0.032622370868900005;3;True;3;2;112.14114522972004
572;572;1449483848;2.0898604393;0.7626707553859999;0.032644957304;3;True;3;2;112.14114522972004
573;573;1449483848;2.08990216255;0.762674093246;0.032643128186499996;3;True;3;2;112.14114522972004
574;574;1449483848;2.08967256546;0.762619078159;0.0328869074583;3;True;3;2;112.14114522972004
575;575;1449483848;2.08989405632;0.7626752257350001;0.0326149426401;3;True;3;2;112.14114522972004
576;576;1449483848;2.08925032616;0.7627031803129999;0.0334895439446;3;True;3;2;112.14114522972004
577;577;1449483848;2.08963418007;0.762611091137;0.0327027924359;3;True;3;2;112.14114522972004
578;578;1449483848;2.08954739571;0.7626181840899999;0.0331390686333;3;True;3;2;112.14114522972004
579;579;1449483848;2.0896501541099997;0.762535333633;0.0328779630363;3;True;3;2;112.14114522972004
580;580;1449483848;2.08959984779;0.762622475624;0.0328845083714;3;True;3;2;112.14114522972004
581;581;1449483848;2.08977603912;0.762677013874;0.0326273702085;3;True;3;2;112.14114522972004
582;582;1449483848;2.08971142769;0.762560129166;0.032880004495399996;3;True;3;2;112.14114522972004
583;583;1449483848;2.0894715786;0.762640893459;0.033320169895900004;3;True;3;2;112.14114522972004
584;584;1449483848;2.08988046646;0.7626799941060001;0.032593805342900004;3;True;3;2;112.14114522972004
585;585;1449483848;2.08958029747;0.762617945671;0.0329508855939;3;True;3;2;112.14114522972004
586;586;1449483848;2.08989739418;0.76268517971;0.0326255857944;3;True;3;2;112.14114522972004
587;587;1449483848;2.08978033066;0.7626772522930001;0.0326571390033;3;True;3;2;112.14114522972004
588;588;1449483848;2.08990931511;0.762678265572;0.0326223000884;3;True;3;2;112.14114522972004
589;589;1449483848;2.0899155139900003;0.762684702873;0.032634422183;3;True;3;2;112.14114522972004
590;590;1449483848;2.09002280235;0.763002693653;0.0325793214142;3;True;3;2;112.14114522972004
591;591;1449483848;2.08976507187;0.76257443428;0.032858747988900004;3;True;3;2;112.14114522972004
592;592;1449483848;2.0894477367400004;0.762681722641;0.0333516746759;3;True;3;2;112.14114522972004
593;593;1449483848;2.08940029144;0.762558400631;0.033286359161099996;3;True;3;2;112.14114522972004
594;594;1449483848;2.08989453316;0.762676000595;0.0326203517616;3;True;3;2;112.14114522972004
595;595;1449483848;2.0897128582;0.762598752975;0.0328991003335;3;True;3;2;112.14114522972004
596;596;1449483848;2.089874506;0.762648284435;0.0326470248401;3;True;3;2;112.14114522972004
597;597;1449483848;2.08989024162;0.7625949978829999;0.0326945148408;3;True;3;2;112.14114522972004
598;598;1449483848;2.0893239975;0.7626521587369999;0.0334818325937;3;True;3;2;112.14114522972004
599;599;1449483848;2.08959650993;0.762710809708;0.0332191362977;3;True;3;2;112.14114522972004
600;600;1449483848;2.08976459503;0.762537062168;0.0328227132559;3;True;3;2;112.14114522972004
601;601;1449483848;2.08965349197;0.762525379658;0.0328572951257;3;True;3;2;112.14114522972004
602;602;1449483848;2.0899245739;0.7626642584800001;0.0326365567744;3;True;3;2;112.14114522972004
603;603;1449483848;2.08988976479;0.762657105923;0.0325942933559;3;True;3;2;112.14114522972004
604;604;1449483848;2.0894112587;0.762562811375;0.033266376704000004;3;True;3;2;112.14114522972004
605;605;1449483848;2.0898971557599997;0.76265245676;0.0326120331883;3;True;3;2;112.14114522972004
606;606;1449483848;2.0892136097;0.76250398159;0.0330526418984;3;True;3;2;112.14114522972004
607;607;1449483848;2.089656353;0.762599289417;0.032700914889599995;3;True;3;2;112.14114522972004
608;608;1449483848;2.08989405632;0.762649655342;0.0326262414455;3;True;3;2;112.14114522972004
609;609;1449483848;2.08983373642;0.76259547472;0.0327053554356;3;True;3;2;112.14114522972004
