;Unnamed: 0;header_stamp_secs;pose_position_x;pose_position_y;pose_position_z;seconds;drop_values;flight_number;label;dtw
0;0;1449490551;2.13162517548;0.798676371574;0.0684038847685;0;True;32;1;19.320204496690017
1;1;1449490551;2.13155269623;0.7985590100290001;0.0684406906366;0;True;32;1;19.320204496690017
2;2;1449490551;2.1315457820900003;0.798579871655;0.0684776678681;0;True;32;1;19.320204496690017
3;3;1449490551;2.1315543651599995;0.79846227169;0.0684643015265;0;True;32;1;19.320204496690017
4;4;1449490551;2.13156056404;0.798551261425;0.0684214010835;0;True;32;1;19.320204496690017
5;5;1449490551;2.13154935837;0.798643410206;0.0685088410974;0;True;32;1;19.320204496690017
6;6;1449490551;2.13153290749;0.798516631126;0.0684399306774;0;True;32;1;19.320204496690017
7;7;1449490551;2.1314804553999998;0.798524796963;0.0684584230185;0;True;32;1;19.320204496690017
8;8;1449490551;2.13160467148;0.7985666990279999;0.06845257431269999;0;True;32;1;19.320204496690017
9;9;1449490551;2.1314876079599996;0.798520863056;0.0684691518545;0;True;32;1;19.320204496690017
10;10;1449490551;2.13156723976;0.798631310463;0.0684366673231;0;True;32;1;19.320204496690017
11;11;1449490551;2.13154864311;0.798592567444;0.06849474459890001;0;True;32;1;19.320204496690017
12;12;1449490551;2.13166189194;0.798784673214;0.0684253945947;0;True;32;1;19.320204496690017
13;13;1449490551;2.13162493706;0.798720002174;0.0684171840549;0;True;32;1;19.320204496690017
14;14;1449490551;2.1316487789200003;0.798808813095;0.0683825686574;0;True;32;1;19.320204496690017
15;15;1449490551;2.13158893585;0.7986496686939999;0.0684174597263;0;True;32;1;19.320204496690017
16;16;1449490551;2.13148331642;0.7985309958460001;0.0684966593981;0;True;32;1;19.320204496690017
17;17;1449490551;2.13160300255;0.798602879047;0.0684596151114;0;True;32;1;19.320204496690017
18;18;1449490551;2.13148880005;0.7985610365870001;0.0684679895639;0;True;32;1;19.320204496690017
19;19;1449490551;2.13168787956;0.798732459545;0.06834117323160001;0;True;32;1;19.320204496690017
20;20;1449490551;2.13165330887;0.798688948154;0.0683593675494;0;True;32;1;19.320204496690017
21;21;1449490551;2.13164758682;0.798705279827;0.0684213489294;0;True;32;1;19.320204496690017
22;22;1449490551;2.13154053688;0.798528015614;0.0684853568673;0;True;32;1;19.320204496690017
23;23;1449490551;2.13163352013;0.79870313406;0.0683940127492;0;True;32;1;19.320204496690017
24;24;1449490551;2.13156843185;0.798689961433;0.0684457495809;0;True;32;1;19.320204496690017
25;25;1449490551;2.1315863132499997;0.798611164093;0.0684324279428;0;True;32;1;19.320204496690017
26;26;1449490551;2.1315279007;0.7985842227940001;0.068478628993;0;True;32;1;19.320204496690017
27;27;1449490551;2.13158464432;0.7985871434209999;0.0684354454279;0;True;32;1;19.320204496690017
28;28;1449490551;2.13154363632;0.798582673073;0.0684795752168;0;True;32;1;19.320204496690017
29;29;1449490551;2.13162612915;0.7986441850660001;0.0684592053294;0;True;32;1;19.320204496690017
30;30;1449490551;2.13155722618;0.798659026623;0.0685116797686;0;True;32;1;19.320204496690017
31;31;1449490551;2.13153457642;0.798536717892;0.0684931948781;0;True;32;1;19.320204496690017
32;32;1449490551;2.13155174255;0.798509120941;0.0684372261167;0;True;32;1;19.320204496690017
33;33;1449490551;2.13162398338;0.7986783981319999;0.0683658793569;0;True;32;1;19.320204496690017
34;34;1449490551;2.13158416748;0.7985835671420001;0.0684369429946;0;True;32;1;19.320204496690017
35;35;1449490551;2.13160657883;0.798638522625;0.0684204846621;0;True;32;1;19.320204496690017
36;36;1449490551;2.13163971901;0.798716425896;0.0683987215161;0;True;32;1;19.320204496690017
37;37;1449490551;2.13160920143;0.798540472984;0.06845277547840001;0;True;32;1;19.320204496690017
38;38;1449490551;2.1316611766799998;0.7987926602359999;0.06838724017140001;0;True;32;1;19.320204496690017
39;39;1449490551;2.1316332817099997;0.798672378063;0.0683995485306;0;True;32;1;19.320204496690017
40;40;1449490551;2.13156867027;0.798560082912;0.0684379637241;0;True;32;1;19.320204496690017
41;41;1449490551;2.1315631866499998;0.798435211182;0.0684791579843;0;True;32;1;19.320204496690017
42;42;1449490551;2.13160037994;0.798643648624;0.06842918694019999;0;True;32;1;19.320204496690017
43;43;1449490551;2.13163590431;0.798777103424;0.0683989971876;0;True;32;1;19.320204496690017
44;44;1449490551;2.13156485558;0.798659443855;0.068522028625;0;True;32;1;19.320204496690017
45;45;1449490551;2.13159680367;0.798567295074;0.0684018805623;0;True;32;1;19.320204496690017
46;46;1449490551;2.1315577030200004;0.798569321632;0.06843162327999999;0;True;32;1;19.320204496690017
47;47;1449490551;2.1315643787400003;0.798655211926;0.0684497281909;0;True;32;1;19.320204496690017
48;48;1449490551;2.13152837753;0.798571169376;0.0684687420726;0;True;32;1;19.320204496690017
49;49;1449490551;2.1316080093400003;0.798692822456;0.0684289187193;0;True;32;1;19.320204496690017
50;50;1449490551;2.13152194023;0.798555076122;0.0684750750661;0;True;32;1;19.320204496690017
51;51;1449490551;2.1315639019;0.798651993275;0.0684479549527;0;True;32;1;19.320204496690017
52;52;1449490551;2.1315267086;0.798618197441;0.0684594810009;0;True;32;1;19.320204496690017
53;53;1449490551;2.13155221939;0.7985879182819999;0.06846971809859999;0;True;32;1;19.320204496690017
54;54;1449490551;2.13155007362;0.798597216606;0.06844871491190001;0;True;32;1;19.320204496690017
55;55;1449490551;2.1315741539;0.798598229885;0.06845974922180001;0;True;32;1;19.320204496690017
56;56;1449490551;2.13151454926;0.798528373241;0.06847114861010001;0;True;32;1;19.320204496690017
57;57;1449490551;2.13156747818;0.7986351847650001;0.0684418752789;0;True;32;1;19.320204496690017
58;58;1449490551;2.13161206245;0.7985672354699999;0.06839963793750001;0;True;32;1;19.320204496690017
59;59;1449490551;2.1316378116599997;0.7986875772480001;0.0684032812715;0;True;32;1;19.320204496690017
60;60;1449490551;2.13156032562;0.798565864563;0.0684486627579;0;True;32;1;19.320204496690017
61;61;1449490551;2.1315703392;0.798468530178;0.0683814585209;0;True;32;1;19.320204496690017
62;62;1449490551;2.13156342506;0.7985346913339999;0.068475663662;0;True;32;1;19.320204496690017
63;63;1449490551;2.13162302971;0.798609912395;0.0683937966824;0;True;32;1;19.320204496690017
64;64;1449490551;2.13165283203;0.79863089323;0.0684437975287;0;True;32;1;19.320204496690017
65;65;1449490551;2.1315543651599995;0.798542380333;0.0684732571244;0;True;32;1;19.320204496690017
66;66;1449490551;2.1315882206;0.79867452383;0.0684986263514;0;True;32;1;19.320204496690017
67;67;1449490551;2.13152551651;0.798533320427;0.0686248838902;0;True;32;1;19.320204496690017
68;68;1449490551;2.1316537857099997;0.7986993789669999;0.068422332406;0;True;32;1;19.320204496690017
69;69;1449490551;2.1315715313;0.798501729965;0.0684376358986;0;True;32;1;19.320204496690017
70;70;1449490551;2.13159894943;0.7985857129100001;0.06843162327999999;0;True;32;1;19.320204496690017
71;71;1449490551;2.13165307045;0.798694849014;0.06845036149019999;0;True;32;1;19.320204496690017
72;72;1449490551;2.13157200813;0.798665523529;0.0685060918331;0;True;32;1;19.320204496690017
73;73;1449490551;2.13160586357;0.7985693812369999;0.0684170871973;0;True;32;1;19.320204496690017
74;74;1449490551;2.13162469864;0.798653185368;0.0684238672256;0;True;32;1;19.320204496690017
75;75;1449490551;2.13157534599;0.798655807972;0.0684175118804;0;True;32;1;19.320204496690017
76;76;1449490551;2.13163471222;0.79867452383;0.0683996900916;0;True;32;1;19.320204496690017
77;77;1449490551;2.1316373348199997;0.798690021038;0.0684094503522;0;True;32;1;19.320204496690017
78;78;1449490551;2.13157320023;0.798688530922;0.0684142410755;0;True;32;1;19.320204496690017
79;79;1449490551;2.13146471977;0.798481285572;0.0685132741928;0;True;32;1;19.320204496690017
80;80;1449490551;2.1316242218;0.798639237881;0.0684546306729;0;True;32;1;19.320204496690017
81;81;1449490551;2.1315510273;0.7985823154449999;0.0684617012739;0;True;32;1;19.320204496690017
82;82;1449490552;2.1316421032;0.798817396164;0.0683743804693;1;True;32;1;19.320204496690017
83;83;1449490552;2.1316215992;0.7986951470379999;0.0684065297246;1;True;32;1;19.320204496690017
84;84;1449490552;2.1315331459;0.7986719012260001;0.06842248141769999;1;True;32;1;19.320204496690017
85;85;1449490552;2.13152837753;0.798643231392;0.06851473450659999;1;True;32;1;19.320204496690017
86;86;1449490552;2.13155865669;0.798665106297;0.0685048550367;1;True;32;1;19.320204496690017
87;87;1449490552;2.13154196739;0.798586010933;0.0684496238828;1;True;32;1;19.320204496690017
88;88;1449490552;2.1316204071000002;0.7986952662469999;0.0683894827962;1;True;32;1;19.320204496690017
89;89;1449490552;2.13155341148;0.7985909581180001;0.0684921741486;1;True;32;1;19.320204496690017
90;90;1449490552;2.1316323280300002;0.7986553907389999;0.0684389173985;1;True;32;1;19.320204496690017
91;91;1449490552;2.1314561367;0.798337936401;0.0684674084187;1;True;32;1;19.320204496690017
92;92;1449490552;2.13152623177;0.798544228077;0.0684793591499;1;True;32;1;19.320204496690017
93;93;1449490552;2.1315836906400003;0.7986305356029999;0.0684400051832;1;True;32;1;19.320204496690017
94;94;1449490552;2.13152313232;0.798523366451;0.0684712454677;1;True;32;1;19.320204496690017
95;95;1449490552;2.13154792786;0.798582494259;0.0684988796711;1;True;32;1;19.320204496690017
96;96;1449490552;2.13151884079;0.798554360867;0.06847500056030001;1;True;32;1;19.320204496690017
97;97;1449490552;2.13162469864;0.798686861992;0.0684113055468;1;True;32;1;19.320204496690017
98;98;1449490552;2.1316192150099997;0.798714578152;0.0683820843697;1;True;32;1;19.320204496690017
99;99;1449490552;2.13155412674;0.798723757267;0.0684628039598;1;True;32;1;19.320204496690017
100;100;1449490552;2.13160085678;0.7986461520199999;0.06836562603709999;1;True;32;1;19.320204496690017
101;101;1449490552;2.13160896301;0.7986845970149999;0.068403467536;1;True;32;1;19.320204496690017
102;102;1449490552;2.1315543651599995;0.798586308956;0.0684847384691;1;True;32;1;19.320204496690017
103;103;1449490552;2.1315021514900003;0.798609614372;0.0684370622039;1;True;32;1;19.320204496690017
104;104;1449490552;2.1315495967900002;0.798518061638;0.06846393644809999;1;True;32;1;19.320204496690017
105;105;1449490552;2.1316330432900004;0.7986441850660001;0.0684475526214;1;True;32;1;19.320204496690017
106;106;1449490552;2.1316344738;0.798705875874;0.06842740625140001;1;True;32;1;19.320204496690017
107;107;1449490552;2.13157534599;0.7986222505570001;0.06842918694019999;1;True;32;1;19.320204496690017
108;108;1449490552;2.13161945343;0.798624813557;0.0684434324503;1;True;32;1;19.320204496690017
109;109;1449490552;2.1316332817099997;0.798795044422;0.0683852210641;1;True;32;1;19.320204496690017
110;110;1449490552;2.13152480125;0.798520445824;0.06846485286949999;1;True;32;1;19.320204496690017
111;111;1449490552;2.1316382885;0.798777163029;0.0683868303895;1;True;32;1;19.320204496690017
112;112;1449490552;2.1316087245900004;0.798562288284;0.068371117115;1;True;32;1;19.320204496690017
113;113;1449490552;2.13159227371;0.798492312431;0.068372644484;1;True;32;1;19.320204496690017
114;114;1449490552;2.13154745102;0.7986693382260001;0.0684581920505;1;True;32;1;19.320204496690017
115;115;1449490552;2.13155269623;0.7986462116240001;0.068505845964;1;True;32;1;19.320204496690017
116;116;1449490552;2.13160467148;0.7987115979189999;0.0684310346842;1;True;32;1;19.320204496690017
117;117;1449490552;2.13150167465;0.798670291901;0.0684601068497;1;True;32;1;19.320204496690017
118;118;1449490552;2.1315741539;0.7986007332800001;0.0684461593628;1;True;32;1;19.320204496690017
119;119;1449490552;2.13148212433;0.798511445522;0.0684888660908;1;True;32;1;19.320204496690017
120;120;1449490552;2.1316075325;0.7986820936200001;0.0684297829866;1;True;32;1;19.320204496690017
121;121;1449490552;2.1315999031099997;0.798546612263;0.0684573426843;1;True;32;1;19.320204496690017
122;122;1449490552;2.13157534599;0.798780500889;0.0684206038713;1;True;32;1;19.320204496690017
123;123;1449490552;2.1315660476700002;0.798720002174;0.06841603666540001;1;True;32;1;19.320204496690017
124;124;1449490552;2.13157272339;0.7985467910770001;0.0684584677219;1;True;32;1;19.320204496690017
125;125;1449490552;2.1315269470200002;0.798573374748;0.0685632750392;1;True;32;1;19.320204496690017
126;126;1449490552;2.1315503120400003;0.798649251461;0.0684921741486;1;True;32;1;19.320204496690017
127;127;1449490552;2.13146281242;0.7984858751299999;0.0685120150447;1;True;32;1;19.320204496690017
128;128;1449490552;2.13164973259;0.798633933067;0.0684508085251;1;True;32;1;19.320204496690017
129;129;1449490552;2.13166046143;0.7988366484639999;0.0684005916119;1;True;32;1;19.320204496690017
130;130;1449490552;2.13160419464;0.798626601696;0.0684070289135;1;True;32;1;19.320204496690017
131;131;1449490552;2.13161969185;0.798720061779;0.06837741285559999;1;True;32;1;19.320204496690017
132;132;1449490552;2.1316289901700003;0.798624038696;0.0684454590082;1;True;32;1;19.320204496690017
133;133;1449490552;2.13161039352;0.798679232597;0.06840929389;1;True;32;1;19.320204496690017
134;134;1449490552;2.13163900375;0.798726975918;0.068401709199;1;True;32;1;19.320204496690017
135;135;1449490552;2.13157582283;0.798567056656;0.0683862492442;1;True;32;1;19.320204496690017
136;136;1449490552;2.1316299438499997;0.798630416393;0.0684321373701;1;True;32;1;19.320204496690017
137;137;1449490552;2.13153076172;0.798569023609;0.0684635713696;1;True;32;1;19.320204496690017
138;138;1449490552;2.13157200813;0.798749148846;0.068419881165;1;True;32;1;19.320204496690017
139;139;1449490552;2.13153743744;0.798648416996;0.0684428289533;1;True;32;1;19.320204496690017
140;140;1449490552;2.13151669502;0.798435509205;0.06845518201589999;1;True;32;1;19.320204496690017
141;141;1449490552;2.13145470619;0.7984742522239999;0.06851842999459999;1;True;32;1;19.320204496690017
142;142;1449490552;2.1315512657199998;0.7986565828319999;0.0684816837311;1;True;32;1;19.320204496690017
143;143;1449490552;2.1316184997599996;0.7986008524889999;0.0684397518635;1;True;32;1;19.320204496690017
144;144;1449490552;2.13164162636;0.7986686229709999;0.06843588501209999;1;True;32;1;19.320204496690017
145;145;1449490552;2.13155412674;0.798678636551;0.0684220865369;1;True;32;1;19.320204496690017
146;146;1449490552;2.13148641586;0.798534929752;0.0684424638748;1;True;32;1;19.320204496690017
147;147;1449490552;2.13158988953;0.798583328724;0.0683807581663;1;True;32;1;19.320204496690017
148;148;1449490552;2.13160848618;0.7986428737639999;0.0683690309525;1;True;32;1;19.320204496690017
149;149;1449490552;2.13154435158;0.7985432147980001;0.06840325891969999;1;True;32;1;19.320204496690017
150;150;1449490552;2.13145208359;0.7984536886220001;0.06850085407499999;1;True;32;1;19.320204496690017
151;151;1449490552;2.1315546035799997;0.798442840576;0.0684623718262;1;True;32;1;19.320204496690017
152;152;1449490552;2.13166046143;0.798849105835;0.068373337388;1;True;32;1;19.320204496690017
153;153;1449490552;2.13147377968;0.7985230088230001;0.068483799696;1;True;32;1;19.320204496690017
154;154;1449490552;2.1315212249799997;0.798628926277;0.0684516131878;1;True;32;1;19.320204496690017
155;155;1449490552;2.13160586357;0.7986751794820001;0.0684161186218;1;True;32;1;19.320204496690017
156;156;1449490552;2.1316151619;0.7986223697660001;0.06843350827689999;1;True;32;1;19.320204496690017
157;157;1449490552;2.13160777092;0.798673868179;0.0684211328626;1;True;32;1;19.320204496690017
158;158;1449490552;2.1315536499000003;0.7987080216410001;0.0684173628688;1;True;32;1;19.320204496690017
159;159;1449490552;2.1316204071000002;0.7986425757410001;0.0683822259307;1;True;32;1;19.320204496690017
160;160;1449490552;2.1315412521400003;0.7986660003659999;0.0684339851141;1;True;32;1;19.320204496690017
161;161;1449490552;2.13155555725;0.7987136244769999;0.0684306025505;1;True;32;1;19.320204496690017
162;162;1449490552;2.1316344738;0.798670947552;0.0684323981404;1;True;32;1;19.320204496690017
163;163;1449490552;2.13161945343;0.798627495766;0.0684340000153;1;True;32;1;19.320204496690017
164;164;1449490552;2.13145208359;0.7984650731090001;0.0684912279248;1;True;32;1;19.320204496690017
165;165;1449490552;2.13149905205;0.7986144423479999;0.0684324875474;1;True;32;1;19.320204496690017
166;166;1449490552;2.1315107345599995;0.7985212802889999;0.06845719367269999;1;True;32;1;19.320204496690017
167;167;1449490552;2.1315999031099997;0.7986556887630001;0.0683390796185;1;True;32;1;19.320204496690017
168;168;1449490552;2.13151311874;0.798539102077;0.068471133709;1;True;32;1;19.320204496690017
169;169;1449490552;2.1316318512;0.798679053783;0.068430185318;1;True;32;1;19.320204496690017
170;170;1449490552;2.13162112236;0.79870980978;0.068380407989;1;True;32;1;19.320204496690017
171;171;1449490552;2.1315503120400003;0.7985932827;0.06846572458740001;1;True;32;1;19.320204496690017
172;172;1449490552;2.13159918785;0.7986564040180001;0.068389236927;1;True;32;1;19.320204496690017
173;173;1449490552;2.13145661354;0.798487365246;0.0684895887971;1;True;32;1;19.320204496690017
174;174;1449490552;2.13154196739;0.798577070236;0.068451359868;1;True;32;1;19.320204496690017
175;175;1449490552;2.1314637661;0.798529446125;0.0684451982379;1;True;32;1;19.320204496690017
176;176;1449490552;2.13161945343;0.798712670803;0.0684171840549;1;True;32;1;19.320204496690017
177;177;1449490552;2.1314578056299998;0.798539936543;0.0684368386865;1;True;32;1;19.320204496690017
178;178;1449490552;2.1316299438499997;0.798685729504;0.06839054822919999;1;True;32;1;19.320204496690017
179;179;1449490552;2.13155889511;0.7985951900480001;0.06842280924319999;1;True;32;1;19.320204496690017
180;180;1449490552;2.1316037178;0.7986276745800001;0.06834810972210001;1;True;32;1;19.320204496690017
181;181;1449490552;2.13158917427;0.798577964306;0.0683593600988;1;True;32;1;19.320204496690017
182;182;1449490552;2.1316146850599997;0.7986720800399999;0.06836212426419999;1;True;32;1;19.320204496690017
183;183;1449490552;2.13150835037;0.798527598381;0.0684485882521;1;True;32;1;19.320204496690017
184;184;1449490552;2.13164424896;0.7986524701119999;0.0683231130242;1;True;32;1;19.320204496690017
185;185;1449490552;2.1316158771500002;0.798615992069;0.0684358924627;1;True;32;1;19.320204496690017
186;186;1449490552;2.1316022872900002;0.79865950346;0.06841597706079999;1;True;32;1;19.320204496690017
187;187;1449490552;2.1315636634799997;0.7985815405850001;0.0684441998601;1;True;32;1;19.320204496690017
188;188;1449490552;2.13157272339;0.798760652542;0.0684069022536;1;True;32;1;19.320204496690017
189;189;1449490552;2.13163161278;0.7986564040180001;0.06834582984450001;1;True;32;1;19.320204496690017
190;190;1449490552;2.1315433979;0.7986040711399999;0.0684314444661;1;True;32;1;19.320204496690017
191;191;1449490552;2.13158726692;0.798692882061;0.06840742379430001;1;True;32;1;19.320204496690017
192;192;1449490552;2.13142943382;0.798459410667;0.06845156848430001;1;True;32;1;19.320204496690017
193;193;1449490552;2.13143873215;0.7984604835510001;0.0684911832213;1;True;32;1;19.320204496690017
194;194;1449490552;2.13150858879;0.7985326647759999;0.06842920929190001;1;True;32;1;19.320204496690017
195;195;1449490552;2.13149833679;0.798582911491;0.0684411153197;1;True;32;1;19.320204496690017
196;196;1449490552;2.1315577030200004;0.798710227013;0.0684068500996;1;True;32;1;19.320204496690017
197;197;1449490552;2.13160037994;0.7985973358149999;0.0684341415763;1;True;32;1;19.320204496690017
198;198;1449490552;2.13149499893;0.79856210947;0.0684530436993;1;True;32;1;19.320204496690017
199;199;1449490552;2.1316151619;0.798677623272;0.068377032876;1;True;32;1;19.320204496690017
200;200;1449490552;2.13155388832;0.798589110374;0.0684475153685;1;True;32;1;19.320204496690017
201;201;1449490552;2.13161683083;0.798834204674;0.0683815777302;1;True;32;1;19.320204496690017
202;202;1449490552;2.1315433979;0.7985727190970001;0.0685011595488;1;True;32;1;19.320204496690017
203;203;1449490552;2.13145923615;0.798475444317;0.0684949234128;1;True;32;1;19.320204496690017
204;204;1449490552;2.13153338432;0.798533737659;0.0684235170484;1;True;32;1;19.320204496690017
205;205;1449490552;2.13162469864;0.79871660471;0.0683781504631;1;True;32;1;19.320204496690017
206;206;1449490552;2.13161873817;0.798671424389;0.0684318765998;1;True;32;1;19.320204496690017
207;207;1449490552;2.1314504146599997;0.7984892725939999;0.0684549584985;1;True;32;1;19.320204496690017
208;208;1449490552;2.13166022301;0.798701167107;0.0683129802346;1;True;32;1;19.320204496690017
209;209;1449490552;2.1315319538099997;0.7985753417020001;0.0684741139412;1;True;32;1;19.320204496690017
210;210;1449490552;2.13156247139;0.7985879182819999;0.0683893412352;1;True;32;1;19.320204496690017
211;211;1449490552;2.13153624535;0.798566758633;0.0684537440538;1;True;32;1;19.320204496690017
212;212;1449490552;2.1316292285900005;0.7988067269329999;0.0683766826987;1;True;32;1;19.320204496690017
213;213;1449490552;2.13161373138;0.7987890243529999;0.0683881640434;1;True;32;1;19.320204496690017
214;214;1449490552;2.13155651093;0.7984925508499999;0.0683632567525;1;True;32;1;19.320204496690017
215;215;1449490552;2.1316096782700003;0.79862678051;0.068344950676;1;True;32;1;19.320204496690017
216;216;1449490552;2.13150978088;0.798492610455;0.0685449838638;1;True;32;1;19.320204496690017
217;217;1449490552;2.13154768944;0.798579394817;0.06846123188730001;1;True;32;1;19.320204496690017
218;218;1449490552;2.13154196739;0.798648297787;0.06849064677950001;1;True;32;1;19.320204496690017
219;219;1449490552;2.1315615177200002;0.798515856266;0.06834896653889999;1;True;32;1;19.320204496690017
220;220;1449490552;2.1316339969599998;0.7987999320029999;0.06838303804399999;1;True;32;1;19.320204496690017
221;221;1449490552;2.13151216507;0.798569262028;0.0684514343739;1;True;32;1;19.320204496690017
222;222;1449490552;2.13147974014;0.798528730869;0.0684305876493;1;True;32;1;19.320204496690017
223;223;1449490552;2.13160705566;0.798678874969;0.06837986409659999;1;True;32;1;19.320204496690017
224;224;1449490552;2.13162231445;0.798560261726;0.0683607757092;1;True;32;1;19.320204496690017
225;225;1449490552;2.13153743744;0.798519432545;0.0684255734086;1;True;32;1;19.320204496690017
226;226;1449490552;2.13165545464;0.79868131876;0.0683514103293;1;True;32;1;19.320204496690017
227;227;1449490552;2.13149476051;0.7985453009610001;0.06845932453869999;1;True;32;1;19.320204496690017
228;228;1449490552;2.1316258907299996;0.798696935177;0.0684055685997;1;True;32;1;19.320204496690017
229;229;1449490552;2.13153171539;0.7985333800319999;0.0684695839882;1;True;32;1;19.320204496690017
230;230;1449490552;2.1314327716799997;0.798397183418;0.06850350648159999;1;True;32;1;19.320204496690017
231;231;1449490552;2.13154864311;0.798659920692;0.0684194266796;1;True;32;1;19.320204496690017
232;232;1449490552;2.13160634041;0.798635661602;0.0683919340372;1;True;32;1;19.320204496690017
233;233;1449490552;2.13160848618;0.798585772514;0.06838572770359999;1;True;32;1;19.320204496690017
234;234;1449490552;2.1315762996700003;0.798577785492;0.068412348628;1;True;32;1;19.320204496690017
235;235;1449490552;2.13161897659;0.7986843585969999;0.06839659810069999;1;True;32;1;19.320204496690017
236;236;1449490552;2.13158893585;0.798642039299;0.068422421813;1;True;32;1;19.320204496690017
237;237;1449490552;2.13162469864;0.798624098301;0.0684364140034;1;True;32;1;19.320204496690017
238;238;1449490552;2.13156580925;0.7986082434649999;0.06840100884440001;1;True;32;1;19.320204496690017
239;239;1449490552;2.13155698776;0.7986639738079999;0.0684046372771;1;True;32;1;19.320204496690017
240;240;1449490552;2.13146281242;0.798466324806;0.0684927999973;1;True;32;1;19.320204496690017
241;241;1449490552;2.13163113594;0.798647880554;0.06843977421519999;1;True;32;1;19.320204496690017
242;242;1449490552;2.13158273697;0.798572361469;0.0683874189854;1;True;32;1;19.320204496690017
243;243;1449490552;2.13154554367;0.798628807068;0.0684352889657;1;True;32;1;19.320204496690017
244;244;1449490552;2.13156843185;0.79867631197;0.06848155707119999;1;True;32;1;19.320204496690017
245;245;1449490552;2.131513834;0.79863101244;0.068421676755;1;True;32;1;19.320204496690017
246;246;1449490552;2.1316173076599996;0.7987073063850001;0.068404302001;1;True;32;1;19.320204496690017
247;247;1449490552;2.1316022872900002;0.798632323742;0.0683588683605;1;True;32;1;19.320204496690017
248;248;1449490552;2.13155293465;0.798760652542;0.0684470385313;1;True;32;1;19.320204496690017
249;249;1449490552;2.1316013336200004;0.798656642437;0.0683919489384;1;True;32;1;19.320204496690017
250;250;1449490552;2.13155817986;0.7986686825749999;0.0684045851231;1;True;32;1;19.320204496690017
251;251;1449490552;2.13160395622;0.798689246178;0.0683689564466;1;True;32;1;19.320204496690017
252;252;1449490552;2.13160848618;0.798720180988;0.0683773383498;1;True;32;1;19.320204496690017
253;253;1449490552;2.1315631866499998;0.7985271215440001;0.0683361813426;1;True;32;1;19.320204496690017
254;254;1449490552;2.1316299438499997;0.798804402351;0.0683891549706;1;True;32;1;19.320204496690017
255;255;1449490552;2.13155007362;0.7985857129100001;0.0684652104974;1;True;32;1;19.320204496690017
256;256;1449490552;2.1315462589300003;0.7985084056849999;0.06846492737530001;1;True;32;1;19.320204496690017
257;257;1449490552;2.1315748691599996;0.79869478941;0.0683985874057;1;True;32;1;19.320204496690017
258;258;1449490552;2.13151454926;0.798607766628;0.06843970716;1;True;32;1;19.320204496690017
259;259;1449490552;2.13154530525;0.798657536507;0.06848095357419999;1;True;32;1;19.320204496690017
260;260;1449490552;2.1315348148299997;0.79869812727;0.0684412494302;1;True;32;1;19.320204496690017
261;261;1449490552;2.13156175613;0.7987471222879999;0.06841011345390001;1;True;32;1;19.320204496690017
262;262;1449490552;2.13162255287;0.798621892929;0.06843534857030001;1;True;32;1;19.320204496690017
263;263;1449490552;2.13154554367;0.7986694574359999;0.0684970766306;1;True;32;1;19.320204496690017
264;264;1449490552;2.13158512115;0.798638522625;0.0684023052454;1;True;32;1;19.320204496690017
265;265;1449490552;2.1316034793900003;0.79865270853;0.06839077174660001;1;True;32;1;19.320204496690017
266;266;1449490552;2.13161277771;0.7987101078030001;0.0683933645487;1;True;32;1;19.320204496690017
267;267;1449490552;2.13155937195;0.798680305481;0.0684875547886;1;True;32;1;19.320204496690017
268;268;1449490552;2.13165998459;0.798702061176;0.0683706924319;1;True;32;1;19.320204496690017
269;269;1449490552;2.13152599335;0.798498213291;0.0683768093586;1;True;32;1;19.320204496690017
270;270;1449490552;2.1315155029299997;0.798572361469;0.0684610679746;1;True;32;1;19.320204496690017
271;271;1449490552;2.13157725334;0.7987630367280001;0.0684189274907;1;True;32;1;19.320204496690017
272;272;1449490552;2.1316056251499997;0.798634827137;0.0684420838952;1;True;32;1;19.320204496690017
273;273;1449490552;2.13153076172;0.7986517548559999;0.0684470981359;1;True;32;1;19.320204496690017
274;274;1449490552;2.13158774376;0.7985301017759999;0.0683383867145;1;True;32;1;19.320204496690017
275;275;1449490552;2.1316473484;0.7987943887710001;0.0683633908629;1;True;32;1;19.320204496690017
276;276;1449490552;2.1315279007;0.7986230850220001;0.0684180408716;1;True;32;1;19.320204496690017
277;277;1449490552;2.13154482841;0.798653960228;0.0684765800834;1;True;32;1;19.320204496690017
278;278;1449490552;2.1316125392900003;0.798640370369;0.06843925267459999;1;True;32;1;19.320204496690017
279;279;1449490552;2.1314635276800002;0.798487663269;0.0684960409999;1;True;32;1;19.320204496690017
280;280;1449490552;2.13164019585;0.7987727522849999;0.0684215202928;1;True;32;1;19.320204496690017
281;281;1449490552;2.13156938553;0.7986007332800001;0.0684053897858;1;True;32;1;19.320204496690017
282;282;1449490552;2.13164663315;0.798747241497;0.06833731383090001;1;True;32;1;19.320204496690017
283;283;1449490552;2.13154459;0.7986537814139999;0.06841517239810001;1;True;32;1;19.320204496690017
284;284;1449490552;2.13150477409;0.798540472984;0.0684567168355;1;True;32;1;19.320204496690017
285;285;1449490552;2.1315946579;0.798566043377;0.068409897387;1;True;32;1;19.320204496690017
286;286;1449490552;2.13148093224;0.798507630825;0.06844174116849999;1;True;32;1;19.320204496690017
287;287;1449490552;2.13155651093;0.798575162888;0.0684942603111;1;True;32;1;19.320204496690017
288;288;1449490552;2.1316215992;0.7986292243;0.0683887675405;1;True;32;1;19.320204496690017
289;289;1449490552;2.1316421032;0.79865449667;0.0684312283993;1;True;32;1;19.320204496690017
290;290;1449490552;2.13156580925;0.7986683845520001;0.06849278509619999;1;True;32;1;19.320204496690017
291;291;1449490552;2.13149785995;0.798448741436;0.0684860572219;1;True;32;1;19.320204496690017
292;292;1449490552;2.1315028667400004;0.798531353474;0.0684349313378;1;True;32;1;19.320204496690017
293;293;1449490552;2.13155388832;0.798650741577;0.06842224299909999;1;True;32;1;19.320204496690017
294;294;1449490552;2.13159632683;0.7985604405399999;0.0683555305004;1;True;32;1;19.320204496690017
295;295;1449490552;2.13164162636;0.7987189292910001;0.0683881267905;1;True;32;1;19.320204496690017
296;296;1449490552;2.13146018982;0.7984777688979999;0.0684943646193;1;True;32;1;19.320204496690017
297;297;1449490552;2.1316306591;0.798646569252;0.06833817064759999;1;True;32;1;19.320204496690017
298;298;1449490552;2.1315279007;0.798636615276;0.0684318765998;1;True;32;1;19.320204496690017
299;299;1449490552;2.13163208961;0.798711717129;0.0683957412839;1;True;32;1;19.320204496690017
300;300;1449490552;2.13156199455;0.798614144325;0.0684033408761;1;True;32;1;19.320204496690017
301;301;1449490552;2.1315631866499998;0.79869133234;0.0684754997492;1;True;32;1;19.320204496690017
302;302;1449490552;2.13163423538;0.798764050007;0.0683942064643;1;True;32;1;19.320204496690017
303;303;1449490552;2.13151359558;0.798479437828;0.06838383525609999;1;True;32;1;19.320204496690017
304;304;1449490552;2.13154459;0.7985924482350001;0.0684845373034;1;True;32;1;19.320204496690017
305;305;1449490552;2.13161420822;0.798634648323;0.068443082273;1;True;32;1;19.320204496690017
306;306;1449490552;2.13157081604;0.7984938025470001;0.06845386326309999;1;True;32;1;19.320204496690017
307;307;1449490552;2.13145089149;0.798474431038;0.06849193573;1;True;32;1;19.320204496690017
308;308;1449490552;2.13156580925;0.798782885075;0.06842649728059999;1;True;32;1;19.320204496690017
309;309;1449490552;2.13167047501;0.798725128174;0.0683827847242;1;True;32;1;19.320204496690017
310;310;1449490552;2.1316096782700003;0.798636376858;0.0683901160955;1;True;32;1;19.320204496690017
311;311;1449490552;2.13145112991;0.798516750336;0.0684874132276;1;True;32;1;19.320204496690017
312;312;1449490552;2.1315510273;0.7987005114560001;0.0684300288558;1;True;32;1;19.320204496690017
313;313;1449490552;2.13156795502;0.7985822558399999;0.0684186816216;1;True;32;1;19.320204496690017
314;314;1449490552;2.13160300255;0.798668265343;0.0683928057551;1;True;32;1;19.320204496690017
315;315;1449490552;2.13161325455;0.798699855804;0.0684193596244;1;True;32;1;19.320204496690017
316;316;1449490552;2.13149428368;0.798552632332;0.0684611722827;1;True;32;1;19.320204496690017
317;317;1449490552;2.13164424896;0.798805713654;0.0683763101697;1;True;32;1;19.320204496690017
318;318;1449490552;2.1315407753;0.798434793949;0.0684475004673;1;True;32;1;19.320204496690017
319;319;1449490552;2.1316511631;0.798683285713;0.0684279948473;1;True;32;1;19.320204496690017
320;320;1449490552;2.13147568703;0.7985441088680001;0.0684473365545;1;True;32;1;19.320204496690017
321;321;1449490553;2.13163518906;0.7986583709720001;0.06831680983300001;2;True;32;1;19.320204496690017
322;322;1449490553;2.1315252780900003;0.7985721230509999;0.0684638768435;2;True;32;1;19.320204496690017
323;323;1449490553;2.1315870285;0.798569202423;0.0684567913413;2;True;32;1;19.320204496690017
324;324;1449490553;2.13160181046;0.798697531223;0.0684354901314;2;True;32;1;19.320204496690017
325;325;1449490553;2.1315977573400002;0.798669755459;0.0683961138129;2;True;32;1;19.320204496690017
326;326;1449490553;2.13161349297;0.7986848950390001;0.06839349865910001;2;True;32;1;19.320204496690017
327;327;1449490553;2.1315984726;0.798647403717;0.06842135637999999;2;True;32;1;19.320204496690017
328;328;1449490553;2.1315035819999997;0.798499047756;0.06837784498930001;2;True;32;1;19.320204496690017
329;329;1449490553;2.13156986237;0.7985821366310001;0.0684082731605;2;True;32;1;19.320204496690017
330;330;1449490553;2.13150954247;0.798683166504;0.0684576481581;2;True;32;1;19.320204496690017
331;331;1449490553;2.13155555725;0.798527240753;0.0684159621596;2;True;32;1;19.320204496690017
332;332;1449490553;2.13159108162;0.798640906811;0.0683977305889;2;True;32;1;19.320204496690017
333;333;1449490553;2.1315472125999997;0.7985953092579999;0.0684773847461;2;True;32;1;19.320204496690017
334;334;1449490553;2.13162541389;0.798743546009;0.0684202611446;2;True;32;1;19.320204496690017
335;335;1449490553;2.1315505504599996;0.798649847507;0.0684250444174;2;True;32;1;19.320204496690017
336;336;1449490553;2.13165211678;0.7988079786300001;0.0684366747737;2;True;32;1;19.320204496690017
337;337;1449490553;2.13156938553;0.798654258251;0.06840056926009999;2;True;32;1;19.320204496690017
338;338;1449490553;2.1315870285;0.7986829876899999;0.0684211105108;2;True;32;1;19.320204496690017
339;339;1449490553;2.13161182404;0.7987170815469999;0.068423345685;2;True;32;1;19.320204496690017
340;340;1449490553;2.13160467148;0.798642992973;0.0684110224247;2;True;32;1;19.320204496690017
341;341;1449490553;2.13155579567;0.7987087965009999;0.0684138983488;2;True;32;1;19.320204496690017
342;342;1449490553;2.1315550804099996;0.798720061779;0.0684541091323;2;True;32;1;19.320204496690017
343;343;1449490553;2.13152098656;0.7985402941699999;0.0684626027942;2;True;32;1;19.320204496690017
344;344;1449490553;2.13147044182;0.798529326916;0.0684459805489;2;True;32;1;19.320204496690017
345;345;1449490553;2.13153028488;0.798660039902;0.0684487894177;2;True;32;1;19.320204496690017
346;346;1449490553;2.13160085678;0.798600673676;0.0683756247163;2;True;32;1;19.320204496690017
347;347;1449490553;2.13161492348;0.7986562848090001;0.0684323534369;2;True;32;1;19.320204496690017
348;348;1449490553;2.1315703392;0.798507630825;0.06843771040440001;2;True;32;1;19.320204496690017
349;349;1449490553;2.1316099166900004;0.7986502647399999;0.0683883354068;2;True;32;1;19.320204496690017
350;350;1449490553;2.13153600693;0.7986263632770001;0.0684184581041;2;True;32;1;19.320204496690017
351;351;1449490553;2.1315467357599998;0.7985481023790001;0.0684188529849;2;True;32;1;19.320204496690017
352;352;1449490553;2.13157057762;0.798607468605;0.06838747859;2;True;32;1;19.320204496690017
353;353;1449490553;2.1315226554900004;0.798637032509;0.0684469342232;2;True;32;1;19.320204496690017
354;354;1449490553;2.13159584999;0.798598766327;0.0683863908052;2;True;32;1;19.320204496690017
355;355;1449490553;2.13158917427;0.798575401306;0.06837075948719999;2;True;32;1;19.320204496690017
356;356;1449490553;2.1316087245900004;0.7986937761310001;0.0683810859919;2;True;32;1;19.320204496690017
357;357;1449490553;2.13150906563;0.7985292077060001;0.0684541687369;2;True;32;1;19.320204496690017
358;358;1449490553;2.13161301613;0.7986624836920001;0.0683542340994;2;True;32;1;19.320204496690017
359;359;1449490553;2.1316175460799998;0.7986642718320001;0.0683546215296;2;True;32;1;19.320204496690017
360;360;1449490553;2.1315386295299996;0.798609673977;0.0684223696589;2;True;32;1;19.320204496690017
361;361;1449490553;2.13163042068;0.798671424389;0.0683505311608;2;True;32;1;19.320204496690017
362;362;1449490553;2.13154935837;0.798522531986;0.0683439522982;2;True;32;1;19.320204496690017
363;363;1449490553;2.1315574646;0.798579156399;0.0684615448117;2;True;32;1;19.320204496690017
364;364;1449490553;2.1315510273;0.798584163189;0.06846801936630001;2;True;32;1;19.320204496690017
365;365;1449490553;2.1315021514900003;0.798470616341;0.06848932802680001;2;True;32;1;19.320204496690017
366;366;1449490553;2.1315636634799997;0.7985958456990001;0.0683888718486;2;True;32;1;19.320204496690017
367;367;1449490553;2.13158655167;0.7985843420029999;0.0683846175671;2;True;32;1;19.320204496690017
368;368;1449490553;2.13154053688;0.79856979847;0.0684257298708;2;True;32;1;19.320204496690017
369;369;1449490553;2.13164281845;0.798681020737;0.06841573119160001;2;True;32;1;19.320204496690017
370;370;1449490553;2.1315801143599997;0.798700869083;0.06842596828940001;2;True;32;1;19.320204496690017
371;371;1449490553;2.1315650939900004;0.7987475991249999;0.0684242472053;2;True;32;1;19.320204496690017
372;372;1449490553;2.13156032562;0.798702836037;0.068410910666;2;True;32;1;19.320204496690017
373;373;1449490553;2.13145279884;0.798494875431;0.0684698373079;2;True;32;1;19.320204496690017
374;374;1449490553;2.13145136833;0.798463761806;0.0684841871262;2;True;32;1;19.320204496690017
375;375;1449490553;2.13152503967;0.798637807369;0.0684391334653;2;True;32;1;19.320204496690017
376;376;1449490553;2.13155865669;0.798655629158;0.06847828626630001;2;True;32;1;19.320204496690017
377;377;1449490553;2.13163423538;0.798711955547;0.068392790854;2;True;32;1;19.320204496690017
378;378;1449490553;2.1315457820900003;0.7985768318179999;0.0684821307659;2;True;32;1;19.320204496690017
379;379;1449490553;2.13160014153;0.798583865166;0.06837007403369999;2;True;32;1;19.320204496690017
380;380;1449490553;2.13160777092;0.7987093925480001;0.0683777704835;2;True;32;1;19.320204496690017
381;381;1449490553;2.13146138191;0.798477709293;0.0685090124607;2;True;32;1;19.320204496690017
382;382;1449490553;2.13148474693;0.7985197901729999;0.0684976354241;2;True;32;1;19.320204496690017
383;383;1449490553;2.13159132004;0.79858392477;0.0683473944664;2;True;32;1;19.320204496690017
384;384;1449490553;2.13162493706;0.79867374897;0.0683926418424;2;True;32;1;19.320204496690017
385;385;1449490553;2.1316173076599996;0.798642635345;0.06836168467999999;2;True;32;1;19.320204496690017
386;386;1449490553;2.13152813911;0.7985469102860001;0.0684676021338;2;True;32;1;19.320204496690017
387;387;1449490553;2.1316049099;0.7986483573909999;0.0683826655149;2;True;32;1;19.320204496690017
388;388;1449490553;2.13155698776;0.798585414886;0.0684611126781;2;True;32;1;19.320204496690017
389;389;1449490553;2.13154602051;0.7985795736310001;0.0685155838728;2;True;32;1;19.320204496690017
390;390;1449490553;2.13151741028;0.798556566238;0.0684538930655;2;True;32;1;19.320204496690017
391;391;1449490553;2.13155555725;0.798578977585;0.068421408534;2;True;32;1;19.320204496690017
392;392;1449490553;2.13155603409;0.798475861549;0.068369731307;2;True;32;1;19.320204496690017
393;393;1449490553;2.1315510273;0.7986591458319999;0.0684938803315;2;True;32;1;19.320204496690017
394;394;1449490553;2.1314876079599996;0.798449873924;0.0683845356107;2;True;32;1;19.320204496690017
395;395;1449490553;2.1315941810599996;0.7986368536949999;0.0684095770121;2;True;32;1;19.320204496690017
396;396;1449490553;2.13155674934;0.7986595630650001;0.0684845075011;2;True;32;1;19.320204496690017
397;397;1449490553;2.13155007362;0.798661887646;0.0684804543853;2;True;32;1;19.320204496690017
398;398;1449490553;2.13154840469;0.7985883355140001;0.0684986338019;2;True;32;1;19.320204496690017
399;399;1449490553;2.1316139698;0.7986489534379999;0.06838764995339999;2;True;32;1;19.320204496690017
400;400;1449490553;2.1316204071000002;0.798649430275;0.0683470070362;2;True;32;1;19.320204496690017
401;401;1449490553;2.1315903663599998;0.798589408398;0.0684498175979;2;True;32;1;19.320204496690017
402;402;1449490553;2.13145422935;0.7984585165979999;0.068517409265;2;True;32;1;19.320204496690017
403;403;1449490553;2.1315662860900004;0.798592329025;0.0684310048819;2;True;32;1;19.320204496690017
404;404;1449490553;2.13160419464;0.798575162888;0.0683922097087;2;True;32;1;19.320204496690017
405;405;1449490553;2.13155579567;0.798622131348;0.0684142187238;2;True;32;1;19.320204496690017
406;406;1449490553;2.13159132004;0.798704206944;0.0684160962701;2;True;32;1;19.320204496690017
407;407;1449490553;2.1316273212400003;0.79881721735;0.068383730948;2;True;32;1;19.320204496690017
408;408;1449490553;2.1316184997599996;0.798708438873;0.0683710202575;2;True;32;1;19.320204496690017
409;409;1449490553;2.1314766407;0.798473238945;0.06845414638519999;2;True;32;1;19.320204496690017
410;410;1449490553;2.13154697418;0.7985870838169999;0.06845089793209999;2;True;32;1;19.320204496690017
411;411;1449490553;2.13152647018;0.798632800579;0.068517871201;2;True;32;1;19.320204496690017
412;412;1449490553;2.13150548935;0.798477709293;0.0684303194284;2;True;32;1;19.320204496690017
413;413;1449490553;2.13151502609;0.798537731171;0.0684718936682;2;True;32;1;19.320204496690017
414;414;1449490553;2.1315870285;0.79857635498;0.0683855414391;2;True;32;1;19.320204496690017
415;415;1449490553;2.13152813911;0.7984365820880001;0.068458840251;2;True;32;1;19.320204496690017
416;416;1449490553;2.1315464973400005;0.798658072948;0.0684817656875;2;True;32;1;19.320204496690017
417;417;1449490553;2.13154983521;0.798543989658;0.068358771503;2;True;32;1;19.320204496690017
418;418;1449490553;2.13155603409;0.798580348492;0.068450242281;2;True;32;1;19.320204496690017
419;419;1449490553;2.13161826134;0.7987799644470001;0.0683823376894;2;True;32;1;19.320204496690017
420;420;1449490553;2.13155221939;0.798587977886;0.0684828385711;2;True;32;1;19.320204496690017
421;421;1449490553;2.1314470768000002;0.798382461071;0.0684703290462;2;True;32;1;19.320204496690017
422;422;1449490553;2.1316158771500002;0.798700451851;0.06839450448750001;2;True;32;1;19.320204496690017
423;423;1449490553;2.13161492348;0.798699319363;0.0684096515179;2;True;32;1;19.320204496690017
424;424;1449490553;2.1315467357599998;0.79866027832;0.0684783682227;2;True;32;1;19.320204496690017
425;425;1449490553;2.13155817986;0.798593878746;0.06843977421519999;2;True;32;1;19.320204496690017
426;426;1449490553;2.1316418647799997;0.798656523228;0.0684428885579;2;True;32;1;19.320204496690017
427;427;1449490553;2.1315369606;0.798660755157;0.0685013383627;2;True;32;1;19.320204496690017
428;428;1449490553;2.1316220760299998;0.798673808575;0.0684316903353;2;True;32;1;19.320204496690017
429;429;1449490553;2.1316013336200004;0.7986652851100001;0.0683878213167;2;True;32;1;19.320204496690017
430;430;1449490553;2.1314878463699998;0.7986059784890001;0.0684578642249;2;True;32;1;19.320204496690017
431;431;1449490553;2.1315109729799997;0.79844558239;0.068434394896;2;True;32;1;19.320204496690017
432;432;1449490553;2.13154697418;0.7986488938330001;0.0684691295028;2;True;32;1;19.320204496690017
433;433;1449490553;2.13151335716;0.7985448837279999;0.0684656202793;2;True;32;1;19.320204496690017
434;434;1449490553;2.1315855979900005;0.798568964005;0.0683672353625;2;True;32;1;19.320204496690017
435;435;1449490553;2.13154888153;0.7985858321189999;0.0684537664056;2;True;32;1;19.320204496690017
436;436;1449490553;2.1314992904700003;0.7984339594840001;0.0684398934245;2;True;32;1;19.320204496690017
437;437;1449490553;2.1315310001400003;0.798696994781;0.0684065595269;2;True;32;1;19.320204496690017
438;438;1449490553;2.13153171539;0.798432230949;0.06846473366019999;2;True;32;1;19.320204496690017
439;439;1449490553;2.13151812553;0.7986304759980001;0.0684417188168;2;True;32;1;19.320204496690017
440;440;1449490553;2.13155341148;0.798588037491;0.0684103146195;2;True;32;1;19.320204496690017
441;441;1449490553;2.13150024414;0.798420906067;0.0684436410666;2;True;32;1;19.320204496690017
442;442;1449490553;2.13153839111;0.798722863197;0.0684485882521;2;True;32;1;19.320204496690017
443;443;1449490553;2.13151979446;0.7986352443699999;0.0685028135777;2;True;32;1;19.320204496690017
444;444;1449490553;2.13153815269;0.798581957817;0.06848142296080001;2;True;32;1;19.320204496690017
445;445;1449490553;2.13160252571;0.798676431179;0.0683940052986;2;True;32;1;19.320204496690017
446;446;1449490553;2.1314923763299998;0.798543870449;0.0684484988451;2;True;32;1;19.320204496690017
447;447;1449490553;2.1315269470200002;0.798581659794;0.06848333776;2;True;32;1;19.320204496690017
448;448;1449490553;2.13152861595;0.798493921757;0.0683603212237;2;True;32;1;19.320204496690017
449;449;1449490553;2.13161563873;0.798682332039;0.068384937942;2;True;32;1;19.320204496690017
450;450;1449490553;2.13154387474;0.7985909581180001;0.0684494897723;2;True;32;1;19.320204496690017
451;451;1449490553;2.13151288033;0.798630595207;0.0684964358807;2;True;32;1;19.320204496690017
452;452;1449490553;2.13146162033;0.7985150814059999;0.06847609579559999;2;True;32;1;19.320204496690017
453;453;1449490553;2.13164377213;0.798764824867;0.0684050396085;2;True;32;1;19.320204496690017
454;454;1449490553;2.1315472125999997;0.7986803650859999;0.0684386566281;2;True;32;1;19.320204496690017
455;455;1449490553;2.1315665245099997;0.798697888851;0.0684109702706;2;True;32;1;19.320204496690017
456;456;1449490553;2.13156938553;0.7985808849330001;0.0684124454856;2;True;32;1;19.320204496690017
457;457;1449490553;2.13153529167;0.79856556654;0.06842003017659999;2;True;32;1;19.320204496690017
458;458;1449490553;2.1315622329700004;0.7985379099850001;0.06844599545;2;True;32;1;19.320204496690017
459;459;1449490553;2.13161063194;0.798641741276;0.0683476924896;2;True;32;1;19.320204496690017
460;460;1449490553;2.13152360916;0.798563182354;0.0684540718794;2;True;32;1;19.320204496690017
461;461;1449490553;2.13153624535;0.798707067966;0.0684517398477;2;True;32;1;19.320204496690017
462;462;1449490553;2.13163757324;0.7987000942229999;0.06842324137690001;2;True;32;1;19.320204496690017
463;463;1449490553;2.13144731522;0.798479616642;0.0685006380081;2;True;32;1;19.320204496690017
464;464;1449490553;2.13158416748;0.7985579967499999;0.0684390738606;2;True;32;1;19.320204496690017
465;465;1449490553;2.13152217865;0.798543393612;0.0684400051832;2;True;32;1;19.320204496690017
466;466;1449490553;2.13153982162;0.7985796928409999;0.0684409365058;2;True;32;1;19.320204496690017
467;467;1449490553;2.13158988953;0.798578977585;0.0683702006936;2;True;32;1;19.320204496690017
468;468;1449490553;2.1316113472;0.798667728901;0.0683962032199;2;True;32;1;19.320204496690017
469;469;1449490553;2.1316027641299997;0.798685848713;0.0683782696724;2;True;32;1;19.320204496690017
470;470;1449490553;2.1315662860900004;0.798555493355;0.0684001222253;2;True;32;1;19.320204496690017
471;471;1449490553;2.1316447258;0.7986741662029999;0.068361222744;2;True;32;1;19.320204496690017
472;472;1449490553;2.1316146850599997;0.7987851500509999;0.0684095472097;2;True;32;1;19.320204496690017
473;473;1449490553;2.13155293465;0.7987133264540001;0.06841706484559999;2;True;32;1;19.320204496690017
474;474;1449490553;2.13161802292;0.798780500889;0.0683876797557;2;True;32;1;19.320204496690017
475;475;1449490553;2.13164019585;0.798710048199;0.0684082731605;2;True;32;1;19.320204496690017
476;476;1449490553;2.13157010078;0.798579275608;0.0684233903885;2;True;32;1;19.320204496690017
477;477;1449490553;2.1316215992;0.798626422882;0.06844911724330001;2;True;32;1;19.320204496690017
478;478;1449490553;2.13149428368;0.79852026701;0.068473726511;2;True;32;1;19.320204496690017
479;479;1449490553;2.1315343380000003;0.798634827137;0.06843744963409999;2;True;32;1;19.320204496690017
480;480;1449490553;2.13159108162;0.7985754609110001;0.06838514655830001;2;True;32;1;19.320204496690017
481;481;1449490553;2.13161540031;0.7986603975300001;0.06843765079979999;2;True;32;1;19.320204496690017
482;482;1449490553;2.1315462589300003;0.7986499667170001;0.0684297159314;2;True;32;1;19.320204496690017
483;483;1449490553;2.13163924217;0.798655748367;0.0683476924896;2;True;32;1;19.320204496690017
484;484;1449490553;2.13158392906;0.79863089323;0.0684354230762;2;True;32;1;19.320204496690017
485;485;1449490553;2.13155603409;0.79857313633;0.0684207826853;2;True;32;1;19.320204496690017
486;486;1449490553;2.13152837753;0.798632800579;0.068435266614;2;True;32;1;19.320204496690017
487;487;1449490553;2.1315543651599995;0.798527598381;0.0684184134007;2;True;32;1;19.320204496690017
488;488;1449490553;2.1315400600400003;0.798654854298;0.0684971809387;2;True;32;1;19.320204496690017
489;489;1449490553;2.13154792786;0.7985836863519999;0.0684720948339;2;True;32;1;19.320204496690017
490;490;1449490553;2.13161039352;0.7986080646510001;0.06843207776549999;2;True;32;1;19.320204496690017
491;491;1449490553;2.1316151619;0.798563122749;0.0683538019657;2;True;32;1;19.320204496690017
492;492;1449490553;2.13156962395;0.798594594002;0.068422421813;2;True;32;1;19.320204496690017
493;493;1449490553;2.13153505325;0.798576891422;0.0684405639768;2;True;32;1;19.320204496690017
494;494;1449490553;2.13162231445;0.7987210750579999;0.06841275841;2;True;32;1;19.320204496690017
495;495;1449490553;2.13154602051;0.798674941063;0.0684803798795;2;True;32;1;19.320204496690017
496;496;1449490553;2.13161420822;0.798662900925;0.068391636014;2;True;32;1;19.320204496690017
497;497;1449490553;2.13159513474;0.798650503159;0.0684230476618;2;True;32;1;19.320204496690017
498;498;1449490553;2.1315462589300003;0.7985557317730001;0.06843972951169999;2;True;32;1;19.320204496690017
499;499;1449490553;2.13154816628;0.798476397991;0.068427786231;2;True;32;1;19.320204496690017
500;500;1449490553;2.1315312385599996;0.798679828644;0.0684499293566;2;True;32;1;19.320204496690017
501;501;1449490553;2.1315665245099997;0.7985815405850001;0.0684569552541;2;True;32;1;19.320204496690017
502;502;1449490553;2.13158798218;0.798582911491;0.06845146417619999;2;True;32;1;19.320204496690017
503;503;1449490553;2.13156700134;0.7987114191060001;0.0684288069606;2;True;32;1;19.320204496690017
504;504;1449490553;2.13147115707;0.7984857559199999;0.0684527903795;2;True;32;1;19.320204496690017
505;505;1449490553;2.1315343380000003;0.7985619306559999;0.0684695616364;2;True;32;1;19.320204496690017
506;506;1449490553;2.1316158771500002;0.7986459732060001;0.0683572739363;2;True;32;1;19.320204496690017
507;507;1449490553;2.13156986237;0.79869055748;0.0684385895729;2;True;32;1;19.320204496690017
508;508;1449490553;2.13146662712;0.7985293865199999;0.06848151236769999;2;True;32;1;19.320204496690017
509;509;1449490553;2.13163805008;0.798705875874;0.0684064403176;2;True;32;1;19.320204496690017
510;510;1449490553;2.13152837753;0.798534274101;0.0684572458267;2;True;32;1;19.320204496690017
511;511;1449490553;2.13146615028;0.79842966795;0.0683975070715;2;True;32;1;19.320204496690017
512;512;1449490553;2.13164424896;0.798729538918;0.0683928355575;2;True;32;1;19.320204496690017
513;513;1449490553;2.13169026375;0.798715651035;0.0683293566108;2;True;32;1;19.320204496690017
514;514;1449490553;2.13157534599;0.798570513725;0.0684571266174;2;True;32;1;19.320204496690017
515;515;1449490553;2.13165211678;0.798796892166;0.06834880262609999;2;True;32;1;19.320204496690017
516;516;1449490553;2.13160395622;0.798564195633;0.0683558732271;2;True;32;1;19.320204496690017
517;517;1449490553;2.13157129288;0.798530757427;0.0683285146952;2;True;32;1;19.320204496690017
518;518;1449490553;2.13143920898;0.7984633445739999;0.0685196220875;2;True;32;1;19.320204496690017
519;519;1449490553;2.13156914711;0.798587799072;0.0684205144644;2;True;32;1;19.320204496690017
520;520;1449490553;2.1315298080400003;0.798544049263;0.0684580951929;2;True;32;1;19.320204496690017
521;521;1449490553;2.1316010952;0.798678934574;0.0683927536011;2;True;32;1;19.320204496690017
522;522;1449490553;2.13148069382;0.7984908819200001;0.0684472620487;2;True;32;1;19.320204496690017
523;523;1449490553;2.13153743744;0.7985884547229999;0.06846915930509999;2;True;32;1;19.320204496690017
524;524;1449490553;2.1315639019;0.7986522912980001;0.06841773539780001;2;True;32;1;19.320204496690017
525;525;1449490553;2.13155412674;0.798646450043;0.0684893205762;2;True;32;1;19.320204496690017
526;526;1449490553;2.13152384758;0.798570394516;0.0684543326497;2;True;32;1;19.320204496690017
527;527;1449490553;2.13162255287;0.798662960529;0.068382166326;2;True;32;1;19.320204496690017
528;528;1449490553;2.13155007362;0.798586785793;0.0684753060341;2;True;32;1;19.320204496690017
529;529;1449490553;2.13152599335;0.798453986645;0.0684353411198;2;True;32;1;19.320204496690017
530;530;1449490553;2.13154196739;0.798529744148;0.0684221312404;2;True;32;1;19.320204496690017
531;531;1449490553;2.13154983521;0.798528373241;0.06840277463200001;2;True;32;1;19.320204496690017
532;532;1449490553;2.1315109729799997;0.7986113429070001;0.0684426277876;2;True;32;1;19.320204496690017
533;533;1449490553;2.13153934479;0.7986637353899999;0.0684179067612;2;True;32;1;19.320204496690017
534;534;1449490553;2.13155388832;0.7986561656000001;0.0684912577271;2;True;32;1;19.320204496690017
535;535;1449490553;2.13145208359;0.798462331295;0.0685033723712;2;True;32;1;19.320204496690017
536;536;1449490553;2.13153219223;0.798422753811;0.06845626980069999;2;True;32;1;19.320204496690017
537;537;1449490553;2.13163256645;0.798699140549;0.0684081688523;2;True;32;1;19.320204496690017
538;538;1449490553;2.13162398338;0.798684239388;0.0683841258287;2;True;32;1;19.320204496690017
539;539;1449490553;2.1315689086900003;0.798669099808;0.0684271380305;2;True;32;1;19.320204496690017
540;540;1449490553;2.13157820702;0.798605322838;0.06840890645980001;2;True;32;1;19.320204496690017
541;541;1449490553;2.13138222694;0.7983316779140001;0.0685295760632;2;True;32;1;19.320204496690017
542;542;1449490553;2.13162517548;0.7986804842949999;0.06835442781449999;2;True;32;1;19.320204496690017
543;543;1449490553;2.1315035819999997;0.7985374331470001;0.0684455782175;2;True;32;1;19.320204496690017
544;544;1449490553;2.13164401054;0.7987997531890001;0.0683848410845;2;True;32;1;19.320204496690017
545;545;1449490553;2.13151669502;0.7985665202140001;0.0684541836381;2;True;32;1;19.320204496690017
546;546;1449490553;2.13155174255;0.798713386059;0.0684211850166;2;True;32;1;19.320204496690017
547;547;1449490553;2.13150811195;0.798498749733;0.0684246644378;2;True;32;1;19.320204496690017
548;548;1449490553;2.1315207481400003;0.7984327077869999;0.0684393048286;2;True;32;1;19.320204496690017
549;549;1449490553;2.13155174255;0.798582613468;0.06846850365399999;2;True;32;1;19.320204496690017
550;550;1449490553;2.1315767765;0.798669815063;0.0683890730143;2;True;32;1;19.320204496690017
551;551;1449490553;2.13161802292;0.7987735271449999;0.0683842971921;2;True;32;1;19.320204496690017
552;552;1449490553;2.1314883232099997;0.7985118031499999;0.0684562399983;2;True;32;1;19.320204496690017
553;553;1449490553;2.13153815269;0.7986591458319999;0.0684008598328;2;True;32;1;19.320204496690017
554;554;1449490553;2.1315784454299997;0.798549592495;0.0683844164014;2;True;32;1;19.320204496690017
555;555;1449490553;2.13154768944;0.798640489578;0.0684175267816;2;True;32;1;19.320204496690017
556;556;1449490553;2.13165307045;0.79871660471;0.06843206286430001;2;True;32;1;19.320204496690017
557;557;1449490553;2.1316306591;0.798796713352;0.0683717876673;2;True;32;1;19.320204496690017
558;558;1449490553;2.13148069382;0.798524558544;0.0684503689408;2;True;32;1;19.320204496690017
559;559;1449490554;2.13161444664;0.798663914204;0.0684385746717;3;True;32;1;19.320204496690017
560;560;1449490554;2.13159298897;0.798562467098;0.0684506818652;3;True;32;1;19.320204496690017
561;561;1449490554;2.13152575493;0.798615992069;0.0684197172523;3;True;32;1;19.320204496690017
562;562;1449490554;2.1316022872900002;0.798628330231;0.0684379637241;3;True;32;1;19.320204496690017
563;563;1449490554;2.1316273212400003;0.7987374067309999;0.06835806369780001;3;True;32;1;19.320204496690017
564;564;1449490554;2.1316184997599996;0.798693239689;0.0683459416032;3;True;32;1;19.320204496690017
565;565;1449490554;2.13155555725;0.7986528277399999;0.06847766041759999;3;True;32;1;19.320204496690017
566;566;1449490554;2.1316511631;0.798685252666;0.068355858326;3;True;32;1;19.320204496690017
567;567;1449490554;2.13155078888;0.7986562848090001;0.0684819966555;3;True;32;1;19.320204496690017
568;568;1449490554;2.1315612793;0.7985808849330001;0.068461611867;3;True;32;1;19.320204496690017
569;569;1449490554;2.13156199455;0.798544168472;0.0684235915542;3;True;32;1;19.320204496690017
570;570;1449490554;2.13154935837;0.798660159111;0.0684053972363;3;True;32;1;19.320204496690017
571;571;1449490554;2.13153743744;0.798542499542;0.06847577542069999;3;True;32;1;19.320204496690017
572;572;1449490554;2.13155698776;0.7986536026000001;0.0684907957911;3;True;32;1;19.320204496690017
573;573;1449490554;2.13164544106;0.7986834049220001;0.0684431418777;3;True;32;1;19.320204496690017
574;574;1449490554;2.1316158771500002;0.798680245876;0.06839390099050001;3;True;32;1;19.320204496690017
575;575;1449490554;2.1314907074000002;0.798523128033;0.0684960409999;3;True;32;1;19.320204496690017
576;576;1449490554;2.13162183762;0.798622727394;0.0684422031045;3;True;32;1;19.320204496690017
577;577;1449490554;2.13163042068;0.7986987829209999;0.0684117004275;3;True;32;1;19.320204496690017
578;578;1449490554;2.1315267086;0.798571288586;0.0684577599168;3;True;32;1;19.320204496690017
579;579;1449490554;2.13156557083;0.798706233501;0.06842026859519999;3;True;32;1;19.320204496690017
580;580;1449490554;2.1315462589300003;0.7985326647759999;0.0684897601604;3;True;32;1;19.320204496690017
581;581;1449490554;2.13165068626;0.798670709133;0.0684353634715;3;True;32;1;19.320204496690017
582;582;1449490554;2.1315550804099996;0.7985758185390001;0.0685026422143;3;True;32;1;19.320204496690017
583;583;1449490554;2.13153219223;0.798627316952;0.0684299767017;3;True;32;1;19.320204496690017
584;584;1449490554;2.13165307045;0.7987101674079999;0.0683826580644;3;True;32;1;19.320204496690017
585;585;1449490554;2.1316170692400003;0.798672258854;0.068387158215;3;True;32;1;19.320204496690017
586;586;1449490554;2.1315844059;0.7985712289810001;0.0684204921126;3;True;32;1;19.320204496690017
587;587;1449490554;2.13159370422;0.798511743546;0.0683998987079;3;True;32;1;19.320204496690017
588;588;1449490554;2.1316363811500003;0.79865860939;0.0683255419135;3;True;32;1;19.320204496690017
589;589;1449490554;2.13168120384;0.798657119274;0.0683478191495;3;True;32;1;19.320204496690017
590;590;1449490554;2.13154888153;0.798590004444;0.0684589743614;3;True;32;1;19.320204496690017
591;591;1449490554;2.13155174255;0.798561275005;0.0684593990445;3;True;32;1;19.320204496690017
592;592;1449490554;2.13168263435;0.798744082451;0.0683893412352;3;True;32;1;19.320204496690017
593;593;1449490554;2.13157081604;0.7985659241680001;0.0684196352959;3;True;32;1;19.320204496690017
594;594;1449490554;2.13155221939;0.798646450043;0.0684739351273;3;True;32;1;19.320204496690017
595;595;1449490554;2.1316199302700003;0.7986984848980001;0.0683544874191;3;True;32;1;19.320204496690017
596;596;1449490554;2.1315615177200002;0.798647224903;0.0684698447585;3;True;32;1;19.320204496690017
597;597;1449490554;2.1315331459;0.7985416054729999;0.0684495717287;3;True;32;1;19.320204496690017
598;598;1449490554;2.13143205643;0.798392951488;0.06849715858699999;3;True;32;1;19.320204496690017
599;599;1449490554;2.13156533241;0.798584878445;0.068447753787;3;True;32;1;19.320204496690017
600;600;1449490554;2.13145065308;0.798488736153;0.0684895217419;3;True;32;1;19.320204496690017
601;601;1449490554;2.1315615177200002;0.798575401306;0.0684272274375;3;True;32;1;19.320204496690017
602;602;1449490554;2.13161110878;0.798670113087;0.0683883652091;3;True;32;1;19.320204496690017
603;603;1449490554;2.1315162181900003;0.79854041338;0.06842956691980001;3;True;32;1;19.320204496690017
604;604;1449490554;2.13161563873;0.7987012267110001;0.06838519126180001;3;True;32;1;19.320204496690017
605;605;1449490554;2.1315853595700003;0.79854631424;0.06844719499350001;3;True;32;1;19.320204496690017
