;Unnamed: 0;header_stamp_secs;pose_position_x;pose_position_y;pose_position_z;seconds;drop_values;flight_number;label;dtw
0;0;1449491655;2.1759712696099998;0.81323492527;0.0687267705798;0;True;37;1;80.71917033219003
1;1;1449491655;2.17591834068;0.812961399555;0.0688173770905;0;True;37;1;80.71917033219003
2;2;1449491655;2.1760635375999997;0.813163757324;0.0686728730798;0;True;37;1;80.71917033219003
3;3;1449491655;2.1760122776;0.8130314946170001;0.068744212389;0;True;37;1;80.71917033219003
4;4;1449491655;2.17597913742;0.813181996346;0.0687202364206;0;True;37;1;80.71917033219003
5;5;1449491655;2.17601633072;0.813267529011;0.06874132901430001;0;True;37;1;80.71917033219003
6;6;1449491655;2.17600488663;0.813090324402;0.0687264278531;0;True;37;1;80.71917033219003
7;7;1449491655;2.17600178719;0.813069105148;0.0687283426523;0;True;37;1;80.71917033219003
8;8;1449491655;2.17608380318;0.8132041692730001;0.0686234086752;0;True;37;1;80.71917033219003
9;9;1449491655;2.17597103119;0.8133236169820001;0.0687257945538;0;True;37;1;80.71917033219003
10;10;1449491655;2.17607975006;0.8132790923119999;0.0687103942037;0;True;37;1;80.71917033219003
11;11;1449491655;2.1760814189900004;0.813164174557;0.0686470121145;0;True;37;1;80.71917033219003
12;12;1449491655;2.17597436905;0.8129722476010001;0.06876631826160001;0;True;37;1;80.71917033219003
13;13;1449491655;2.17605614662;0.8132212162019999;0.0686508119106;0;True;37;1;80.71917033219003
14;14;1449491655;2.1761178970299997;0.813380241394;0.0685611516237;0;True;37;1;80.71917033219003
15;15;1449491655;2.1760969162;0.813276648521;0.068716712296;0;True;37;1;80.71917033219003
16;16;1449491655;2.17603325844;0.8133127093320001;0.0686895996332;0;True;37;1;80.71917033219003
17;17;1449491655;2.1761143207599996;0.8134219646449999;0.0685820281506;0;True;37;1;80.71917033219003
18;18;1449491655;2.17607116699;0.813274621964;0.068714492023;0;True;37;1;80.71917033219003
19;19;1449491655;2.17608094215;0.813454031944;0.0686744004488;0;True;37;1;80.71917033219003
20;20;1449491655;2.17599320412;0.813248693943;0.0687319636345;0;True;37;1;80.71917033219003
21;21;1449491655;2.1759998798400004;0.8130900859829999;0.0687536373734;0;True;37;1;80.71917033219003
22;22;1449491655;2.1761064529400005;0.813309788704;0.068636700511;0;True;37;1;80.71917033219003
23;23;1449491655;2.17602348328;0.813386499882;0.0687592178583;0;True;37;1;80.71917033219003
24;24;1449491655;2.1760334968599997;0.813345193863;0.0686608701944;0;True;37;1;80.71917033219003
25;25;1449491655;2.17602729797;0.813267171383;0.0687517672777;0;True;37;1;80.71917033219003
26;26;1449491655;2.17606544495;0.8132034540180001;0.0686454176903;0;True;37;1;80.71917033219003
27;27;1449491655;2.17599368095;0.813231647015;0.0687444955111;0;True;37;1;80.71917033219003
28;28;1449491655;2.17606925964;0.8134353756899999;0.0687270089984;0;True;37;1;80.71917033219003
29;29;1449491655;2.17600536346;0.813322246075;0.0687973722816;0;True;37;1;80.71917033219003
30;30;1449491655;2.1759326458;0.81332719326;0.06869687885049999;0;True;37;1;80.71917033219003
31;31;1449491655;2.1760699749000003;0.813371181488;0.0687273740768;0;True;37;1;80.71917033219003
32;32;1449491655;2.17596769333;0.8132019639020001;0.0687687247992;0;True;37;1;80.71917033219003
33;33;1449491655;2.1760461330400003;0.813210785389;0.06872144341469999;0;True;37;1;80.71917033219003
34;34;1449491655;2.17611312866;0.813511908054;0.0686352923512;0;True;37;1;80.71917033219003
35;35;1449491655;2.17606949806;0.813393294811;0.0687129721045;0;True;37;1;80.71917033219003
36;36;1449491655;2.17601251602;0.8130850195880001;0.06878060102460001;0;True;37;1;80.71917033219003
37;37;1449491655;2.17604589462;0.813303291798;0.0687673836946;0;True;37;1;80.71917033219003
38;38;1449491655;2.1760461330400003;0.8133307099339999;0.06872216612099999;0;True;37;1;80.71917033219003
39;39;1449491655;2.17599320412;0.81324839592;0.0687493011355;0;True;37;1;80.71917033219003
40;40;1449491655;2.17605257034;0.8133654594419999;0.0687029585242;0;True;37;1;80.71917033219003
41;41;1449491655;2.17608213425;0.8133961558339999;0.068720921874;0;True;37;1;80.71917033219003
42;42;1449491655;2.17591357231;0.8130227327349999;0.06879009306429999;0;True;37;1;80.71917033219003
43;43;1449491655;2.17613005638;0.8135658502580001;0.0686376839876;0;True;37;1;80.71917033219003
44;44;1449491655;2.1761298179599997;0.813510894775;0.068632543087;0;True;37;1;80.71917033219003
45;45;1449491655;2.17596364021;0.8129912614820001;0.06887695938350001;0;True;37;1;80.71917033219003
46;46;1449491655;2.17607021332;0.813177287579;0.0687131211162;0;True;37;1;80.71917033219003
47;47;1449491655;2.17602276802;0.813254058361;0.06874923408030001;0;True;37;1;80.71917033219003
48;48;1449491655;2.17614507675;0.813537120819;0.06863764673469999;0;True;37;1;80.71917033219003
49;49;1449491655;2.17607188225;0.81318885088;0.06874623149629999;0;True;37;1;80.71917033219003
50;50;1449491655;2.17599034309;0.8133399486540001;0.0687226802111;0;True;37;1;80.71917033219003
51;51;1449491655;2.17605042458;0.8133298158650001;0.0687098503113;0;True;37;1;80.71917033219003
52;52;1449491655;2.1759879589099995;0.8132588863369999;0.0687343105674;0;True;37;1;80.71917033219003
53;53;1449491655;2.17599916458;0.813201129436;0.0687749385834;0;True;37;1;80.71917033219003
54;54;1449491655;2.17602539062;0.8132535815240001;0.0688214749098;0;True;37;1;80.71917033219003
55;55;1449491655;2.17604207993;0.813096225262;0.0687588304281;0;True;37;1;80.71917033219003
56;56;1449491655;2.1760363578799997;0.8132678866390001;0.0687241107225;0;True;37;1;80.71917033219003
57;57;1449491655;2.17603421211;0.813263714314;0.0687601417303;0;True;37;1;80.71917033219003
58;58;1449491655;2.17607283592;0.813402593136;0.0687421634793;0;True;37;1;80.71917033219003
59;59;1449491655;2.17604899406;0.813322782516;0.0687321648002;0;True;37;1;80.71917033219003
60;60;1449491655;2.17601180077;0.813254356384;0.06876888126130001;0;True;37;1;80.71917033219003
61;61;1449491655;2.17602658272;0.813168466091;0.0687578544021;0;True;37;1;80.71917033219003
62;62;1449491655;2.17599654198;0.813183963299;0.06879956275219999;0;True;37;1;80.71917033219003
63;63;1449491655;2.17605161667;0.8130978941920001;0.0687527135015;0;True;37;1;80.71917033219003
64;64;1449491655;2.17601561546;0.813005506992;0.0687975659966;0;True;37;1;80.71917033219003
65;65;1449491655;2.1760556697799998;0.813405752182;0.06873317807910001;0;True;37;1;80.71917033219003
66;66;1449491655;2.17600440979;0.813209176064;0.0687735974789;0;True;37;1;80.71917033219003
67;67;1449491655;2.1760416030900003;0.813257575035;0.0688304454088;0;True;37;1;80.71917033219003
68;68;1449491655;2.17611598969;0.813433766365;0.0687033981085;0;True;37;1;80.71917033219003
69;69;1449491655;2.17597675323;0.813163280487;0.06880450248719999;0;True;37;1;80.71917033219003
70;70;1449491655;2.1760365963;0.813369095325;0.0687387362123;0;True;37;1;80.71917033219003
71;71;1449491655;2.17601060867;0.8130743503569999;0.0687896758318;0;True;37;1;80.71917033219003
72;72;1449491655;2.17604756355;0.813313305378;0.06872677803039999;0;True;37;1;80.71917033219003
73;73;1449491655;2.1760423183400004;0.813284099102;0.06874268502;0;True;37;1;80.71917033219003
74;74;1449491655;2.17592334747;0.813092112541;0.068847425282;0;True;37;1;80.71917033219003
75;75;1449491655;2.17609238625;0.813289761543;0.0687074884772;0;True;37;1;80.71917033219003
76;76;1449491655;2.17603111267;0.813245534897;0.06876853108410001;0;True;37;1;80.71917033219003
77;77;1449491655;2.17606973648;0.813217937946;0.0687006339431;0;True;37;1;80.71917033219003
78;78;1449491655;2.1760075092299997;0.8130811452869999;0.0688079670072;0;True;37;1;80.71917033219003
79;79;1449491655;2.17609977722;0.8133307099339999;0.0686181858182;0;True;37;1;80.71917033219003
80;80;1449491655;2.17605185509;0.8133197426800001;0.0687631890178;0;True;37;1;80.71917033219003
81;81;1449491655;2.17604875565;0.81320732832;0.068651035428;0;True;37;1;80.71917033219003
82;82;1449491655;2.17600655556;0.81305706501;0.0687558874488;0;True;37;1;80.71917033219003
83;83;1449491655;2.17598462105;0.813077330589;0.0688093081117;0;True;37;1;80.71917033219003
84;84;1449491655;2.17598247528;0.813257157803;0.068756327033;0;True;37;1;80.71917033219003
85;85;1449491655;2.17601418495;0.813233017921;0.06878715753560001;0;True;37;1;80.71917033219003
86;86;1449491655;2.17601299286;0.813257336617;0.068779475987;0;True;37;1;80.71917033219003
87;87;1449491655;2.17598176003;0.813233911991;0.0687657669187;0;True;37;1;80.71917033219003
88;88;1449491655;2.17608308792;0.813323199749;0.068639613688;0;True;37;1;80.71917033219003
89;89;1449491655;2.17605304718;0.8133000135420001;0.0687155500054;0;True;37;1;80.71917033219003
90;90;1449491655;2.17601180077;0.813191354275;0.06877167522910001;0;True;37;1;80.71917033219003
91;91;1449491655;2.1760540008500002;0.813116729259;0.06866215914490001;0;True;37;1;80.71917033219003
92;92;1449491655;2.1760363578799997;0.8132380843160001;0.0687544792891;0;True;37;1;80.71917033219003
93;93;1449491655;2.17603993416;0.813294291496;0.06868930161;0;True;37;1;80.71917033219003
94;94;1449491655;2.1760482788099997;0.813277423382;0.0687297135592;0;True;37;1;80.71917033219003
95;95;1449491655;2.17606973648;0.8132352828980001;0.0686502531171;0;True;37;1;80.71917033219003
96;96;1449491655;2.17593836784;0.813042402267;0.0687961354852;0;True;37;1;80.71917033219003
97;97;1449491655;2.17603564262;0.813273429871;0.0687469616532;0;True;37;1;80.71917033219003
98;98;1449491655;2.17600655556;0.813205003738;0.0687471032143;0;True;37;1;80.71917033219003
99;99;1449491655;2.17602944374;0.8130688667300001;0.06876187771560001;0;True;37;1;80.71917033219003
100;100;1449491655;2.1760754585299997;0.8132318854330001;0.0687528252602;0;True;37;1;80.71917033219003
101;101;1449491655;2.17607331276;0.813331663609;0.0687178522348;0;True;37;1;80.71917033219003
102;102;1449491655;2.17596125603;0.8132363557819999;0.06874991208310001;0;True;37;1;80.71917033219003
103;103;1449491655;2.17600679398;0.8130871653560001;0.0688580572605;0;True;37;1;80.71917033219003
104;104;1449491656;2.17603302002;0.813095092773;0.0687407627702;1;True;37;1;80.71917033219003
105;105;1449491656;2.17603826523;0.813324511051;0.0687325447798;1;True;37;1;80.71917033219003
106;106;1449491656;2.1759405136099996;0.8131702542300001;0.0687473490834;1;True;37;1;80.71917033219003
107;107;1449491656;2.17602872849;0.813110053539;0.068792283535;1;True;37;1;80.71917033219003
108;108;1449491656;2.1760334968599997;0.813262820244;0.0687080174685;1;True;37;1;80.71917033219003
109;109;1449491656;2.17605543137;0.813222825527;0.0687033385038;1;True;37;1;80.71917033219003
110;110;1449491656;2.17606711388;0.813339412212;0.0687609910965;1;True;37;1;80.71917033219003
111;111;1449491656;2.17608380318;0.8133312463760001;0.0686851218343;1;True;37;1;80.71917033219003
112;112;1449491656;2.17598462105;0.813186764717;0.0687819942832;1;True;37;1;80.71917033219003
113;113;1449491656;2.1761007309;0.8132756948469999;0.0686473250389;1;True;37;1;80.71917033219003
114;114;1449491656;2.1760435104400004;0.813162684441;0.06893628090619999;1;True;37;1;80.71917033219003
115;115;1449491656;2.1760528087599997;0.813220739365;0.06875594705339999;1;True;37;1;80.71917033219003
116;116;1449491656;2.17606782913;0.8133252263070001;0.0687268599868;1;True;37;1;80.71917033219003
117;117;1449491656;2.1760759353599997;0.8131911754610001;0.068647146225;1;True;37;1;80.71917033219003
118;118;1449491656;2.17596912384;0.8128982782359999;0.0687822848558;1;True;37;1;80.71917033219003
119;119;1449491656;2.1760520935099996;0.813318729401;0.06868918240069999;1;True;37;1;80.71917033219003
120;120;1449491656;2.17607927322;0.813224136829;0.0686963200569;1;True;37;1;80.71917033219003
121;121;1449491656;2.17600822449;0.8132416605949999;0.0687394142151;1;True;37;1;80.71917033219003
122;122;1449491656;2.1759881973299997;0.8132405877109999;0.0687644034624;1;True;37;1;80.71917033219003
123;123;1449491656;2.17602872849;0.813283085823;0.068748652935;1;True;37;1;80.71917033219003
124;124;1449491656;2.17614030838;0.8133910894390001;0.0685787945986;1;True;37;1;80.71917033219003
125;125;1449491656;2.17602109909;0.8132429122920001;0.0687720477581;1;True;37;1;80.71917033219003
126;126;1449491656;2.17601537704;0.813206911087;0.0686945095658;1;True;37;1;80.71917033219003
127;127;1449491656;2.1760902404799998;0.81346142292;0.06864692270759999;1;True;37;1;80.71917033219003
128;128;1449491656;2.17609071732;0.813463032246;0.06865209341049999;1;True;37;1;80.71917033219003
129;129;1449491656;2.17604422569;0.8132926821709999;0.0687266811728;1;True;37;1;80.71917033219003
130;130;1449491656;2.1760432720200003;0.8132584691050001;0.0687535777688;1;True;37;1;80.71917033219003
131;131;1449491656;2.17598509789;0.813311457634;0.068719342351;1;True;37;1;80.71917033219003
132;132;1449491656;2.17595076561;0.813182234764;0.068781144917;1;True;37;1;80.71917033219003
133;133;1449491656;2.17604517937;0.813344180584;0.0686566084623;1;True;37;1;80.71917033219003
134;134;1449491656;2.17600393295;0.813445746899;0.0687444731593;1;True;37;1;80.71917033219003
135;135;1449491656;2.17603111267;0.813287377357;0.0687205269933;1;True;37;1;80.71917033219003
136;136;1449491656;2.17613649368;0.813424110413;0.068593159318;1;True;37;1;80.71917033219003
137;137;1449491656;2.17602610588;0.8132680654530001;0.06876946985719999;1;True;37;1;80.71917033219003
138;138;1449491656;2.17611932755;0.813516199589;0.0686299577355;1;True;37;1;80.71917033219003
139;139;1449491656;2.17598938942;0.813311457634;0.0687021687627;1;True;37;1;80.71917033219003
140;140;1449491656;2.17611241341;0.8134396076199999;0.0686499625444;1;True;37;1;80.71917033219003
141;141;1449491656;2.17591023445;0.812947750092;0.0688624754548;1;True;37;1;80.71917033219003
142;142;1449491656;2.1760540008500002;0.813389360905;0.0687388032675;1;True;37;1;80.71917033219003
143;143;1449491656;2.17599010468;0.813338577747;0.06871562451119999;1;True;37;1;80.71917033219003
144;144;1449491656;2.17604780197;0.8133376240729999;0.0687103942037;1;True;37;1;80.71917033219003
145;145;1449491656;2.17611598969;0.8134082555769999;0.06861036270859999;1;True;37;1;80.71917033219003
146;146;1449491656;2.17602276802;0.81325340271;0.0687328055501;1;True;37;1;80.71917033219003
147;147;1449491656;2.17600512505;0.81327021122;0.0687503516674;1;True;37;1;80.71917033219003
148;148;1449491656;2.17602157593;0.813124239445;0.06874787062410001;1;True;37;1;80.71917033219003
149;149;1449491656;2.17602539062;0.813470780849;0.0687664747238;1;True;37;1;80.71917033219003
150;150;1449491656;2.1761190891299997;0.813549339771;0.0686564147472;1;True;37;1;80.71917033219003
151;151;1449491656;2.1759848594699998;0.8131551742550001;0.0687796398997;1;True;37;1;80.71917033219003
152;152;1449491656;2.1759316921200003;0.813335001469;0.0687498599291;1;True;37;1;80.71917033219003
153;153;1449491656;2.17609071732;0.813425064087;0.0687419474125;1;True;37;1;80.71917033219003
154;154;1449491656;2.1759872436500003;0.813126862049;0.0688880309463;1;True;37;1;80.71917033219003
155;155;1449491656;2.1760194301599998;0.813325047493;0.06875630468129999;1;True;37;1;80.71917033219003
156;156;1449491656;2.17606496811;0.8134081959720001;0.06872815638780001;1;True;37;1;80.71917033219003
157;157;1449491656;2.1760349273700004;0.813242554665;0.0687997713685;1;True;37;1;80.71917033219003
158;158;1449491656;2.17609071732;0.813420593739;0.0687501132488;1;True;37;1;80.71917033219003
159;159;1449491656;2.1761200428;0.813220858574;0.0686414167285;1;True;37;1;80.71917033219003
160;160;1449491656;2.17604923248;0.8132748007770001;0.06880147010089999;1;True;37;1;80.71917033219003
161;161;1449491656;2.17605519295;0.813242435455;0.06880727410319999;1;True;37;1;80.71917033219003
162;162;1449491656;2.17604851723;0.813310086727;0.06872933357950001;1;True;37;1;80.71917033219003
163;163;1449491656;2.17603802681;0.8133400678630001;0.0687754824758;1;True;37;1;80.71917033219003
164;164;1449491656;2.17606043816;0.813439965248;0.0687321349978;1;True;37;1;80.71917033219003
165;165;1449491656;2.17611193657;0.8135074973109999;0.06872990727419999;1;True;37;1;80.71917033219003
166;166;1449491656;2.1760275363900003;0.8131737112999999;0.0687569081783;1;True;37;1;80.71917033219003
167;167;1449491656;2.1760754585299997;0.813153684139;0.06875502318139999;1;True;37;1;80.71917033219003
168;168;1449491656;2.1760659217800002;0.8133585453030001;0.06870498508209999;1;True;37;1;80.71917033219003
169;169;1449491656;2.1761732101400004;0.813467741013;0.0686205774546;1;True;37;1;80.71917033219003
170;170;1449491656;2.17596149445;0.813137769699;0.0688718259335;1;True;37;1;80.71917033219003
171;171;1449491656;2.1760263443;0.813449561596;0.06877645105119999;1;True;37;1;80.71917033219003
172;172;1449491656;2.1761143207599996;0.813299059868;0.0686965659261;1;True;37;1;80.71917033219003
173;173;1449491656;2.17615556717;0.813571631908;0.06866911053659999;1;True;37;1;80.71917033219003
174;174;1449491656;2.1760315895099995;0.8132294416429999;0.06883186846969999;1;True;37;1;80.71917033219003
175;175;1449491656;2.17604494095;0.81323581934;0.0687443763018;1;True;37;1;80.71917033219003
176;176;1449491656;2.17610383034;0.8135101795199999;0.0687405094504;1;True;37;1;80.71917033219003
177;177;1449491656;2.17605042458;0.813209533691;0.06877552717919999;1;True;37;1;80.71917033219003
178;178;1449491656;2.17594742775;0.8130205869670001;0.0688464194536;1;True;37;1;80.71917033219003
179;179;1449491656;2.17610836029;0.8135218620300001;0.0687095299363;1;True;37;1;80.71917033219003
180;180;1449491656;2.17601060867;0.813269972801;0.0687741711736;1;True;37;1;80.71917033219003
181;181;1449491656;2.17611217499;0.8133022189139999;0.068769030273;1;True;37;1;80.71917033219003
182;182;1449491656;2.17596030235;0.813089251518;0.0688207745552;1;True;37;1;80.71917033219003
183;183;1449491656;2.17602849007;0.813061714172;0.0687875077128;1;True;37;1;80.71917033219003
184;184;1449491656;2.1759493351;0.813309788704;0.0687695220113;1;True;37;1;80.71917033219003
185;185;1449491656;2.1760919094099997;0.8133457303049999;0.06873434782030001;1;True;37;1;80.71917033219003
186;186;1449491656;2.1760358810400002;0.8131307959559999;0.068822838366;1;True;37;1;80.71917033219003
187;187;1449491656;2.1760704517400002;0.81334322691;0.0687642022967;1;True;37;1;80.71917033219003
188;188;1449491656;2.1760623455;0.8132994771;0.0687417164445;1;True;37;1;80.71917033219003
189;189;1449491656;2.17605876923;0.813321590424;0.0687451958656;1;True;37;1;80.71917033219003
190;190;1449491656;2.1760191917400005;0.813367247581;0.0687385499477;1;True;37;1;80.71917033219003
191;191;1449491656;2.17611551285;0.813426196575;0.0686855912209;1;True;37;1;80.71917033219003
192;192;1449491656;2.17609143257;0.8134177327159999;0.0687425509095;1;True;37;1;80.71917033219003
193;193;1449491656;2.17614412308;0.8133703470229999;0.0686152651906;1;True;37;1;80.71917033219003
194;194;1449491656;2.17599487305;0.813286840916;0.0687436684966;1;True;37;1;80.71917033219003
195;195;1449491656;2.1761062145200003;0.8135176301;0.0686732679605;1;True;37;1;80.71917033219003
196;196;1449491656;2.17607975006;0.813379108906;0.0687406361103;1;True;37;1;80.71917033219003
197;197;1449491656;2.17608714104;0.813331007957;0.0687030479312;1;True;37;1;80.71917033219003
198;198;1449491656;2.1760897636400003;0.8133217096330001;0.0687233805656;1;True;37;1;80.71917033219003
199;199;1449491656;2.17602801323;0.813044190407;0.0687848478556;1;True;37;1;80.71917033219003
200;200;1449491656;2.17601466179;0.813066184521;0.06877546757460001;1;True;37;1;80.71917033219003
201;201;1449491656;2.1760435104400004;0.8133967518809999;0.0687313899398;1;True;37;1;80.71917033219003
202;202;1449491656;2.17605876923;0.813397049904;0.0686884522438;1;True;37;1;80.71917033219003
203;203;1449491656;2.17607355118;0.8134211301800001;0.0686629489064;1;True;37;1;80.71917033219003
204;204;1449491656;2.17607569695;0.8133236169820001;0.0687189623713;1;True;37;1;80.71917033219003
205;205;1449491656;2.17605853081;0.813144862652;0.0686791166663;1;True;37;1;80.71917033219003
206;206;1449491656;2.1759853363;0.813245952129;0.0687616616488;1;True;37;1;80.71917033219003
207;207;1449491656;2.1760704517400002;0.813214421272;0.0686902627349;1;True;37;1;80.71917033219003
208;208;1449491656;2.1760456562;0.8133211731910001;0.068683385849;1;True;37;1;80.71917033219003
209;209;1449491656;2.17598772049;0.81318628788;0.0687366053462;1;True;37;1;80.71917033219003
210;210;1449491656;2.17605471611;0.8133186101909999;0.06874623894689999;1;True;37;1;80.71917033219003
211;211;1449491656;2.17604708672;0.813320577145;0.068731918931;1;True;37;1;80.71917033219003
212;212;1449491656;2.17601799965;0.813139081001;0.06871853768830001;1;True;37;1;80.71917033219003
213;213;1449491656;2.17589902878;0.813010454178;0.06878822296860002;1;True;37;1;80.71917033219003
214;214;1449491656;2.17604207993;0.8133843541150001;0.0686771273613;1;True;37;1;80.71917033219003
215;215;1449491656;2.1760609149900003;0.8132696151729999;0.06870911270380001;1;True;37;1;80.71917033219003
216;216;1449491656;2.17603564262;0.813268899918;0.0686928853393;1;True;37;1;80.71917033219003
217;217;1449491656;2.17602038383;0.813176751137;0.0687683969736;1;True;37;1;80.71917033219003
218;218;1449491656;2.1759736537900003;0.8131238222120001;0.06871562451119999;1;True;37;1;80.71917033219003
219;219;1449491656;2.17603993416;0.8133204579350001;0.0686577185988;1;True;37;1;80.71917033219003
220;220;1449491656;2.1759927272799997;0.8131900429729999;0.0687091425061;1;True;37;1;80.71917033219003
221;221;1449491656;2.17593026161;0.8133252263070001;0.0687610656023;1;True;37;1;80.71917033219003
222;222;1449491656;2.17599391937;0.8130253553389999;0.0687421187758;1;True;37;1;80.71917033219003
223;223;1449491656;2.17599892616;0.813231766224;0.0687515065074;1;True;37;1;80.71917033219003
224;224;1449491656;2.17599916458;0.813339173794;0.06868206709619999;1;True;37;1;80.71917033219003
225;225;1449491656;2.1759986877400004;0.813233435154;0.0687541812658;1;True;37;1;80.71917033219003
226;226;1449491656;2.1760964393599997;0.813331723213;0.0686137154698;1;True;37;1;80.71917033219003
227;227;1449491656;2.17604422569;0.813213944435;0.06864771991969999;1;True;37;1;80.71917033219003
228;228;1449491656;2.17597556114;0.812970876694;0.0687555596232;1;True;37;1;80.71917033219003
229;229;1449491656;2.1760032177;0.813233137131;0.0687355697155;1;True;37;1;80.71917033219003
230;230;1449491656;2.17602491379;0.813271045685;0.0686862543225;1;True;37;1;80.71917033219003
231;231;1449491656;2.17598605156;0.8132647871969999;0.0687144696712;1;True;37;1;80.71917033219003
232;232;1449491656;2.17590785027;0.813022315502;0.0687567293644;1;True;37;1;80.71917033219003
233;233;1449491656;2.17602968216;0.8133000135420001;0.06873419880869999;1;True;37;1;80.71917033219003
234;234;1449491656;2.17599892616;0.813252806664;0.0687374919653;1;True;37;1;80.71917033219003
235;235;1449491656;2.17591190338;0.813179194927;0.06868185102940001;1;True;37;1;80.71917033219003
236;236;1449491656;2.17601704597;0.813313663006;0.06866239756350001;1;True;37;1;80.71917033219003
237;237;1449491656;2.17601418495;0.813239037991;0.0687528401613;1;True;37;1;80.71917033219003
238;238;1449491656;2.17601799965;0.813204526901;0.06870111823080001;1;True;37;1;80.71917033219003
239;239;1449491656;2.17601776123;0.81323081255;0.0686925202608;1;True;37;1;80.71917033219003
240;240;1449491656;2.17608165741;0.81327521801;0.06871264427899999;1;True;37;1;80.71917033219003
241;241;1449491656;2.17598056793;0.813257336617;0.0687241479754;1;True;37;1;80.71917033219003
242;242;1449491656;2.17600798607;0.813104867935;0.0687251761556;1;True;37;1;80.71917033219003
243;243;1449491656;2.17605662346;0.813256800175;0.06872391700739999;1;True;37;1;80.71917033219003
244;244;1449491656;2.17592024803;0.8130268454549999;0.0687888637185;1;True;37;1;80.71917033219003
245;245;1449491656;2.17611074448;0.813521564007;0.0686183348298;1;True;37;1;80.71917033219003
246;246;1449491656;2.1759979724900003;0.813477396965;0.0686595365405;1;True;37;1;80.71917033219003
247;247;1449491656;2.1759498119400003;0.8132762908939999;0.06870413571600001;1;True;37;1;80.71917033219003
248;248;1449491656;2.1760315895099995;0.813122212887;0.06871847063299999;1;True;37;1;80.71917033219003
249;249;1449491656;2.1760275363900003;0.813445866108;0.0686711668968;1;True;37;1;80.71917033219003
250;250;1449491656;2.1760072708099996;0.81312161684;0.0687256231904;1;True;37;1;80.71917033219003
251;251;1449491656;2.17605924606;0.813354790211;0.0686745420098;1;True;37;1;80.71917033219003
252;252;1449491656;2.17604279518;0.8133077025409999;0.0687163546681;1;True;37;1;80.71917033219003
253;253;1449491656;2.17610001564;0.813271701336;0.06865016371009999;1;True;37;1;80.71917033219003
254;254;1449491656;2.17603731155;0.8133082985879999;0.0686947256327;1;True;37;1;80.71917033219003
255;255;1449491656;2.17602920532;0.813346326351;0.0686639845371;1;True;37;1;80.71917033219003
256;256;1449491656;2.1759831905400002;0.813178062439;0.0687698870897;1;True;37;1;80.71917033219003
257;257;1449491656;2.17602562904;0.813297152519;0.0687678307295;1;True;37;1;80.71917033219003
258;258;1449491656;2.17592954636;0.813005506992;0.0688149780035;1;True;37;1;80.71917033219003
259;259;1449491656;2.17586922646;0.813305139542;0.0688450783491;1;True;37;1;80.71917033219003
260;260;1449491656;2.1760580539700003;0.813354849815;0.0686755776405;1;True;37;1;80.71917033219003
261;261;1449491656;2.17605376244;0.813325881958;0.0687241777778;1;True;37;1;80.71917033219003
262;262;1449491656;2.1759967803999998;0.8130044341089999;0.06879934668539998;1;True;37;1;80.71917033219003
263;263;1449491656;2.17607188225;0.813340783119;0.06875942647460001;1;True;37;1;80.71917033219003
264;264;1449491656;2.17604136467;0.81318539381;0.0687502473593;1;True;37;1;80.71917033219003
265;265;1449491656;2.17597413063;0.813274145126;0.06876143068080001;1;True;37;1;80.71917033219003
266;266;1449491656;2.1760852336900003;0.813402414322;0.0687073618174;1;True;37;1;80.71917033219003
267;267;1449491656;2.17605757713;0.813407301903;0.0687444210052;1;True;37;1;80.71917033219003
268;268;1449491656;2.1760573387099997;0.813305675983;0.0687231346965;1;True;37;1;80.71917033219003
269;269;1449491656;2.1760668754599997;0.8133394718170001;0.0687263458967;1;True;37;1;80.71917033219003
270;270;1449491656;2.1759986877400004;0.8133714795110001;0.0687465891242;1;True;37;1;80.71917033219003
271;271;1449491656;2.1761236190799997;0.8132985234260001;0.0686791390181;1;True;37;1;80.71917033219003
272;272;1449491656;2.1760725975;0.813397049904;0.0687179192901;1;True;37;1;80.71917033219003
273;273;1449491656;2.17608380318;0.813529074192;0.06875261664389999;1;True;37;1;80.71917033219003
274;274;1449491656;2.1761298179599997;0.8133887648579999;0.068665035069;1;True;37;1;80.71917033219003
275;275;1449491656;2.17609524727;0.813224434853;0.068731367588;1;True;37;1;80.71917033219003
276;276;1449491656;2.17604112625;0.813188076019;0.0688278898597;1;True;37;1;80.71917033219003
277;277;1449491656;2.1760134697;0.813173770905;0.06887755542989998;1;True;37;1;80.71917033219003
278;278;1449491656;2.17610359192;0.813173055649;0.0687370970845;1;True;37;1;80.71917033219003
279;279;1449491656;2.17604660988;0.813467800617;0.0687886252999;1;True;37;1;80.71917033219003
280;280;1449491656;2.1760461330400003;0.813200891018;0.0687611624599;1;True;37;1;80.71917033219003
281;281;1449491656;2.17604136467;0.813345968723;0.0688291937113;1;True;37;1;80.71917033219003
282;282;1449491656;2.17603302002;0.813268899918;0.0687949582934;1;True;37;1;80.71917033219003
283;283;1449491656;2.17605042458;0.813277840614;0.06879714131360001;1;True;37;1;80.71917033219003
284;284;1449491656;2.1760423183400004;0.8132621645929999;0.0688213557005;1;True;37;1;80.71917033219003
285;285;1449491656;2.17617535591;0.813460052013;0.06862982362509999;1;True;37;1;80.71917033219003
286;286;1449491656;2.1759436130500003;0.812983393669;0.06887017935510001;1;True;37;1;80.71917033219003
287;287;1449491656;2.17607235909;0.813292980194;0.0687800347805;1;True;37;1;80.71917033219003
288;288;1449491656;2.1760532856;0.813351511955;0.0687593743205;1;True;37;1;80.71917033219003
289;289;1449491656;2.17605471611;0.8132803440090001;0.068785816431;1;True;37;1;80.71917033219003
290;290;1449491656;2.17603564262;0.813270747662;0.0687903165817;1;True;37;1;80.71917033219003
291;291;1449491656;2.17614173889;0.81348490715;0.0686681270599;1;True;37;1;80.71917033219003
292;292;1449491656;2.17607569695;0.813279867172;0.06876495480539999;1;True;37;1;80.71917033219003
293;293;1449491656;2.17603564262;0.813181519508;0.0687598288059;1;True;37;1;80.71917033219003
294;294;1449491656;2.17606568336;0.813331902027;0.0687386244535;1;True;37;1;80.71917033219003
295;295;1449491656;2.17603373528;0.8130701780320001;0.0687876343727;1;True;37;1;80.71917033219003
296;296;1449491656;2.17611074448;0.813269257545;0.0687623471022;1;True;37;1;80.71917033219003
297;297;1449491656;2.17606329918;0.813111364841;0.06876529008150001;1;True;37;1;80.71917033219003
298;298;1449491656;2.17609405518;0.813333392143;0.06873446702960001;1;True;37;1;80.71917033219003
299;299;1449491656;2.17605471611;0.813305675983;0.0687297061086;1;True;37;1;80.71917033219003
300;300;1449491656;2.17599034309;0.81324249506;0.068788304925;1;True;37;1;80.71917033219003
301;301;1449491656;2.17608165741;0.8134542107580001;0.06875120103360001;1;True;37;1;80.71917033219003
302;302;1449491656;2.17604732513;0.813125193119;0.0687308683991;1;True;37;1;80.71917033219003
303;303;1449491656;2.1760187149;0.813095152378;0.0687605589628;1;True;37;1;80.71917033219003
304;304;1449491656;2.1760745048500003;0.813321352005;0.0687720999122;1;True;37;1;80.71917033219003
305;305;1449491656;2.17601394653;0.813263654709;0.06876361370089999;1;True;37;1;80.71917033219003
306;306;1449491656;2.17608833313;0.8132280707359999;0.0687196776271;1;True;37;1;80.71917033219003
307;307;1449491656;2.17594075203;0.813055336475;0.0687999799848;1;True;37;1;80.71917033219003
308;308;1449491656;2.17613244057;0.813470065594;0.06863929331299999;1;True;37;1;80.71917033219003
309;309;1449491656;2.17606568336;0.813355028629;0.0687458366156;1;True;37;1;80.71917033219003
310;310;1449491656;2.17607522011;0.81338173151;0.0687437653542;1;True;37;1;80.71917033219003
311;311;1449491656;2.1760435104400004;0.813278734684;0.0687583237886;1;True;37;1;80.71917033219003
312;312;1449491656;2.1759848594699998;0.81335747242;0.068727619946;1;True;37;1;80.71917033219003
313;313;1449491656;2.1760840416;0.8132299780850001;0.0687019973993;1;True;37;1;80.71917033219003
314;314;1449491656;2.17599058151;0.813262104988;0.06877309083939999;1;True;37;1;80.71917033219003
315;315;1449491656;2.17601513863;0.813346624374;0.06873717904089999;1;True;37;1;80.71917033219003
316;316;1449491656;2.1760160923;0.813236474991;0.0687805116177;1;True;37;1;80.71917033219003
317;317;1449491656;2.17609548569;0.813310146332;0.06866978108880001;1;True;37;1;80.71917033219003
318;318;1449491656;2.1760985851299997;0.8132925033570001;0.0686597526073;1;True;37;1;80.71917033219003
319;319;1449491656;2.17599606514;0.81324493885;0.068754054606;1;True;37;1;80.71917033219003
320;320;1449491656;2.1760511398299998;0.813137948513;0.0687277987599;1;True;37;1;80.71917033219003
321;321;1449491656;2.17601323128;0.813200891018;0.06872576475139999;1;True;37;1;80.71917033219003
322;322;1449491656;2.17602467537;0.8132450580600001;0.06871003657580001;1;True;37;1;80.71917033219003
323;323;1449491656;2.1760392188999997;0.8131105899809999;0.0687368884683;1;True;37;1;80.71917033219003
324;324;1449491656;2.1760122776;0.8132457733149999;0.06875385344030001;1;True;37;1;80.71917033219003
325;325;1449491656;2.1760134697;0.813456237316;0.0687468200922;1;True;37;1;80.71917033219003
326;326;1449491656;2.176030159;0.813279271126;0.0687044635415;1;True;37;1;80.71917033219003
327;327;1449491656;2.17602348328;0.813264667988;0.068776294589;1;True;37;1;80.71917033219003
328;328;1449491656;2.17611670494;0.8133605718610001;0.0686003863811;1;True;37;1;80.71917033219003
329;329;1449491656;2.17600369453;0.8134521842;0.0686900690198;1;True;37;1;80.71917033219003
330;330;1449491656;2.1760334968599997;0.813424646854;0.0687013044953;1;True;37;1;80.71917033219003
331;331;1449491656;2.1760556697799998;0.813314139843;0.0687149986625;1;True;37;1;80.71917033219003
332;332;1449491656;2.1760194301599998;0.8130939006810001;0.0687861517072;1;True;37;1;80.71917033219003
333;333;1449491656;2.1760494709000002;0.8133996725079999;0.06868159025909999;1;True;37;1;80.71917033219003
334;334;1449491656;2.17593884468;0.813033103943;0.06877034157510001;1;True;37;1;80.71917033219003
335;335;1449491656;2.1760232448599997;0.813084959984;0.0687350556254;1;True;37;1;80.71917033219003
336;336;1449491656;2.17602181435;0.813086152077;0.06873648613689999;1;True;37;1;80.71917033219003
337;337;1449491656;2.17601823807;0.813387989998;0.0686884224415;1;True;37;1;80.71917033219003
338;338;1449491656;2.17605853081;0.8131600022319999;0.0686647593975;1;True;37;1;80.71917033219003
339;339;1449491656;2.175999403;0.813226640224;0.0687492191792;1;True;37;1;80.71917033219003
340;340;1449491656;2.1760263443;0.813305675983;0.068733625114;1;True;37;1;80.71917033219003
341;341;1449491656;2.17605018616;0.813352167606;0.0686578080058;1;True;37;1;80.71917033219003
342;342;1449491656;2.1761150360099997;0.8135550618170001;0.0686425790191;1;True;37;1;80.71917033219003
343;343;1449491656;2.17607760429;0.813225090504;0.06866148114199999;1;True;37;1;80.71917033219003
344;344;1449491657;2.17609095573;0.8132829070090001;0.0686435475945;2;True;37;1;80.71917033219003
345;345;1449491657;2.1760461330400003;0.8133484125139999;0.0686532557011;2;True;37;1;80.71917033219003
346;346;1449491657;2.17600870132;0.813567101955;0.06873222440480001;2;True;37;1;80.71917033219003
347;347;1449491657;2.17601108551;0.81307220459;0.068732008338;2;True;37;1;80.71917033219003
348;348;1449491657;2.1760239601099998;0.813440024853;0.06870982795950001;2;True;37;1;80.71917033219003
349;349;1449491657;2.17599487305;0.812986910343;0.0687632113695;2;True;37;1;80.71917033219003
350;350;1449491657;2.1760032177;0.8132267594339999;0.06871817260980001;2;True;37;1;80.71917033219003
351;351;1449491657;2.1760423183400004;0.8132810592649999;0.0687267407775;2;True;37;1;80.71917033219003
352;352;1449491657;2.17602944374;0.813161611557;0.0687003731728;2;True;37;1;80.71917033219003
353;353;1449491657;2.17606735229;0.8132095932960001;0.06868575513360001;2;True;37;1;80.71917033219003
354;354;1449491657;2.17604279518;0.813319146633;0.06866748631;2;True;37;1;80.71917033219003
355;355;1449491657;2.17598676682;0.813167273998;0.0687377825379;2;True;37;1;80.71917033219003
356;356;1449491657;2.175999403;0.813155949116;0.0687130540609;2;True;37;1;80.71917033219003
357;357;1449491657;2.17598772049;0.813250541687;0.0687414854765;2;True;37;1;80.71917033219003
358;358;1449491657;2.17603540421;0.813313245773;0.0686980187893;2;True;37;1;80.71917033219003
359;359;1449491657;2.1760559082;0.813345193863;0.0686698630452;2;True;37;1;80.71917033219003
360;360;1449491657;2.17602133751;0.813284099102;0.06876232475039999;2;True;37;1;80.71917033219003
361;361;1449491657;2.1759955883;0.813251674175;0.068734832108;2;True;37;1;80.71917033219003
362;362;1449491657;2.1760158538799996;0.813246905804;0.0687683150172;2;True;37;1;80.71917033219003
363;363;1449491657;2.1759271621700003;0.813004612923;0.0687962993979;2;True;37;1;80.71917033219003
364;364;1449491657;2.17598557472;0.81341946125;0.0687028467655;2;True;37;1;80.71917033219003
365;365;1449491657;2.1760232448599997;0.8132450580600001;0.06877759844060001;2;True;37;1;80.71917033219003
366;366;1449491657;2.1760134697;0.8132675886149999;0.06874851882460001;2;True;37;1;80.71917033219003
367;367;1449491657;2.17599320412;0.813323676586;0.0686814859509;2;True;37;1;80.71917033219003
368;368;1449491657;2.17604112625;0.813324868679;0.06870329380040001;2;True;37;1;80.71917033219003
369;369;1449491657;2.17605042458;0.813332378864;0.06873398274180001;2;True;37;1;80.71917033219003
370;370;1449491657;2.17598152161;0.813211619854;0.0687765702605;2;True;37;1;80.71917033219003
371;371;1449491657;2.1759979724900003;0.812995314598;0.06877920776610001;2;True;37;1;80.71917033219003
372;372;1449491657;2.1760435104400004;0.8134070634839999;0.0686707124114;2;True;37;1;80.71917033219003
373;373;1449491657;2.17601180077;0.813261568546;0.0687713474035;2;True;37;1;80.71917033219003
374;374;1449491657;2.17599534988;0.813256621361;0.0687654092908;2;True;37;1;80.71917033219003
375;375;1449491657;2.176009655;0.813109815121;0.0687404200435;2;True;37;1;80.71917033219003
376;376;1449491657;2.17604756355;0.81318551302;0.0687223300338;2;True;37;1;80.71917033219003
377;377;1449491657;2.1759712696099998;0.813251912594;0.0687552914023;2;True;37;1;80.71917033219003
378;378;1449491657;2.17608880997;0.813297271729;0.068639703095;2;True;37;1;80.71917033219003
379;379;1449491657;2.1760115623500003;0.8133075833319999;0.0687111616135;2;True;37;1;80.71917033219003
380;380;1449491657;2.17603397369;0.813303768635;0.0687139555812;2;True;37;1;80.71917033219003
381;381;1449491657;2.17605304718;0.813329279423;0.068733304739;2;True;37;1;80.71917033219003
382;382;1449491657;2.1760122776;0.813259601593;0.06877614557739999;2;True;37;1;80.71917033219003
383;383;1449491657;2.1759562492400004;0.813086926937;0.0688352510333;2;True;37;1;80.71917033219003
384;384;1449491657;2.17606568336;0.8131904006;0.0686827152967;2;True;37;1;80.71917033219003
385;385;1449491657;2.17602610588;0.813293039799;0.06872857362030001;2;True;37;1;80.71917033219003
386;386;1449491657;2.17607808113;0.813322365284;0.0687057077885;2;True;37;1;80.71917033219003
387;387;1449491657;2.17591190338;0.812951564789;0.0688612535596;2;True;37;1;80.71917033219003
388;388;1449491657;2.17596912384;0.81317538023;0.06878206878899999;2;True;37;1;80.71917033219003
389;389;1449491657;2.1760263443;0.81321310997;0.0687119886279;2;True;37;1;80.71917033219003
390;390;1449491657;2.1761097908;0.813535928726;0.0686548650265;2;True;37;1;80.71917033219003
391;391;1449491657;2.1760482788099997;0.813458144665;0.0687022507191;2;True;37;1;80.71917033219003
392;392;1449491657;2.1759793758400003;0.813256263733;0.0687863305211;2;True;37;1;80.71917033219003
393;393;1449491657;2.17604494095;0.813282370567;0.06875903159380001;2;True;37;1;80.71917033219003
394;394;1449491657;2.17598700523;0.813268780708;0.0687765479088;2;True;37;1;80.71917033219003
395;395;1449491657;2.17602229118;0.81310492754;0.06879787892099999;2;True;37;1;80.71917033219003
396;396;1449491657;2.17609143257;0.8133625388150001;0.0686817318201;2;True;37;1;80.71917033219003
397;397;1449491657;2.1760270595599995;0.813082814217;0.0687694177032;2;True;37;1;80.71917033219003
398;398;1449491657;2.17607736588;0.8133355379100001;0.0687704831362;2;True;37;1;80.71917033219003
399;399;1449491657;2.17609810829;0.813323557377;0.0687105208635;2;True;37;1;80.71917033219003
400;400;1449491657;2.17591929436;0.813281476498;0.0686996206641;2;True;37;1;80.71917033219003
401;401;1449491657;2.17613196373;0.8135437369349999;0.0686838850379;2;True;37;1;80.71917033219003
402;402;1449491657;2.17605137825;0.813288927078;0.0687561780214;2;True;37;1;80.71917033219003
403;403;1449491657;2.1761071681999997;0.813413143158;0.0687503740191;2;True;37;1;80.71917033219003
404;404;1449491657;2.17613244057;0.813318550587;0.06867580860849999;2;True;37;1;80.71917033219003
405;405;1449491657;2.1760623455;0.8132849931720001;0.0687491372228;2;True;37;1;80.71917033219003
406;406;1449491657;2.17604255676;0.8132817745209999;0.068763025105;2;True;37;1;80.71917033219003
407;407;1449491657;2.17603850365;0.813175499439;0.0687649175525;2;True;37;1;80.71917033219003
408;408;1449491657;2.17605876923;0.813316762447;0.0687330663204;2;True;37;1;80.71917033219003
409;409;1449491657;2.1760532856;0.8132842183110001;0.0687567070127;2;True;37;1;80.71917033219003
410;410;1449491657;2.17611861229;0.813539624214;0.0686741918325;2;True;37;1;80.71917033219003
411;411;1449491657;2.17608761787;0.8133239150049999;0.0687292218208;2;True;37;1;80.71917033219003
412;412;1449491657;2.17608714104;0.813366353512;0.0687563940883;2;True;37;1;80.71917033219003
413;413;1449491657;2.17600345612;0.813211798668;0.0688186511397;2;True;37;1;80.71917033219003
414;414;1449491657;2.17606377602;0.813305258751;0.068763718009;2;True;37;1;80.71917033219003
415;415;1449491657;2.1760437488599997;0.813257873058;0.06878243386749999;2;True;37;1;80.71917033219003
416;416;1449491657;2.1760897636400003;0.8133532404899999;0.06871609389779999;2;True;37;1;80.71917033219003
417;417;1449491657;2.17608094215;0.813385546207;0.0687412396073;2;True;37;1;80.71917033219003
418;418;1449491657;2.1761102676400004;0.813482165337;0.06869650632140001;2;True;37;1;80.71917033219003
419;419;1449491657;2.17600274086;0.8131710290909999;0.0687608271837;2;True;37;1;80.71917033219003
420;420;1449491657;2.1760275363900003;0.813285648823;0.06876233965160002;2;True;37;1;80.71917033219003
421;421;1449491657;2.17605829239;0.813295543194;0.0687073990703;2;True;37;1;80.71917033219003
422;422;1449491657;2.17600631714;0.813339114189;0.0687322616577;2;True;37;1;80.71917033219003
423;423;1449491657;2.17599916458;0.813238322735;0.068813316524;2;True;37;1;80.71917033219003
424;424;1449491657;2.17606163025;0.813338875771;0.0686701461673;2;True;37;1;80.71917033219003
425;425;1449491657;2.17604732513;0.813290476799;0.0687033608556;2;True;37;1;80.71917033219003
426;426;1449491657;2.1760461330400003;0.8133197426800001;0.0687091425061;2;True;37;1;80.71917033219003
427;427;1449491657;2.1759126186400004;0.813023030758;0.0688143223524;2;True;37;1;80.71917033219003
428;428;1449491657;2.17604875565;0.8133328557009999;0.0686869323254;2;True;37;1;80.71917033219003
429;429;1449491657;2.17607426643;0.813322663307;0.0687154084444;2;True;37;1;80.71917033219003
430;430;1449491657;2.17603421211;0.813278079033;0.06873054802419999;2;True;37;1;80.71917033219003
431;431;1449491657;2.17606329918;0.813386797905;0.0687323287129;2;True;37;1;80.71917033219003
432;432;1449491657;2.17593240738;0.813356697559;0.0687192901969;2;True;37;1;80.71917033219003
433;433;1449491657;2.17596173286;0.813150703907;0.06878064572810001;2;True;37;1;80.71917033219003
434;434;1449491657;2.17610836029;0.813541412354;0.0686469450593;2;True;37;1;80.71917033219003
435;435;1449491657;2.17603373528;0.81330293417;0.0687301903963;2;True;37;1;80.71917033219003
436;436;1449491657;2.17605757713;0.8131163120270001;0.0686986148357;2;True;37;1;80.71917033219003
437;437;1449491657;2.17605233192;0.8132912516590001;0.0687526986003;2;True;37;1;80.71917033219003
438;438;1449491657;2.17598605156;0.8132403492929999;0.06876187771560001;2;True;37;1;80.71917033219003
439;439;1449491657;2.17607426643;0.813344478607;0.06876039504999999;2;True;37;1;80.71917033219003
440;440;1449491657;2.17599749565;0.813295662403;0.0686990022659;2;True;37;1;80.71917033219003
441;441;1449491657;2.17605543137;0.813384056091;0.06872715801;2;True;37;1;80.71917033219003
442;442;1449491657;2.1760528087599997;0.813324153423;0.0687174052;2;True;37;1;80.71917033219003
443;443;1449491657;2.1760318279299997;0.813171863556;0.0687402412295;2;True;37;1;80.71917033219003
444;444;1449491657;2.17585396767;0.813227117062;0.06884463876489999;2;True;37;1;80.71917033219003
445;445;1449491657;2.17602443695;0.8131070733069999;0.06874230504039999;2;True;37;1;80.71917033219003
446;446;1449491657;2.17606902122;0.8133177757260001;0.06872710585589999;2;True;37;1;80.71917033219003
447;447;1449491657;2.17608356476;0.813279926777;0.06871991604569999;2;True;37;1;80.71917033219003
448;448;1449491657;2.1760270595599995;0.813394248486;0.0686979368329;2;True;37;1;80.71917033219003
449;449;1449491657;2.17603826523;0.813108682632;0.0687216892838;2;True;37;1;80.71917033219003
450;450;1449491657;2.17605781555;0.813308775425;0.068744122982;2;True;37;1;80.71917033219003
451;451;1449491657;2.1761295795400004;0.813420891762;0.0685854181647;2;True;37;1;80.71917033219003
452;452;1449491657;2.17597842216;0.813053429127;0.0687762126327;2;True;37;1;80.71917033219003
453;453;1449491657;2.17602062225;0.8132905364040001;0.06872025132180001;2;True;37;1;80.71917033219003
454;454;1449491657;2.17594575882;0.8133581280709999;0.0687484666705;2;True;37;1;80.71917033219003
455;455;1449491657;2.17601633072;0.813262939453;0.06877341121439999;2;True;37;1;80.71917033219003
456;456;1449491657;2.17604899406;0.813355386257;0.0686670020223;2;True;37;1;80.71917033219003
457;457;1449491657;2.175968647;0.813285768032;0.0687012299895;2;True;37;1;80.71917033219003
458;458;1449491657;2.17603516579;0.8132853508;0.06876007467510001;2;True;37;1;80.71917033219003
459;459;1449491657;2.17606449127;0.813148736954;0.0686653256416;2;True;37;1;80.71917033219003
460;460;1449491657;2.17604136467;0.813142299652;0.0686870962381;2;True;37;1;80.71917033219003
461;461;1449491657;2.17605829239;0.813244223595;0.0687448009849;2;True;37;1;80.71917033219003
462;462;1449491657;2.17605876923;0.81332218647;0.0687399506569;2;True;37;1;80.71917033219003
463;463;1449491657;2.1760408878299997;0.813296318054;0.068709589541;2;True;37;1;80.71917033219003
464;464;1449491657;2.1760659217800002;0.813335299492;0.06866625696419999;2;True;37;1;80.71917033219003
465;465;1449491657;2.17599010468;0.8133878111839999;0.06868797540659999;2;True;37;1;80.71917033219003
466;466;1449491657;2.17599081993;0.813130497932;0.0687656030059;2;True;37;1;80.71917033219003
467;467;1449491657;2.17606520653;0.813132345676;0.06870754063130001;2;True;37;1;80.71917033219003
468;468;1449491657;2.1760725975;0.813389718533;0.068715877831;2;True;37;1;80.71917033219003
469;469;1449491657;2.17600274086;0.8129996061329999;0.0687786713243;2;True;37;1;80.71917033219003
470;470;1449491657;2.17606830597;0.8131828308110001;0.0686819255352;2;True;37;1;80.71917033219003
471;471;1449491657;2.1759998798400004;0.813252210617;0.0687515735626;2;True;37;1;80.71917033219003
472;472;1449491657;2.17605161667;0.8132911324500001;0.06871108710769999;2;True;37;1;80.71917033219003
473;473;1449491657;2.1760828494999997;0.813479244709;0.0687396675348;2;True;37;1;80.71917033219003
474;474;1449491657;2.1760075092299997;0.813312470913;0.06873519718650001;2;True;37;1;80.71917033219003
475;475;1449491657;2.17607760429;0.813391327858;0.0687026754022;2;True;37;1;80.71917033219003
476;476;1449491657;2.17592859268;0.81306129694;0.0687846168876;2;True;37;1;80.71917033219003
477;477;1449491657;2.17604207993;0.813293516636;0.068744905293;2;True;37;1;80.71917033219003
478;478;1449491657;2.17601394653;0.8132633566859999;0.0687324255705;2;True;37;1;80.71917033219003
479;479;1449491657;2.1761195659599997;0.813363671303;0.0685986205935;2;True;37;1;80.71917033219003
480;480;1449491657;2.17598843575;0.813274025917;0.0687519982457;2;True;37;1;80.71917033219003
481;481;1449491657;2.17604708672;0.81333565712;0.0687112510204;2;True;37;1;80.71917033219003
482;482;1449491657;2.17608857155;0.813419222832;0.0686898380518;2;True;37;1;80.71917033219003
483;483;1449491657;2.17604184151;0.813236117363;0.0687281414866;2;True;37;1;80.71917033219003
484;484;1449491657;2.1759996414200002;0.813262343407;0.06876232475039999;2;True;37;1;80.71917033219003
485;485;1449491657;2.17605900764;0.813288092613;0.06877087801689999;2;True;37;1;80.71917033219003
486;486;1449491657;2.1759371757499997;0.813038647175;0.0687917098403;2;True;37;1;80.71917033219003
487;487;1449491657;2.1760985851299997;0.813196480274;0.0686540827155;2;True;37;1;80.71917033219003
488;488;1449491657;2.17607522011;0.8133206367489999;0.06865818053480001;2;True;37;1;80.71917033219003
489;489;1449491657;2.17611122131;0.8135456442829999;0.06865845620630001;2;True;37;1;80.71917033219003
490;490;1449491657;2.17607569695;0.813333570957;0.0687146782875;2;True;37;1;80.71917033219003
491;491;1449491657;2.1760873794599997;0.8131975531579999;0.0687063708901;2;True;37;1;80.71917033219003
492;492;1449491657;2.17612671852;0.813533484936;0.068624265492;2;True;37;1;80.71917033219003
493;493;1449491657;2.17598104477;0.8134346008300001;0.068892210722;2;True;37;1;80.71917033219003
494;494;1449491657;2.17601513863;0.8133095502850001;0.0687160044909;2;True;37;1;80.71917033219003
495;495;1449491657;2.17606925964;0.813338458538;0.06870020180940001;2;True;37;1;80.71917033219003
496;496;1449491657;2.17608094215;0.8133434653280001;0.0687292963266;2;True;37;1;80.71917033219003
497;497;1449491657;2.1761007309;0.813299059868;0.0686558783054;2;True;37;1;80.71917033219003
498;498;1449491657;2.17607784271;0.813362956047;0.0687535777688;2;True;37;1;80.71917033219003
499;499;1449491657;2.17603778839;0.8132252693179999;0.0687788054347;2;True;37;1;80.71917033219003
500;500;1449491657;2.1759934425400003;0.813259124756;0.068785622716;2;True;37;1;80.71917033219003
501;501;1449491657;2.1760308742500003;0.813084900379;0.068759970367;2;True;37;1;80.71917033219003
502;502;1449491657;2.1760866642;0.813413977623;0.0687471032143;2;True;37;1;80.71917033219003
503;503;1449491657;2.1760964393599997;0.813343048096;0.0687185972929;2;True;37;1;80.71917033219003
504;504;1449491657;2.17607164383;0.8133651614190001;0.06876791268589999;2;True;37;1;80.71917033219003
505;505;1449491657;2.1760902404799998;0.813390314579;0.0687569081783;2;True;37;1;80.71917033219003
506;506;1449491657;2.17606496811;0.813329875469;0.06877316534519999;2;True;37;1;80.71917033219003
507;507;1449491657;2.17602086067;0.8134604096410001;0.0687880590558;2;True;37;1;80.71917033219003
508;508;1449491657;2.17610383034;0.81327009201;0.0686877891421;2;True;37;1;80.71917033219003
509;509;1449491657;2.17606568336;0.813333749771;0.068756558001;2;True;37;1;80.71917033219003
510;510;1449491657;2.17605185509;0.8134214878079999;0.06872520595789999;2;True;37;1;80.71917033219003
511;511;1449491657;2.17611384392;0.813505887985;0.06868792325260001;2;True;37;1;80.71917033219003
512;512;1449491657;2.17604780197;0.8132121562960001;0.0687487125397;2;True;37;1;80.71917033219003
513;513;1449491657;2.17612099648;0.8133436441419999;0.0686358958483;2;True;37;1;80.71917033219003
514;514;1449491657;2.17600154877;0.813237309456;0.06880598515269999;2;True;37;1;80.71917033219003
515;515;1449491657;2.17602849007;0.813316702843;0.0687118247151;2;True;37;1;80.71917033219003
516;516;1449491657;2.1760230064400004;0.813259422779;0.0687830150127;2;True;37;1;80.71917033219003
517;517;1449491657;2.1760764122;0.8133319616320001;0.06876087933780001;2;True;37;1;80.71917033219003
518;518;1449491657;2.17613244057;0.81345140934;0.0686847642064;2;True;37;1;80.71917033219003
519;519;1449491657;2.17609214783;0.8133325576780001;0.0687434598804;2;True;37;1;80.71917033219003
520;520;1449491657;2.1761276722;0.81327855587;0.06867171823979999;2;True;37;1;80.71917033219003
521;521;1449491657;2.17607021332;0.813405692577;0.0687242597342;2;True;37;1;80.71917033219003
522;522;1449491657;2.17600607872;0.813273489475;0.06876777112480001;2;True;37;1;80.71917033219003
523;523;1449491657;2.1760358810400002;0.8132606744769999;0.0687688291073;2;True;37;1;80.71917033219003
524;524;1449491657;2.1761238575;0.8135416507719999;0.068691983819;2;True;37;1;80.71917033219003
525;525;1449491657;2.1760573387099997;0.8132354021070001;0.06873006373639999;2;True;37;1;80.71917033219003
526;526;1449491657;2.17604756355;0.813205242157;0.06881160289049999;2;True;37;1;80.71917033219003
527;527;1449491657;2.1760392188999997;0.813092708588;0.0687838718295;2;True;37;1;80.71917033219003
528;528;1449491657;2.17606019974;0.813258111477;0.0687174797058;2;True;37;1;80.71917033219003
529;529;1449491657;2.17606043816;0.8131355047229999;0.06875666975980001;2;True;37;1;80.71917033219003
530;530;1449491657;2.17612838745;0.813350319862;0.0686340257525;2;True;37;1;80.71917033219003
531;531;1449491657;2.17607355118;0.8133069872859999;0.0687411054969;2;True;37;1;80.71917033219003
532;532;1449491657;2.17607808113;0.813321530819;0.06876464933160001;2;True;37;1;80.71917033219003
533;533;1449491657;2.1759536266299997;0.81302022934;0.0688225328922;2;True;37;1;80.71917033219003
534;534;1449491657;2.17601132393;0.8132871389390001;0.0687584206462;2;True;37;1;80.71917033219003
535;535;1449491657;2.17610931396;0.813504874706;0.06873139739039999;2;True;37;1;80.71917033219003
536;536;1449491657;2.1760675907099998;0.813285768032;0.0687740892172;2;True;37;1;80.71917033219003
537;537;1449491657;2.1760661602;0.81326854229;0.0687891840935;2;True;37;1;80.71917033219003
538;538;1449491657;2.17608380318;0.81333810091;0.0687106773257;2;True;37;1;80.71917033219003
539;539;1449491657;2.17597460747;0.813079535961;0.068807259202;2;True;37;1;80.71917033219003
540;540;1449491657;2.1760964393599997;0.813325583935;0.0687534734607;2;True;37;1;80.71917033219003
541;541;1449491657;2.17608261108;0.81338351965;0.0687439888716;2;True;37;1;80.71917033219003
542;542;1449491657;2.1758213043200003;0.8133342266079999;0.0685533285141;2;True;37;1;80.71917033219003
543;543;1449491657;2.17602849007;0.8133190274240001;0.06873238831760001;2;True;37;1;80.71917033219003
544;544;1449491657;2.1759986877400004;0.8132387995720001;0.0687785595655;2;True;37;1;80.71917033219003
545;545;1449491657;2.17608261108;0.813340187073;0.0687785893679;2;True;37;1;80.71917033219003
546;546;1449491657;2.1760725975;0.813396692276;0.0687482059002;2;True;37;1;80.71917033219003
547;547;1449491657;2.17608857155;0.8133692741390001;0.068697668612;2;True;37;1;80.71917033219003
548;548;1449491657;2.17606425285;0.813131153584;0.06873577088119999;2;True;37;1;80.71917033219003
549;549;1449491657;2.17605829239;0.813103973866;0.0687629058957;2;True;37;1;80.71917033219003
550;550;1449491657;2.17602419853;0.813306391239;0.0687416493893;2;True;37;1;80.71917033219003
551;551;1449491657;2.17598247528;0.8130605816840001;0.06883153319360001;2;True;37;1;80.71917033219003
552;552;1449491657;2.17608690262;0.813369989395;0.0687660574913;2;True;37;1;80.71917033219003
553;553;1449491657;2.17603325844;0.8132715821269999;0.0687717050314;2;True;37;1;80.71917033219003
554;554;1449491657;2.1761071681999997;0.813423633575;0.0687147527933;2;True;37;1;80.71917033219003
555;555;1449491657;2.1761140823400003;0.8134387135510001;0.0687400475144;2;True;37;1;80.71917033219003
556;556;1449491657;2.1759622097;0.813047885895;0.0687821358442;2;True;37;1;80.71917033219003
557;557;1449491657;2.17605996132;0.813201904297;0.068730160594;2;True;37;1;80.71917033219003
558;558;1449491657;2.17606544495;0.813430547714;0.0686914920807;2;True;37;1;80.71917033219003
559;559;1449491657;2.17611336708;0.8133652806280001;0.068687133491;2;True;37;1;80.71917033219003
560;560;1449491657;2.17609238625;0.813245117664;0.0686897858977;2;True;37;1;80.71917033219003
561;561;1449491657;2.17603373528;0.8132842183110001;0.0687624961138;2;True;37;1;80.71917033219003
562;562;1449491657;2.17605042458;0.813268363476;0.06876153498889999;2;True;37;1;80.71917033219003
563;563;1449491657;2.17604494095;0.813064813614;0.068759277463;2;True;37;1;80.71917033219003
564;564;1449491657;2.17598938942;0.8132056593889999;0.0688002035022;2;True;37;1;80.71917033219003
565;565;1449491657;2.17613124847;0.813536882401;0.0686692371964;2;True;37;1;80.71917033219003
566;566;1449491657;2.1760456562;0.813120305538;0.0687457844615;2;True;37;1;80.71917033219003
567;567;1449491657;2.1760327816;0.813282728195;0.0687655359507;2;True;37;1;80.71917033219003
568;568;1449491657;2.17608475685;0.813209533691;0.068702749908;2;True;37;1;80.71917033219003
569;569;1449491657;2.1760327816;0.81307053566;0.06875704973939999;2;True;37;1;80.71917033219003
570;570;1449491657;2.17606377602;0.813306093216;0.06869742274280001;2;True;37;1;80.71917033219003
571;571;1449491657;2.17612719536;0.813572347164;0.0686534419656;2;True;37;1;80.71917033219003
572;572;1449491657;2.1760594844799996;0.813387930393;0.06872488558289999;2;True;37;1;80.71917033219003
573;573;1449491657;2.1760315895099995;0.8131879568100001;0.0687753483653;2;True;37;1;80.71917033219003
574;574;1449491657;2.17604851723;0.8131945729260001;0.0687409415841;2;True;37;1;80.71917033219003
575;575;1449491657;2.1760349273700004;0.813020527363;0.06878855079410001;2;True;37;1;80.71917033219003
576;576;1449491657;2.17593073845;0.813007891178;0.0688043087721;2;True;37;1;80.71917033219003
577;577;1449491657;2.17604541779;0.81322991848;0.06873218715189999;2;True;37;1;80.71917033219003
578;578;1449491657;2.175978899;0.813151597977;0.0688526704907;2;True;37;1;80.71917033219003
579;579;1449491657;2.17611670494;0.8135086297990001;0.0686378926039;2;True;37;1;80.71917033219003
580;580;1449491657;2.17608356476;0.813364863396;0.0687052309513;2;True;37;1;80.71917033219003
581;581;1449491657;2.1760194301599998;0.813243448734;0.0686977282166;2;True;37;1;80.71917033219003
582;582;1449491658;2.1760959625200003;0.8132210969920001;0.0686349272728;3;True;37;1;80.71917033219003
583;583;1449491658;2.17609381676;0.813527107239;0.0686525553465;3;True;37;1;80.71917033219003
584;584;1449491658;2.17612671852;0.813546776772;0.0686318203807;3;True;37;1;80.71917033219003
585;585;1449491658;2.17609381676;0.8133319616320001;0.06872022897010001;3;True;37;1;80.71917033219003
586;586;1449491658;2.1760263443;0.813083231449;0.06875498592849999;3;True;37;1;80.71917033219003
587;587;1449491658;2.17599892616;0.813262045383;0.0687445923686;3;True;37;1;80.71917033219003
588;588;1449491658;2.17605781555;0.813158750534;0.0687480047345;3;True;37;1;80.71917033219003
589;589;1449491658;2.1760580539700003;0.8132442831990001;0.06872952729460001;3;True;37;1;80.71917033219003
590;590;1449491658;2.17603421211;0.813219726086;0.0687219947577;3;True;37;1;80.71917033219003
591;591;1449491658;2.1759645938900003;0.8134118914599999;0.0686945095658;3;True;37;1;80.71917033219003
592;592;1449491658;2.17601823807;0.8130319714550001;0.0687511414289;3;True;37;1;80.71917033219003
593;593;1449491658;2.1760621070900004;0.813215732574;0.0686894953251;3;True;37;1;80.71917033219003
594;594;1449491658;2.17597293854;0.813279986382;0.0687396079302;3;True;37;1;80.71917033219003
595;595;1449491658;2.17604064941;0.813347399235;0.0687232986093;3;True;37;1;80.71917033219003
596;596;1449491658;2.17612743378;0.8133824467659999;0.0686316713691;3;True;37;1;80.71917033219003
597;597;1449491658;2.175989151;0.8132919669149999;0.0688684433699;3;True;37;1;80.71917033219003
598;598;1449491658;2.1760628223400005;0.8133893013;0.068690508604;3;True;37;1;80.71917033219003
599;599;1449491658;2.1759366989099997;0.8130234479899999;0.06882026046510001;3;True;37;1;80.71917033219003
600;600;1449491658;2.1759514808700002;0.813295066357;0.0687402635813;3;True;37;1;80.71917033219003
601;601;1449491658;2.17608857155;0.813336849213;0.06870517879719999;3;True;37;1;80.71917033219003
602;602;1449491658;2.1760754585299997;0.8132443428039999;0.06875067204239999;3;True;37;1;80.71917033219003
603;603;1449491658;2.1760013103499998;0.813261628151;0.0687711313367;3;True;37;1;80.71917033219003
604;604;1449491658;2.17611002922;0.8132905364040001;0.06875582039360001;3;True;37;1;80.71917033219003
605;605;1449491658;2.1760511398299998;0.8131325244900001;0.0687607228756;3;True;37;1;80.71917033219003
606;606;1449491658;2.1761097908;0.8132817149160001;0.0686904713511;3;True;37;1;80.71917033219003
607;607;1449491658;2.17610287666;0.8133112192149999;0.0687604397535;3;True;37;1;80.71917033219003
608;608;1449491658;2.17608118057;0.813133239746;0.0687571689487;3;True;37;1;80.71917033219003
609;609;1449491658;2.17607212067;0.81312161684;0.0687786415219;3;True;37;1;80.71917033219003
610;610;1449491658;2.176040411;0.8130593299869999;0.06878664344549999;3;True;37;1;80.71917033219003
611;611;1449491658;2.1759521961200003;0.8130451440809999;0.06882515549660001;3;True;37;1;80.71917033219003
