;Unnamed: 0;header_stamp_secs;pose_position_x;pose_position_y;pose_position_z;seconds;drop_values;flight_number;label;dtw
0;0;1449493149;2.14300584793;0.809648215771;0.0682552307844;0;True;43;1;6.420398713109924
1;1;1449493149;2.14301085472;0.809648573399;0.0682450756431;0;True;43;1;6.420398713109924
2;2;1449493149;2.14301276207;0.8096575737;0.0682547092438;0;True;43;1;6.420398713109924
3;3;1449493149;2.1430106163;0.8096585273739999;0.0682544931769;0;True;43;1;6.420398713109924
4;4;1449493149;2.14300560951;0.809640944004;0.0682384073734;0;True;43;1;6.420398713109924
5;5;1449493149;2.14301133156;0.8096523880959999;0.0682541131973;0;True;43;1;6.420398713109924
6;6;1449493149;2.14301609993;0.809648692608;0.0682561919093;0;True;43;1;6.420398713109924
7;7;1449493149;2.14301991463;0.809650421143;0.0682517960668;0;True;43;1;6.420398713109924
8;8;1449493149;2.1430077552799998;0.809655725956;0.0682598948479;0;True;43;1;6.420398713109924
9;9;1449493149;2.14301729202;0.809648156166;0.06825232505800001;0;True;43;1;6.420398713109924
10;10;1449493149;2.14301919937;0.809650480747;0.068252183497;0;True;43;1;6.420398713109924
11;11;1449493149;2.14301419258;0.80965000391;0.068248860538;0;True;43;1;6.420398713109924
12;12;1449493149;2.14302825928;0.809649884701;0.0682678446174;0;True;43;1;6.420398713109924
13;13;1449493149;2.14302015305;0.809652924538;0.06826367974280001;0;True;43;1;6.420398713109924
14;14;1449493149;2.14302611351;0.809657812119;0.0682562366128;0;True;43;1;6.420398713109924
15;15;1449493149;2.14301681519;0.8096345067020001;0.0682463794947;0;True;43;1;6.420398713109924
16;16;1449493149;2.14301848412;0.809655725956;0.0682578086853;0;True;43;1;6.420398713109924
17;17;1449493149;2.14303922653;0.8096581101420001;0.0682506337762;0;True;43;1;6.420398713109924
18;18;1449493149;2.14302349091;0.809647679329;0.068245343864;0;True;43;1;6.420398713109924
19;19;1449493149;2.14303278923;0.80965924263;0.068264529109;0;True;43;1;6.420398713109924
20;20;1449493149;2.14302110672;0.8096472024920001;0.0682596489787;0;True;43;1;6.420398713109924
21;21;1449493149;2.14300870895;0.809643030167;0.06825032085180001;0;True;43;1;6.420398713109924
22;22;1449493149;2.14302611351;0.809649944305;0.068266749382;0;True;43;1;6.420398713109924
23;23;1449493149;2.14301586151;0.8096508979800001;0.0682525634766;0;True;43;1;6.420398713109924
24;24;1449493149;2.14300823212;0.809655427933;0.0682549253106;0;True;43;1;6.420398713109924
25;25;1449493149;2.14301919937;0.809648692608;0.0682507455349;0;True;43;1;6.420398713109924
26;26;1449493149;2.14301896095;0.809651553631;0.0682562366128;0;True;43;1;6.420398713109924
27;27;1449493149;2.14301347733;0.809659183025;0.0682663470507;0;True;43;1;6.420398713109924
28;28;1449493149;2.14302349091;0.8096491098399999;0.0682521685958;0;True;43;1;6.420398713109924
29;29;1449493149;2.14301800728;0.8096357584;0.0682522505522;0;True;43;1;6.420398713109924
30;30;1449493149;2.1430094242099997;0.8096383214;0.0682451054454;0;True;43;1;6.420398713109924
31;31;1449493149;2.14300012589;0.809645056725;0.0682485848665;0;True;43;1;6.420398713109924
32;32;1449493149;2.14300489426;0.809634149075;0.06824149936440001;0;True;43;1;6.420398713109924
33;33;1449493149;2.14301037788;0.809634804726;0.0682489350438;0;True;43;1;6.420398713109924
34;34;1449493149;2.1430091857900004;0.809638381004;0.0682439282537;0;True;43;1;6.420398713109924
35;35;1449493149;2.14301609993;0.8096529841419999;0.0682533681393;0;True;43;1;6.420398713109924
36;36;1449493149;2.14300251007;0.809639036655;0.06824278086419999;0;True;43;1;6.420398713109924
37;37;1449493149;2.1430032253299998;0.809648275375;0.0682466179132;0;True;43;1;6.420398713109924
38;38;1449493149;2.14301085472;0.809644281864;0.0682515501976;0;True;43;1;6.420398713109924
39;39;1449493149;2.14300584793;0.8096362948420001;0.0682498067617;0;True;43;1;6.420398713109924
40;40;1449493149;2.14301586151;0.8096475601199999;0.068245485425;0;True;43;1;6.420398713109924
41;41;1449493149;2.14300990105;0.809633612633;0.0682440698147;0;True;43;1;6.420398713109924
42;42;1449493149;2.1430072784400003;0.809653222561;0.0682529509068;0;True;43;1;6.420398713109924
43;43;1449493149;2.14301109314;0.8096399307250001;0.0682530775666;0;True;43;1;6.420398713109924
44;44;1449493149;2.14301037788;0.809640228748;0.0682482495904;0;True;43;1;6.420398713109924
45;45;1449493149;2.14300870895;0.8096475601199999;0.0682550370693;0;True;43;1;6.420398713109924
46;46;1449493149;2.14299845695;0.809641540051;0.0682516023517;0;True;43;1;6.420398713109924
47;47;1449493149;2.14300107956;0.809636473656;0.0682497397065;0;True;43;1;6.420398713109924
48;48;1449493149;2.14301109314;0.809642851353;0.0682513639331;0;True;43;1;6.420398713109924
49;49;1449493149;2.14301371574;0.8096427917479999;0.0682454928756;0;True;43;1;6.420398713109924
50;50;1449493149;2.143004179;0.809634268284;0.0682406947017;0;True;43;1;6.420398713109924
51;51;1449493149;2.14301252365;0.8096383214;0.0682471469045;0;True;43;1;6.420398713109924
52;52;1449493149;2.1430277824400004;0.809650242329;0.06824936717749999;0;True;43;1;6.420398713109924
53;53;1449493149;2.1430249214200003;0.809667885303;0.0682607516646;0;True;43;1;6.420398713109924
54;54;1449493149;2.1430130004900003;0.8096447587010001;0.068248309195;0;True;43;1;6.420398713109924
55;55;1449493149;2.14302992821;0.809654593468;0.0682564452291;0;True;43;1;6.420398713109924
56;56;1449493149;2.14303278923;0.809644401073;0.0682457312942;0;True;43;1;6.420398713109924
57;57;1449493149;2.14302062988;0.809647142887;0.06825060397390001;0;True;43;1;6.420398713109924
58;58;1449493149;2.14301347733;0.809650957584;0.06825147569180001;0;True;43;1;6.420398713109924
59;59;1449493149;2.14300680161;0.809632778168;0.0682397186756;0;True;43;1;6.420398713109924
60;60;1449493149;2.14301729202;0.809645175934;0.06824241578580001;0;True;43;1;6.420398713109924
61;61;1449493149;2.1430287361099998;0.809646070004;0.0682481974363;0;True;43;1;6.420398713109924
62;62;1449493149;2.14303803444;0.809658885002;0.0682737454772;0;True;43;1;6.420398713109924
63;63;1449493149;2.14303278923;0.809651196003;0.06825982779260001;0;True;43;1;6.420398713109924
64;64;1449493149;2.1430277824400004;0.8096609115600001;0.0682612136006;0;True;43;1;6.420398713109924
65;65;1449493149;2.1430406570400002;0.809657454491;0.0682672485709;0;True;43;1;6.420398713109924
66;66;1449493149;2.14301228523;0.8096448183059999;0.0682543888688;0;True;43;1;6.420398713109924
67;67;1449493149;2.1430175304400003;0.809640467167;0.0682440474629;0;True;43;1;6.420398713109924
68;68;1449493149;2.14302349091;0.8096488714219999;0.06826180219650001;0;True;43;1;6.420398713109924
69;69;1449493149;2.14302754402;0.809646487236;0.0682547315955;0;True;43;1;6.420398713109924
70;70;1449493149;2.14302515984;0.809656560421;0.0682528093457;0;True;43;1;6.420398713109924
71;71;1449493149;2.14302158356;0.809666097164;0.0682588070631;0;True;43;1;6.420398713109924
72;72;1449493149;2.1430218219799997;0.8096503019329999;0.0682499557734;0;True;43;1;6.420398713109924
73;73;1449493149;2.14300870895;0.8096354007719999;0.0682473182678;0;True;43;1;6.420398713109924
74;74;1449493149;2.1430311203;0.809658706188;0.0682628601789;0;True;43;1;6.420398713109924
75;75;1449493149;2.14302015305;0.8096615076070001;0.0682523474097;0;True;43;1;6.420398713109924
76;76;1449493149;2.14302825928;0.8096556067470001;0.0682521238923;0;True;43;1;6.420398713109924
77;77;1449493149;2.14302682877;0.8096638917919999;0.0682600215077;0;True;43;1;6.420398713109924
78;78;1449493149;2.14303851128;0.809664785862;0.0682622641325;0;True;43;1;6.420398713109924
79;79;1449493149;2.14303398132;0.809667944908;0.0682570263743;0;True;43;1;6.420398713109924
80;80;1449493149;2.14302062988;0.809655427933;0.0682559981942;0;True;43;1;6.420398713109924
81;81;1449493149;2.14303636551;0.809667170048;0.0682718977332;0;True;43;1;6.420398713109924
82;82;1449493149;2.14302396774;0.80966514349;0.0682639181614;0;True;43;1;6.420398713109924
83;83;1449493149;2.14302539825;0.8096606135369999;0.0682552233338;0;True;43;1;6.420398713109924
84;84;1449493149;2.14302134514;0.809655308723;0.0682544857264;0;True;43;1;6.420398713109924
85;85;1449493149;2.1430273056;0.8096549510959999;0.0682581663132;0;True;43;1;6.420398713109924
86;86;1449493149;2.1430163383500003;0.809657275677;0.0682408958673;0;True;43;1;6.420398713109924
87;87;1449493149;2.14302158356;0.8096646070479999;0.0682574436069;0;True;43;1;6.420398713109924
88;88;1449493149;2.1430237293200003;0.8096585273739999;0.0682534500957;0;True;43;1;6.420398713109924
89;89;1449493149;2.1430130004900003;0.809656560421;0.06825457513330001;0;True;43;1;6.420398713109924
90;90;1449493149;2.1430163383500003;0.809666991234;0.068252235651;0;True;43;1;6.420398713109924
91;91;1449493149;2.1430132389099996;0.809660792351;0.06825205683709999;0;True;43;1;6.420398713109924
92;92;1449493149;2.14301514626;0.8096549510959999;0.0682538151741;0;True;43;1;6.420398713109924
93;93;1449493149;2.14301371574;0.8096706867219999;0.0682604312897;0;True;43;1;6.420398713109924
94;94;1449493149;2.14300704002;0.809664845467;0.0682424083352;0;True;43;1;6.420398713109924
95;95;1449493149;2.14301133156;0.809643566608;0.0682405903935;0;True;43;1;6.420398713109924
96;96;1449493149;2.14301657677;0.809657812119;0.0682534947991;0;True;43;1;6.420398713109924
97;97;1449493149;2.1430132389099996;0.8096497058869999;0.0682503804564;0;True;43;1;6.420398713109924
98;98;1449493149;2.1430015564;0.809659540653;0.0682438611984;0;True;43;1;6.420398713109924
99;99;1449493149;2.14301133156;0.809658646584;0.0682488456368;0;True;43;1;6.420398713109924
100;100;1449493149;2.14300346375;0.80965423584;0.0682508349419;0;True;43;1;6.420398713109924
101;101;1449493149;2.14301252365;0.809655547142;0.0682687535882;0;True;43;1;6.420398713109924
102;102;1449493149;2.14301848412;0.80964243412;0.068240404129;0;True;43;1;6.420398713109924
103;103;1449493149;2.14298892021;0.8096598982809999;0.0682519450784;0;True;43;1;6.420398713109924
104;104;1449493149;2.14300990105;0.809648275375;0.068249322474;0;True;43;1;6.420398713109924
105;105;1449493149;2.1429991722099997;0.8096426129340001;0.068250797689;0;True;43;1;6.420398713109924
106;106;1449493149;2.14299511909;0.809657335281;0.0682488679886;0;True;43;1;6.420398713109924
107;107;1449493149;2.14300560951;0.809645056725;0.0682420432568;0;True;43;1;6.420398713109924
108;108;1449493149;2.1429879665400002;0.8096455931659999;0.0682437643409;0;True;43;1;6.420398713109924
109;109;1449493149;2.14300513268;0.809639036655;0.0682468041778;0;True;43;1;6.420398713109924
110;110;1449493149;2.14300465584;0.809652745724;0.06825244426730001;0;True;43;1;6.420398713109924
111;111;1449493149;2.1430079937;0.809647798538;0.0682528018951;0;True;43;1;6.420398713109924
112;112;1449493149;2.14298200607;0.8096380233759999;0.0682333409786;0;True;43;1;6.420398713109924
113;113;1449493149;2.14299440384;0.8096374869349999;0.0682489424944;0;True;43;1;6.420398713109924
114;114;1449493149;2.14301109314;0.809639155865;0.06824316829440001;0;True;43;1;6.420398713109924
115;115;1449493149;2.14301037788;0.80965167284;0.06825386732819999;0;True;43;1;6.420398713109924
116;116;1449493149;2.14300227165;0.809650063515;0.0682532116771;0;True;43;1;6.420398713109924
117;117;1449493149;2.14300084114;0.809643149376;0.0682505294681;0;True;43;1;6.420398713109924
118;118;1449493149;2.14299511909;0.809638440609;0.06825160980219999;0;True;43;1;6.420398713109924
119;119;1449493149;2.1430037021599997;0.809643089771;0.06824374943969999;0;True;43;1;6.420398713109924
120;120;1449493149;2.14301276207;0.8096448183059999;0.0682532787323;0;True;43;1;6.420398713109924
121;121;1449493149;2.14299893379;0.809638381004;0.06825983524319999;0;True;43;1;6.420398713109924
122;122;1449493149;2.14300680161;0.8096461892129999;0.06825827062130001;0;True;43;1;6.420398713109924
123;123;1449493149;2.14301609993;0.809643566608;0.06825165450569999;0;True;43;1;6.420398713109924
124;124;1449493149;2.1430130004900003;0.809646904469;0.0682584568858;0;True;43;1;6.420398713109924
125;125;1449493149;2.1430077552799998;0.809647262096;0.0682459026575;0;True;43;1;6.420398713109924
126;126;1449493149;2.14300346375;0.809643030167;0.06824964284900001;0;True;43;1;6.420398713109924
127;127;1449493149;2.14302206039;0.809655189514;0.06827006489040001;0;True;43;1;6.420398713109924
128;128;1449493149;2.14300966263;0.809659540653;0.0682659298182;0;True;43;1;6.420398713109924
129;129;1449493149;2.14300012589;0.809652745724;0.0682562142611;0;True;43;1;6.420398713109924
130;130;1449493149;2.14301085472;0.809654176235;0.0682621970773;0;True;43;1;6.420398713109924
131;131;1449493149;2.14300560951;0.80964833498;0.0682687535882;0;True;43;1;6.420398713109924
132;132;1449493149;2.14302897453;0.809645175934;0.0682555139065;0;True;43;1;6.420398713109924
133;133;1449493149;2.14301276207;0.809659183025;0.0682637542486;0;True;43;1;6.420398713109924
134;134;1449493149;2.1430072784400003;0.809640824795;0.0682522207499;0;True;43;1;6.420398713109924
135;135;1449493149;2.1430094242099997;0.809643745422;0.0682588815689;0;True;43;1;6.420398713109924
136;136;1449493149;2.1430003643;0.809638142586;0.068259447813;0;True;43;1;6.420398713109924
137;137;1449493149;2.14301538467;0.80963242054;0.0682589188218;0;True;43;1;6.420398713109924
138;138;1449493149;2.1430091857900004;0.809642314911;0.06825125217439999;0;True;43;1;6.420398713109924
139;139;1449493149;2.14302062988;0.8096401095389999;0.0682564228773;0;True;43;1;6.420398713109924
140;140;1449493149;2.1430091857900004;0.809647977352;0.0682526826859;0;True;43;1;6.420398713109924
141;141;1449493149;2.1430208683000003;0.8096473217010001;0.0682569667697;0;True;43;1;6.420398713109924
142;142;1449493149;2.14300966263;0.809648215771;0.06826113164419999;0;True;43;1;6.420398713109924
143;143;1449493149;2.1430037021599997;0.809641063213;0.068255469203;0;True;43;1;6.420398713109924
144;144;1449493149;2.14300465584;0.809641778469;0.06825237721199999;0;True;43;1;6.420398713109924
145;145;1449493149;2.1430175304400003;0.8096495270730001;0.0682623907924;0;True;43;1;6.420398713109924
146;146;1449493149;2.14300704002;0.809645950794;0.06825715303419999;0;True;43;1;6.420398713109924
147;147;1449493149;2.14300990105;0.8096454143520001;0.068266004324;0;True;43;1;6.420398713109924
148;148;1449493149;2.1430118084;0.8096505999570001;0.06826449930669999;0;True;43;1;6.420398713109924
149;149;1449493149;2.14301371574;0.809643685818;0.0682515129447;0;True;43;1;6.420398713109924
150;150;1449493149;2.14300823212;0.809637069702;0.06824231147769999;0;True;43;1;6.420398713109924
151;151;1449493149;2.14299893379;0.809638261795;0.0682398155332;0;True;43;1;6.420398713109924
152;152;1449493149;2.1430139541599997;0.809639632702;0.06824533641340001;0;True;43;1;6.420398713109924
153;153;1449493149;2.1430015564;0.809631049633;0.0682410299778;0;True;43;1;6.420398713109924
154;154;1449493149;2.14301514626;0.809637248516;0.0682498142123;0;True;43;1;6.420398713109924
155;155;1449493149;2.1429946422599997;0.809634566307;0.068228751421;0;True;43;1;6.420398713109924
156;156;1449493149;2.14299941063;0.8096243739129999;0.0682401359081;0;True;43;1;6.420398713109924
157;157;1449493149;2.1430089473700003;0.809640049934;0.0682380720973;0;True;43;1;6.420398713109924
158;158;1449493149;2.14300632477;0.8096271157260001;0.06822888553140001;0;True;43;1;6.420398713109924
159;159;1449493149;2.14300084114;0.809631466866;0.0682381093502;0;True;43;1;6.420398713109924
160;160;1449493149;2.14300870895;0.809651970863;0.0682527348399;0;True;43;1;6.420398713109924
161;161;1449493149;2.1430032253299998;0.809632837772;0.0682370439172;0;True;43;1;6.420398713109924
162;162;1449493149;2.14300346375;0.809637784958;0.0682449191809;0;True;43;1;6.420398713109924
163;163;1449493149;2.14300489426;0.809636831284;0.06822951138019999;0;True;43;1;6.420398713109924
164;164;1449493149;2.14299821854;0.8096362948420001;0.0682320743799;0;True;43;1;6.420398713109924
165;165;1449493149;2.14300656319;0.809630632401;0.06823502480980001;0;True;43;1;6.420398713109924
166;166;1449493149;2.14300298691;0.8096325993539999;0.0682381540537;0;True;43;1;6.420398713109924
167;167;1449493149;2.143004179;0.809638261795;0.0682371109724;0;True;43;1;6.420398713109924
168;168;1449493149;2.1430130004900003;0.809643745422;0.0682498216629;0;True;43;1;6.420398713109924
169;169;1449493149;2.14301013947;0.809635043144;0.0682463571429;0;True;43;1;6.420398713109924
170;170;1449493149;2.14300513268;0.809639036655;0.0682392269373;0;True;43;1;6.420398713109924
171;171;1449493149;2.14301085472;0.809645175934;0.06823838502169999;0;True;43;1;6.420398713109924
172;172;1449493149;2.14300179482;0.809634029865;0.0682354047894;0;True;43;1;6.420398713109924
173;173;1449493149;2.1430013179799996;0.80964076519;0.06823683530090001;0;True;43;1;6.420398713109924
174;174;1449493149;2.1430027484900003;0.809632122517;0.0682327449322;0;True;43;1;6.420398713109924
175;175;1449493149;2.14299941063;0.809634149075;0.0682357624173;0;True;43;1;6.420398713109924
176;176;1449493149;2.1430044174200003;0.8096407055850001;0.06824106723069999;0;True;43;1;6.420398713109924
177;177;1449493149;2.143004179;0.809641838074;0.0682469010353;0;True;43;1;6.420398713109924
178;178;1449493149;2.14299535751;0.8096366524699999;0.06823506951330001;0;True;43;1;6.420398713109924
179;179;1449493149;2.1430044174200003;0.809636473656;0.0682510137558;0;True;43;1;6.420398713109924
180;180;1449493149;2.1429913044;0.809643447399;0.0682411566377;0;True;43;1;6.420398713109924
181;181;1449493149;2.1430037021599997;0.8096401691439999;0.068252235651;0;True;43;1;6.420398713109924
182;182;1449493149;2.14298701286;0.8096382021899999;0.0682308897376;0;True;43;1;6.420398713109924
183;183;1449493149;2.14299535751;0.809636831284;0.06823066622019999;0;True;43;1;6.420398713109924
184;184;1449493149;2.1430020332299997;0.809645056725;0.0682445168495;0;True;43;1;6.420398713109924
185;185;1449493149;2.14300704002;0.809646546841;0.0682336911559;0;True;43;1;6.420398713109924
186;186;1449493149;2.1430006027200004;0.809628844261;0.0682246536016;0;True;43;1;6.420398713109924
187;187;1449493149;2.1430106163;0.8096414208409999;0.0682358667254;0;True;43;1;6.420398713109924
188;188;1449493149;2.14300227165;0.809651732445;0.0682428851724;0;True;43;1;6.420398713109924
189;189;1449493149;2.1430163383500003;0.809647977352;0.06824956834319999;0;True;43;1;6.420398713109924
190;190;1449493149;2.1429977417;0.809655547142;0.0682374760509;0;True;43;1;6.420398713109924
191;191;1449493149;2.1430027484900003;0.80964243412;0.06824543327089999;0;True;43;1;6.420398713109924
192;192;1449493149;2.14301156998;0.809648633003;0.0682438462973;0;True;43;1;6.420398713109924
193;193;1449493149;2.1429975032799997;0.80964076519;0.0682373121381;0;True;43;1;6.420398713109924
194;194;1449493149;2.1429970264400002;0.8096488714219999;0.06824740022419999;0;True;43;1;6.420398713109924
195;195;1449493149;2.14301156998;0.809646248817;0.0682498961687;0;True;43;1;6.420398713109924
196;196;1449493149;2.1430032253299998;0.8096483945849999;0.0682550668716;0;True;43;1;6.420398713109924
197;197;1449493149;2.14299058914;0.809643387794;0.0682388320565;0;True;43;1;6.420398713109924
198;198;1449493149;2.14299654961;0.809642970562;0.0682386532426;0;True;43;1;6.420398713109924
199;199;1449493149;2.14299321175;0.8096398115160001;0.0682425796986;0;True;43;1;6.420398713109924
200;200;1449493149;2.14300513268;0.8096597194670001;0.06825870275500001;0;True;43;1;6.420398713109924
201;201;1449493149;2.14300632477;0.809655964375;0.0682476833463;0;True;43;1;6.420398713109924
202;202;1449493149;2.14300394058;0.809655547142;0.06824319064619999;0;True;43;1;6.420398713109924
203;203;1449493149;2.14299869537;0.809648156166;0.06823349744080001;0;True;43;1;6.420398713109924
204;204;1449493149;2.14299869537;0.809643745422;0.0682384222746;0;True;43;1;6.420398713109924
205;205;1449493149;2.1429946422599997;0.8096414208409999;0.0682389289141;0;True;43;1;6.420398713109924
206;206;1449493149;2.14300298691;0.809642255306;0.0682524964213;0;True;43;1;6.420398713109924
207;207;1449493149;2.14301228523;0.809650063515;0.06825693696740001;0;True;43;1;6.420398713109924
208;208;1449493149;2.14300680161;0.809646785259;0.0682481378317;0;True;43;1;6.420398713109924
209;209;1449493149;2.1430079937;0.809654057026;0.0682425200939;0;True;43;1;6.420398713109924
210;210;1449493149;2.1430091857900004;0.8096491098399999;0.0682423785329;0;True;43;1;6.420398713109924
211;211;1449493149;2.1430132389099996;0.809660255909;0.0682527646422;0;True;43;1;6.420398713109924
212;212;1449493149;2.14300560951;0.809656620026;0.0682597234845;0;True;43;1;6.420398713109924
213;213;1449493150;2.14301252365;0.8096631169320001;0.0682602822781;1;True;43;1;6.420398713109924
214;214;1449493150;2.1430072784400003;0.809638857841;0.0682535022497;1;True;43;1;6.420398713109924
215;215;1449493150;2.1430077552799998;0.8096467256550001;0.0682500973344;1;True;43;1;6.420398713109924
216;216;1449493150;2.1430106163;0.809655308723;0.0682533159852;1;True;43;1;6.420398713109924
217;217;1449493150;2.14302515984;0.809661090374;0.06826324760909999;1;True;43;1;6.420398713109924
218;218;1449493150;2.14300012589;0.809655964375;0.06825289875269999;1;True;43;1;6.420398713109924
219;219;1449493150;2.14301204681;0.8096576333050001;0.0682553648949;1;True;43;1;6.420398713109924
220;220;1449493150;2.1430132389099996;0.809659481049;0.0682561844587;1;True;43;1;6.420398713109924
221;221;1449493150;2.14301729202;0.809646070004;0.0682566687465;1;True;43;1;6.420398713109924
222;222;1449493150;2.1430208683000003;0.809654295444;0.06825530529019999;1;True;43;1;6.420398713109924
223;223;1449493150;2.1429975032799997;0.809652447701;0.0682418197393;1;True;43;1;6.420398713109924
224;224;1449493150;2.14301037788;0.809652626514;0.0682442039251;1;True;43;1;6.420398713109924
225;225;1449493150;2.143024683;0.8096590638160001;0.0682697668672;1;True;43;1;6.420398713109924
226;226;1449493150;2.14300966263;0.809656977654;0.0682497024536;1;True;43;1;6.420398713109924
227;227;1449493150;2.14301562309;0.80963742733;0.0682407170534;1;True;43;1;6.420398713109924
228;228;1449493150;2.1430139541599997;0.809637367725;0.0682446137071;1;True;43;1;6.420398713109924
229;229;1449493150;2.14302515984;0.8096583485600001;0.0682588219643;1;True;43;1;6.420398713109924
230;230;1449493150;2.14300680161;0.809642255306;0.0682407915592;1;True;43;1;6.420398713109924
231;231;1449493150;2.14301538467;0.809638381004;0.0682439953089;1;True;43;1;6.420398713109924
232;232;1449493150;2.14300179482;0.809647023678;0.0682425424457;1;True;43;1;6.420398713109924
233;233;1449493150;2.14301252365;0.8096427321430001;0.0682477727532;1;True;43;1;6.420398713109924
234;234;1449493150;2.14302062988;0.80965256691;0.06824935227630001;1;True;43;1;6.420398713109924
235;235;1449493150;2.1430084705400003;0.809649467468;0.0682393535972;1;True;43;1;6.420398713109924
236;236;1449493150;2.14300394058;0.80964833498;0.0682462751865;1;True;43;1;6.420398713109924
237;237;1449493150;2.1430079937;0.8096522688869999;0.06825184822080001;1;True;43;1;6.420398713109924
238;238;1449493150;2.1430044174200003;0.809642672539;0.0682442337275;1;True;43;1;6.420398713109924
239;239;1449493150;2.14300489426;0.809641897678;0.0682520419359;1;True;43;1;6.420398713109924
240;240;1449493150;2.1429977417;0.8096467256550001;0.06823434680700001;1;True;43;1;6.420398713109924
241;241;1449493150;2.1430094242099997;0.809642314911;0.0682406052947;1;True;43;1;6.420398713109924
242;242;1449493150;2.14300346375;0.8096458911900001;0.06824290007349999;1;True;43;1;6.420398713109924
243;243;1449493150;2.14299821854;0.8096463084219999;0.0682403817773;1;True;43;1;6.420398713109924
244;244;1449493150;2.1430079937;0.809651136398;0.06824009865519999;1;True;43;1;6.420398713109924
245;245;1449493150;2.14300632477;0.809639275074;0.0682362541556;1;True;43;1;6.420398713109924
246;246;1449493150;2.14301562309;0.809661865234;0.0682491585612;1;True;43;1;6.420398713109924
247;247;1449493150;2.14301037788;0.809651136398;0.0682467371225;1;True;43;1;6.420398713109924
248;248;1449493150;2.14300489426;0.809654057026;0.0682412907481;1;True;43;1;6.420398713109924
249;249;1449493150;2.14300751686;0.809657156467;0.06825266033409999;1;True;43;1;6.420398713109924
250;250;1449493150;2.1430032253299998;0.8096516132350001;0.06824054569009999;1;True;43;1;6.420398713109924
251;251;1449493150;2.1430077552799998;0.8096601367;0.06825140863660001;1;True;43;1;6.420398713109924
252;252;1449493150;2.14300346375;0.809643864632;0.0682326108217;1;True;43;1;6.420398713109924
253;253;1449493150;2.14301466942;0.8096488118170001;0.0682553201914;1;True;43;1;6.420398713109924
254;254;1449493150;2.14301371574;0.8096619248389999;0.0682536885142;1;True;43;1;6.420398713109924
255;255;1449493150;2.14299964905;0.809637784958;0.0682301670313;1;True;43;1;6.420398713109924
256;256;1449493150;2.14299631119;0.8096520900730001;0.0682405382395;1;True;43;1;6.420398713109924
257;257;1449493150;2.14302420616;0.809648215771;0.0682512670755;1;True;43;1;6.420398713109924
258;258;1449493150;2.14301347733;0.809643268585;0.0682352781296;1;True;43;1;6.420398713109924
259;259;1449493150;2.14301490784;0.809640467167;0.06824054569009999;1;True;43;1;6.420398713109924
260;260;1449493150;2.14301657677;0.8096415996549999;0.0682412832975;1;True;43;1;6.420398713109924
261;261;1449493150;2.143004179;0.8096292018889999;0.06823775917290001;1;True;43;1;6.420398713109924
262;262;1449493150;2.14301943779;0.8096333146100001;0.0682384222746;1;True;43;1;6.420398713109924
263;263;1449493150;2.1430163383500003;0.809630095959;0.06823832541699999;1;True;43;1;6.420398713109924
264;264;1449493150;2.14300704002;0.809622645378;0.0682337582111;1;True;43;1;6.420398713109924
265;265;1449493150;2.14301609993;0.8096256256100001;0.0682384893298;1;True;43;1;6.420398713109924
266;266;1449493150;2.14302301407;0.8096380829809999;0.06824319064619999;1;True;43;1;6.420398713109924
267;267;1449493150;2.14302253723;0.8096359968189999;0.06824570149180001;1;True;43;1;6.420398713109924
268;268;1449493150;2.14302515984;0.809632778168;0.0682362392545;1;True;43;1;6.420398713109924
269;269;1449493150;2.14301156998;0.809636473656;0.06823415309190001;1;True;43;1;6.420398713109924
270;270;1449493150;2.14300560951;0.809628009796;0.06822781264779999;1;True;43;1;6.420398713109924
271;271;1449493150;2.14300680161;0.809632241726;0.0682351738214;1;True;43;1;6.420398713109924
272;272;1449493150;2.1430208683000003;0.809631168842;0.0682294294238;1;True;43;1;6.420398713109924
273;273;1449493150;2.14301848412;0.809634268284;0.06823320686819999;1;True;43;1;6.420398713109924
274;274;1449493150;2.1430139541599997;0.809637725353;0.0682423263788;1;True;43;1;6.420398713109924
275;275;1449493150;2.1430106163;0.809633672237;0.0682246312499;1;True;43;1;6.420398713109924
276;276;1449493150;2.143014431;0.809632778168;0.0682237744331;1;True;43;1;6.420398713109924
277;277;1449493150;2.14300537109;0.809646606445;0.06822689622639999;1;True;43;1;6.420398713109924
278;278;1449493150;2.14300251007;0.8096339106559999;0.06820738315580001;1;True;43;1;6.420398713109924
279;279;1449493150;2.14299488068;0.8096474409100001;0.06822700798510001;1;True;43;1;6.420398713109924
280;280;1449493150;2.1430089473700003;0.809635877609;0.0682277828455;1;True;43;1;6.420398713109924
281;281;1449493150;2.14301466942;0.809643685818;0.0682330057025;1;True;43;1;6.420398713109924
282;282;1449493150;2.14299297333;0.809641122818;0.0682199075818;1;True;43;1;6.420398713109924
283;283;1449493150;2.14300632477;0.809640526772;0.06822347640990001;1;True;43;1;6.420398713109924
284;284;1449493150;2.14299821854;0.809640824795;0.0682173147798;1;True;43;1;6.420398713109924
285;285;1449493150;2.1430037021599997;0.809645056725;0.06823082268240001;1;True;43;1;6.420398713109924
286;286;1449493150;2.14300870895;0.809639334679;0.06823359429840001;1;True;43;1;6.420398713109924
287;287;1449493150;2.14299607277;0.809643566608;0.0682293698192;1;True;43;1;6.420398713109924
288;288;1449493150;2.14300394058;0.809649288654;0.06823723763230001;1;True;43;1;6.420398713109924
289;289;1449493150;2.14299201965;0.8096380233759999;0.0682195276022;1;True;43;1;6.420398713109924
290;290;1449493150;2.1430072784400003;0.809646964073;0.0682231113315;1;True;43;1;6.420398713109924
291;291;1449493150;2.14299893379;0.809643030167;0.068215623498;1;True;43;1;6.420398713109924
292;292;1449493150;2.14300704002;0.8096417188639999;0.0682223960757;1;True;43;1;6.420398713109924
293;293;1449493150;2.14300489426;0.809639632702;0.0682202577591;1;True;43;1;6.420398713109924
294;294;1449493150;2.1430003643;0.809644520283;0.0682186707854;1;True;43;1;6.420398713109924
295;295;1449493150;2.14300966263;0.8096439242360001;0.0682328119874;1;True;43;1;6.420398713109924
296;296;1449493150;2.14300584793;0.809643626213;0.0682301223278;1;True;43;1;6.420398713109924
297;297;1449493150;2.143004179;0.8096508979800001;0.068222425878;1;True;43;1;6.420398713109924
298;298;1449493150;2.14300465584;0.809640645981;0.068228520453;1;True;43;1;6.420398713109924
299;299;1449493150;2.14301538467;0.8096547126770001;0.06824142485859999;1;True;43;1;6.420398713109924
300;300;1449493150;2.1430094242099997;0.809654176235;0.0682354867458;1;True;43;1;6.420398713109924
301;301;1449493150;2.14301896095;0.809658288956;0.0682427585125;1;True;43;1;6.420398713109924
302;302;1449493150;2.14300870895;0.809655427933;0.068232640624;1;True;43;1;6.420398713109924
303;303;1449493150;2.1430037021599997;0.809645831585;0.0682382583618;1;True;43;1;6.420398713109924
304;304;1449493150;2.1430132389099996;0.809654057026;0.0682327449322;1;True;43;1;6.420398713109924
305;305;1449493150;2.14300990105;0.809658765793;0.0682312175632;1;True;43;1;6.420398713109924
306;306;1449493150;2.14300751686;0.809658706188;0.06823587417600001;1;True;43;1;6.420398713109924
307;307;1449493150;2.14301109314;0.809656560421;0.06823359429840001;1;True;43;1;6.420398713109924
308;308;1449493150;2.1430182457;0.809655189514;0.0682392567396;1;True;43;1;6.420398713109924
309;309;1449493150;2.14301538467;0.809654176235;0.0682282447815;1;True;43;1;6.420398713109924
310;310;1449493150;2.14301943779;0.809652030468;0.0682354718447;1;True;43;1;6.420398713109924
311;311;1449493150;2.14300584793;0.809658288956;0.0682348608971;1;True;43;1;6.420398713109924
312;312;1449493150;2.1430072784400003;0.8096447587010001;0.0682276412845;1;True;43;1;6.420398713109924
313;313;1449493150;2.1430089473700003;0.809658586979;0.0682327821851;1;True;43;1;6.420398713109924
314;314;1449493150;2.14301109314;0.809647858143;0.0682380720973;1;True;43;1;6.420398713109924
315;315;1449493150;2.1430003643;0.809637248516;0.0682208836079;1;True;43;1;6.420398713109924
316;316;1449493150;2.1430089473700003;0.80963486433;0.06822564452890001;1;True;43;1;6.420398713109924
317;317;1449493150;2.14299941063;0.8096367120739999;0.0682267472148;1;True;43;1;6.420398713109924
318;318;1449493150;2.1430277824400004;0.8096463084219999;0.06823688000440001;1;True;43;1;6.420398713109924
319;319;1449493150;2.14300751686;0.809644043446;0.06823262572290001;1;True;43;1;6.420398713109924
320;320;1449493150;2.14299201965;0.8096320033069999;0.06822450459;1;True;43;1;6.420398713109924
321;321;1449493150;2.14300870895;0.809635519981;0.0682367011905;1;True;43;1;6.420398713109924
322;322;1449493150;2.14299225807;0.809615910053;0.068220205605;1;True;43;1;6.420398713109924
323;323;1449493150;2.14300489426;0.8096269965170001;0.0682303085923;1;True;43;1;6.420398713109924
324;324;1449493150;2.14299273491;0.8096168041230001;0.0682159811258;1;True;43;1;6.420398713109924
325;325;1449493150;2.14300346375;0.809623539448;0.0682287216187;1;True;43;1;6.420398713109924
326;326;1449493150;2.14300513268;0.8096196055410001;0.0682268366218;1;True;43;1;6.420398713109924
327;327;1449493150;2.1430037021599997;0.809626877308;0.06823315471409999;1;True;43;1;6.420398713109924
328;328;1449493150;2.14298915863;0.809628725052;0.0682251304388;1;True;43;1;6.420398713109924
329;329;1449493150;2.14300823212;0.8096216320990001;0.0682253465056;1;True;43;1;6.420398713109924
330;330;1449493150;2.14301085472;0.809619128704;0.0682255551219;1;True;43;1;6.420398713109924
331;331;1449493150;2.14301514626;0.80963987112;0.0682375952601;1;True;43;1;6.420398713109924
332;332;1449493150;2.14300751686;0.809625148773;0.0682216659188;1;True;43;1;6.420398713109924
333;333;1449493150;2.14302015305;0.809636175632;0.06823349744080001;1;True;43;1;6.420398713109924
334;334;1449493150;2.14301538467;0.8096349835400001;0.0682382211089;1;True;43;1;6.420398713109924
335;335;1449493150;2.142993927;0.8096379041670001;0.0682354941964;1;True;43;1;6.420398713109924
336;336;1449493150;2.14300489426;0.809636950493;0.0682348161936;1;True;43;1;6.420398713109924
337;337;1449493150;2.1430094242099997;0.8096441030500001;0.06822857260700001;1;True;43;1;6.420398713109924
338;338;1449493150;2.14300346375;0.809637606144;0.0682350546122;1;True;43;1;6.420398713109924
339;339;1449493150;2.14301204681;0.809637010098;0.06823708862069999;1;True;43;1;6.420398713109924
340;340;1449493150;2.143014431;0.8096349835400001;0.0682355239987;1;True;43;1;6.420398713109924
341;341;1449493150;2.1430130004900003;0.809641897678;0.0682440921664;1;True;43;1;6.420398713109924
342;342;1449493150;2.14301657677;0.809634745121;0.0682406872511;1;True;43;1;6.420398713109924
343;343;1449493150;2.14301514626;0.8096393942829999;0.0682442635298;1;True;43;1;6.420398713109924
344;344;1449493150;2.14301848412;0.809626817703;0.0682300329208;1;True;43;1;6.420398713109924
345;345;1449493150;2.14300990105;0.809645056725;0.0682512447238;1;True;43;1;6.420398713109924
346;346;1449493150;2.14301013947;0.809625566006;0.0682353898883;1;True;43;1;6.420398713109924
347;347;1449493150;2.14300394058;0.809639453888;0.0682445466518;1;True;43;1;6.420398713109924
348;348;1449493150;2.1430118084;0.809633433819;0.06824391335249999;1;True;43;1;6.420398713109924
349;349;1449493150;2.14301156998;0.8096230626109999;0.06822912395;1;True;43;1;6.420398713109924
350;350;1449493150;2.143004179;0.8096305727959999;0.0682348683476;1;True;43;1;6.420398713109924
351;351;1449493150;2.14302611351;0.8096382021899999;0.0682317316532;1;True;43;1;6.420398713109924
352;352;1449493150;2.1430106163;0.8096311092380001;0.068225748837;1;True;43;1;6.420398713109924
353;353;1449493150;2.14301586151;0.809637188911;0.0682359710336;1;True;43;1;6.420398713109924
354;354;1449493150;2.14302754402;0.8096454739569999;0.0682378783822;1;True;43;1;6.420398713109924
355;355;1449493150;2.14301538467;0.809633672237;0.0682348310947;1;True;43;1;6.420398713109924
356;356;1449493150;2.14301657677;0.8096284270290001;0.0682354047894;1;True;43;1;6.420398713109924
357;357;1449493150;2.14304161072;0.809645116329;0.068240121007;1;True;43;1;6.420398713109924
358;358;1449493150;2.14302325249;0.8096382021899999;0.0682412162423;1;True;43;1;6.420398713109924
359;359;1449493150;2.14302015305;0.809635877609;0.0682338699698;1;True;43;1;6.420398713109924
360;360;1449493150;2.14302158356;0.8096287846570001;0.0682396814227;1;True;43;1;6.420398713109924
361;361;1449493150;2.14300751686;0.809635162354;0.06823779642580001;1;True;43;1;6.420398713109924
362;362;1449493150;2.1430237293200003;0.809622228146;0.0682293847203;1;True;43;1;6.420398713109924
363;363;1449493150;2.14301204681;0.80962818861;0.0682233944535;1;True;43;1;6.420398713109924
364;364;1449493150;2.1430263519299997;0.809630095959;0.068232215941;1;True;43;1;6.420398713109924
365;365;1449493150;2.1430094242099997;0.809634923935;0.06823146343230001;1;True;43;1;6.420398713109924
366;366;1449493150;2.14302062988;0.809640407562;0.0682332217693;1;True;43;1;6.420398713109924
367;367;1449493150;2.14302253723;0.809643149376;0.0682405382395;1;True;43;1;6.420398713109924
368;368;1449493150;2.14300560951;0.8096277117730001;0.068229265511;1;True;43;1;6.420398713109924
369;369;1449493150;2.14301252365;0.8096231818199999;0.0682222768664;1;True;43;1;6.420398713109924
370;370;1449493150;2.14301419258;0.809633851051;0.0682282820344;1;True;43;1;6.420398713109924
371;371;1449493150;2.14300656319;0.8096224069600001;0.0682254880667;1;True;43;1;6.420398713109924
372;372;1449493150;2.14301085472;0.809626698494;0.0682219564915;1;True;43;1;6.420398713109924
373;373;1449493150;2.1430044174200003;0.809629619122;0.0682194456458;1;True;43;1;6.420398713109924
374;374;1449493150;2.1430072784400003;0.8096380233759999;0.068235732615;1;True;43;1;6.420398713109924
375;375;1449493150;2.1430089473700003;0.8096354007719999;0.06822194159030001;1;True;43;1;6.420398713109924
376;376;1449493150;2.14299869537;0.809635698795;0.0682260468602;1;True;43;1;6.420398713109924
377;377;1449493150;2.14301872253;0.8096258044239999;0.06821885704990001;1;True;43;1;6.420398713109924
378;378;1449493150;2.14300560951;0.809634745121;0.0682274699211;1;True;43;1;6.420398713109924
379;379;1449493150;2.14300251007;0.8096398115160001;0.0682232603431;1;True;43;1;6.420398713109924
380;380;1449493150;2.1430037021599997;0.809624969959;0.0682192891836;1;True;43;1;6.420398713109924
381;381;1449493150;2.14299941063;0.8096292018889999;0.0682212859392;1;True;43;1;6.420398713109924
382;382;1449493150;2.1429975032799997;0.809633672237;0.0682220757008;1;True;43;1;6.420398713109924
383;383;1449493150;2.1429998874700003;0.80964076519;0.0682259052992;1;True;43;1;6.420398713109924
384;384;1449493150;2.14300751686;0.809648513794;0.0682243779302;1;True;43;1;6.420398713109924
385;385;1449493150;2.14300966263;0.809640944004;0.06822734326119999;1;True;43;1;6.420398713109924
386;386;1449493150;2.14300870895;0.8096325397490001;0.0682120844722;1;True;43;1;6.420398713109924
387;387;1449493150;2.1429972648599995;0.809624433517;0.0682072043419;1;True;43;1;6.420398713109924
388;388;1449493150;2.1430139541599997;0.809640884399;0.0682296380401;1;True;43;1;6.420398713109924
389;389;1449493150;2.14299511909;0.809630215168;0.0682083517313;1;True;43;1;6.420398713109924
390;390;1449493150;2.1429934501599996;0.809633076191;0.0682113021612;1;True;43;1;6.420398713109924
391;391;1449493150;2.1430027484900003;0.809623360634;0.0682053267956;1;True;43;1;6.420398713109924
392;392;1449493150;2.14299821854;0.8096421957019999;0.0682191923261;1;True;43;1;6.420398713109924
393;393;1449493150;2.14300012589;0.809633374214;0.0682205632329;1;True;43;1;6.420398713109924
394;394;1449493150;2.14299941063;0.8096332550049999;0.0682114064693;1;True;43;1;6.420398713109924
395;395;1449493150;2.14300107956;0.8096317052840001;0.0682188943028;1;True;43;1;6.420398713109924
396;396;1449493150;2.14300823212;0.8096393942829999;0.0682217478752;1;True;43;1;6.420398713109924
397;397;1449493150;2.14300179482;0.809627056122;0.0682156458497;1;True;43;1;6.420398713109924
398;398;1449493150;2.14299488068;0.8096246123309999;0.0682149752975;1;True;43;1;6.420398713109924
399;399;1449493150;2.14299845695;0.809635043144;0.0682176500559;1;True;43;1;6.420398713109924
400;400;1449493150;2.14299511909;0.8096303939820001;0.0682153701782;1;True;43;1;6.420398713109924
401;401;1449493150;2.1430072784400003;0.809630990028;0.0682106912136;1;True;43;1;6.420398713109924
402;402;1449493150;2.1430044174200003;0.8096331954000001;0.06821363419290001;1;True;43;1;6.420398713109924
403;403;1449493150;2.14299654961;0.809633672237;0.0682171657681;1;True;43;1;6.420398713109924
404;404;1449493150;2.1430013179799996;0.809638261795;0.0682220906019;1;True;43;1;6.420398713109924
405;405;1449493150;2.14300870895;0.80963486433;0.0682310461998;1;True;43;1;6.420398713109924
406;406;1449493150;2.1430072784400003;0.809636235237;0.0682258605957;1;True;43;1;6.420398713109924
407;407;1449493150;2.1430072784400003;0.8096275925640001;0.06822716444730001;1;True;43;1;6.420398713109924
408;408;1449493150;2.1429977417;0.809630870819;0.0682234317064;1;True;43;1;6.420398713109924
409;409;1449493150;2.14300823212;0.8096426129340001;0.0682317614555;1;True;43;1;6.420398713109924
410;410;1449493150;2.14300012589;0.809634268284;0.0682194754481;1;True;43;1;6.420398713109924
411;411;1449493150;2.14301204681;0.809639155865;0.0682297050953;1;True;43;1;6.420398713109924
412;412;1449493150;2.14300966263;0.8096393942829999;0.0682262629271;1;True;43;1;6.420398713109924
413;413;1449493150;2.1430139541599997;0.809634745121;0.0682333186269;1;True;43;1;6.420398713109924
414;414;1449493150;2.14300870895;0.809637129307;0.0682253912091;1;True;43;1;6.420398713109924
415;415;1449493150;2.14299607277;0.809635341167;0.0682187452912;1;True;43;1;6.420398713109924
416;416;1449493150;2.1429946422599997;0.8096332550049999;0.068226069212;1;True;43;1;6.420398713109924
417;417;1449493150;2.1429924964900002;0.8096292614939999;0.0682173222303;1;True;43;1;6.420398713109924
418;418;1449493150;2.14301848412;0.8096576333050001;0.06825289875269999;1;True;43;1;6.420398713109924
419;419;1449493150;2.14298915863;0.809631466866;0.0682214125991;1;True;43;1;6.420398713109924
420;420;1449493150;2.14299178123;0.809629321098;0.068226352334;1;True;43;1;6.420398713109924
421;421;1449493150;2.1429901122999997;0.809637308121;0.068236194551;1;True;43;1;6.420398713109924
422;422;1449493150;2.1430072784400003;0.809644937515;0.0682357177138;1;True;43;1;6.420398713109924
423;423;1449493150;2.1429874897;0.809634268284;0.0682275518775;1;True;43;1;6.420398713109924
424;424;1449493150;2.14298963547;0.809637665749;0.0682304650545;1;True;43;1;6.420398713109924
425;425;1449493150;2.1429977417;0.8096337914470001;0.0682299733162;1;True;43;1;6.420398713109924
426;426;1449493150;2.14298939705;0.8096460103990001;0.0682301670313;1;True;43;1;6.420398713109924
427;427;1449493150;2.1429972648599995;0.809640944004;0.0682169273496;1;True;43;1;6.420398713109924
428;428;1449493150;2.1430020332299997;0.8096508383750001;0.0682380497456;1;True;43;1;6.420398713109924
429;429;1449493150;2.1429874897;0.809643626213;0.0682295635343;1;True;43;1;6.420398713109924
430;430;1449493150;2.14299893379;0.809638917446;0.06822888553140001;1;True;43;1;6.420398713109924
431;431;1449493150;2.14299654961;0.809635519981;0.068231061101;1;True;43;1;6.420398713109924
432;432;1449493150;2.1429972648599995;0.809640467167;0.0682399049401;1;True;43;1;6.420398713109924
433;433;1449493150;2.14300513268;0.8096374869349999;0.0682390406728;1;True;43;1;6.420398713109924
434;434;1449493150;2.1430089473700003;0.809640526772;0.0682304427028;1;True;43;1;6.420398713109924
435;435;1449493150;2.1430013179799996;0.809641957283;0.06824242323640001;1;True;43;1;6.420398713109924
436;436;1449493150;2.14300084114;0.809644520283;0.0682383552194;1;True;43;1;6.420398713109924
437;437;1449493150;2.14301156998;0.8096467256550001;0.06823584437369999;1;True;43;1;6.420398713109924
438;438;1449493150;2.14301252365;0.809648573399;0.06823320686819999;1;True;43;1;6.420398713109924
439;439;1449493150;2.14300704002;0.809638440609;0.0682438164949;1;True;43;1;6.420398713109924
440;440;1449493150;2.14300704002;0.809635043144;0.0682346075773;1;True;43;1;6.420398713109924
441;441;1449493150;2.14300513268;0.809640586376;0.0682295262814;1;True;43;1;6.420398713109924
442;442;1449493150;2.1429941654199998;0.8096399307250001;0.0682326629758;1;True;43;1;6.420398713109924
443;443;1449493150;2.1430037021599997;0.809645950794;0.0682326629758;1;True;43;1;6.420398713109924
444;444;1449493150;2.14299893379;0.809642136097;0.06823688000440001;1;True;43;1;6.420398713109924
445;445;1449493150;2.14300632477;0.809644639492;0.06822472065690001;1;True;43;1;6.420398713109924
446;446;1449493150;2.1430094242099997;0.809650063515;0.0682354718447;1;True;43;1;6.420398713109924
447;447;1449493150;2.14300513268;0.8096357584;0.0682287216187;1;True;43;1;6.420398713109924
448;448;1449493150;2.14300870895;0.809647798538;0.0682344734669;1;True;43;1;6.420398713109924
449;449;1449493150;2.14301562309;0.809635698795;0.0682336017489;1;True;43;1;6.420398713109924
450;450;1449493150;2.14302039146;0.8096458911900001;0.06824841350319999;1;True;43;1;6.420398713109924
451;451;1449493150;2.14303183556;0.8096488714219999;0.0682408586144;1;True;43;1;6.420398713109924
452;452;1449493150;2.1430175304400003;0.8096447587010001;0.068237118423;1;True;43;1;6.420398713109924
453;453;1449493151;2.1430208683000003;0.809649646282;0.0682485252619;2;True;43;1;6.420398713109924
454;454;1449493151;2.14301466942;0.809634149075;0.0682374760509;2;True;43;1;6.420398713109924
455;455;1449493151;2.14301252365;0.8096284866329999;0.0682369843125;2;True;43;1;6.420398713109924
456;456;1449493151;2.14301609993;0.8096534013750001;0.0682487636805;2;True;43;1;6.420398713109924
457;457;1449493151;2.14301013947;0.809639513493;0.0682401657104;2;True;43;1;6.420398713109924
458;458;1449493151;2.143024683;0.809644937515;0.0682476833463;2;True;43;1;6.420398713109924
459;459;1449493151;2.14301419258;0.809634149075;0.0682376548648;2;True;43;1;6.420398713109924
460;460;1449493151;2.14302134514;0.809640944004;0.06824258714909999;2;True;43;1;6.420398713109924
461;461;1449493151;2.14301657677;0.8096392154690001;0.0682433024049;2;True;43;1;6.420398713109924
462;462;1449493151;2.14302706718;0.809654176235;0.06825976818799999;2;True;43;1;6.420398713109924
463;463;1449493151;2.1430132389099996;0.8096365332600001;0.0682463794947;2;True;43;1;6.420398713109924
464;464;1449493151;2.14301896095;0.809643089771;0.0682393088937;2;True;43;1;6.420398713109924
465;465;1449493151;2.14302062988;0.809641540051;0.0682460814714;2;True;43;1;6.420398713109924
466;466;1449493151;2.14302515984;0.809635579586;0.0682406425476;2;True;43;1;6.420398713109924
467;467;1449493151;2.14303135872;0.80965077877;0.06824786961080001;2;True;43;1;6.420398713109924
468;468;1449493151;2.1430208683000003;0.8096414804459999;0.0682417824864;2;True;43;1;6.420398713109924
469;469;1449493151;2.14301872253;0.809650242329;0.0682444423437;2;True;43;1;6.420398713109924
470;470;1449493151;2.14301085472;0.809645831585;0.0682434290648;2;True;43;1;6.420398713109924
471;471;1449493151;2.14300465584;0.809638917446;0.0682415515184;2;True;43;1;6.420398713109924
472;472;1449493151;2.14302539825;0.809640228748;0.06825385987759999;2;True;43;1;6.420398713109924
473;473;1449493151;2.14302015305;0.8096392154690001;0.06824389845130001;2;True;43;1;6.420398713109924
474;474;1449493151;2.14301681519;0.8096413016320001;0.0682459101081;2;True;43;1;6.420398713109924
475;475;1449493151;2.14301514626;0.809653043747;0.0682505741715;2;True;43;1;6.420398713109924
476;476;1449493151;2.1430163383500003;0.8096345067020001;0.06824883818630001;2;True;43;1;6.420398713109924
477;477;1449493151;2.14302253723;0.809650242329;0.0682548508048;2;True;43;1;6.420398713109924
478;478;1449493151;2.14301657677;0.809637725353;0.0682333707809;2;True;43;1;6.420398713109924
479;479;1449493151;2.14301204681;0.809633076191;0.0682444944978;2;True;43;1;6.420398713109924
480;480;1449493151;2.14300394058;0.8096442222600001;0.06824664026499999;2;True;43;1;6.420398713109924
481;481;1449493151;2.1430273056;0.809650361538;0.06824944168330001;2;True;43;1;6.420398713109924
482;482;1449493151;2.14301085472;0.809634149075;0.0682462453842;2;True;43;1;6.420398713109924
483;483;1449493151;2.14300751686;0.8096399307250001;0.06824427098040001;2;True;43;1;6.420398713109924
484;484;1449493151;2.14301586151;0.809646368027;0.06823970377449999;2;True;43;1;6.420398713109924
485;485;1449493151;2.1430277824400004;0.809654653072;0.0682618096471;2;True;43;1;6.420398713109924
486;486;1449493151;2.14302039146;0.8096359968189999;0.06823161244390001;2;True;43;1;6.420398713109924
487;487;1449493151;2.14301252365;0.8096290826800001;0.0682326182723;2;True;43;1;6.420398713109924
488;488;1449493151;2.14301896095;0.809642076492;0.068235963583;2;True;43;1;6.420398713109924
489;489;1449493151;2.14300560951;0.8096318840979999;0.0682306587696;2;True;43;1;6.420398713109924
490;490;1449493151;2.1430130004900003;0.809631645679;0.0682427734137;2;True;43;1;6.420398713109924
491;491;1449493151;2.14302420616;0.809642136097;0.06824427098040001;2;True;43;1;6.420398713109924
492;492;1449493151;2.143014431;0.809639155865;0.06824744492769999;2;True;43;1;6.420398713109924
493;493;1449493151;2.14301848412;0.80963242054;0.0682360157371;2;True;43;1;6.420398713109924
494;494;1449493151;2.1430249214200003;0.809646606445;0.068252928555;2;True;43;1;6.420398713109924
495;495;1449493151;2.1430079937;0.8096365332600001;0.0682366266847;2;True;43;1;6.420398713109924
496;496;1449493151;2.14301252365;0.809633433819;0.06823889911169999;2;True;43;1;6.420398713109924
497;497;1449493151;2.14301156998;0.80965334177;0.06825141608719999;2;True;43;1;6.420398713109924
498;498;1449493151;2.14301204681;0.809639513493;0.06823777407409999;2;True;43;1;6.420398713109924
499;499;1449493151;2.14300870895;0.8096362948420001;0.0682354718447;2;True;43;1;6.420398713109924
500;500;1449493151;2.14300489426;0.809631049633;0.06824047863480001;2;True;43;1;6.420398713109924
501;501;1449493151;2.1430237293200003;0.809647858143;0.0682528764009;2;True;43;1;6.420398713109924
502;502;1449493151;2.14300990105;0.809646070004;0.06824281811710001;2;True;43;1;6.420398713109924
503;503;1449493151;2.1430091857900004;0.8096420168880001;0.068239197135;2;True;43;1;6.420398713109924
504;504;1449493151;2.14301085472;0.8096474409100001;0.06825105100869999;2;True;43;1;6.420398713109924
505;505;1449493151;2.14301609993;0.809632718563;0.0682292357087;2;True;43;1;6.420398713109924
506;506;1449493151;2.1430077552799998;0.809643268585;0.0682376250625;2;True;43;1;6.420398713109924
507;507;1449493151;2.14300656319;0.8096358180050001;0.06823587417600001;2;True;43;1;6.420398713109924
508;508;1449493151;2.1430013179799996;0.80963075161;0.0682316273451;2;True;43;1;6.420398713109924
509;509;1449493151;2.1430003643;0.809642314911;0.06823956966400001;2;True;43;1;6.420398713109924
510;510;1449493151;2.14299893379;0.809632122517;0.06823354959490001;2;True;43;1;6.420398713109924
511;511;1449493151;2.1430084705400003;0.809633851051;0.06822961568830001;2;True;43;1;6.420398713109924
512;512;1449493151;2.14298939705;0.8096359968189999;0.068234115839;2;True;43;1;6.420398713109924
513;513;1449493151;2.1430079937;0.809633731842;0.0682336688042;2;True;43;1;6.420398713109924
514;514;1449493151;2.1430006027200004;0.809639573097;0.0682314261794;2;True;43;1;6.420398713109924
515;515;1449493151;2.14300632477;0.809647023678;0.0682438090444;2;True;43;1;6.420398713109924
516;516;1449493151;2.14300107956;0.8096460103990001;0.0682347789407;2;True;43;1;6.420398713109924
517;517;1449493151;2.14300751686;0.809630870819;0.06823428720239999;2;True;43;1;6.420398713109924
518;518;1449493151;2.14298462868;0.8096352219580001;0.0682194754481;2;True;43;1;6.420398713109924
519;519;1449493151;2.14301276207;0.809647381306;0.06824759393930001;2;True;43;1;6.420398713109924
520;520;1449493151;2.14300489426;0.809631943703;0.0682325437665;2;True;43;1;6.420398713109924
521;521;1449493151;2.14299273491;0.809631407261;0.0682168379426;2;True;43;1;6.420398713109924
522;522;1449493151;2.1430132389099996;0.809646785259;0.06823644787069999;2;True;43;1;6.420398713109924
523;523;1449493151;2.1429970264400002;0.809643745422;0.0682271495461;2;True;43;1;6.420398713109924
524;524;1449493151;2.14299845695;0.809651553631;0.068222373724;2;True;43;1;6.420398713109924
525;525;1449493151;2.14299535751;0.809641182423;0.0682166069746;2;True;43;1;6.420398713109924
526;526;1449493151;2.1429946422599997;0.8096297979350001;0.0682189762592;2;True;43;1;6.420398713109924
527;527;1449493151;2.1430003643;0.809641838074;0.0682264715433;2;True;43;1;6.420398713109924
528;528;1449493151;2.14300513268;0.8096424937250001;0.0682309344411;2;True;43;1;6.420398713109924
529;529;1449493151;2.1430015564;0.809638857841;0.06822630017999999;2;True;43;1;6.420398713109924
530;530;1449493151;2.14300179482;0.809634029865;0.0682287663221;2;True;43;1;6.420398713109924
531;531;1449493151;2.14301109314;0.809652924538;0.0682302042842;2;True;43;1;6.420398713109924
532;532;1449493151;2.14299821854;0.809648096561;0.0682253241539;2;True;43;1;6.420398713109924
533;533;1449493151;2.1430015564;0.809653759003;0.0682349875569;2;True;43;1;6.420398713109924
534;534;1449493151;2.14300465584;0.8096505999570001;0.0682336241007;2;True;43;1;6.420398713109924
535;535;1449493151;2.14301085472;0.809654772282;0.06823007017369999;2;True;43;1;6.420398713109924
536;536;1449493151;2.14300465584;0.8096427917479999;0.0682223662734;2;True;43;1;6.420398713109924
537;537;1449493151;2.14300394058;0.809649944305;0.068225286901;2;True;43;1;6.420398713109924
538;538;1449493151;2.14300537109;0.809655308723;0.0682304054499;2;True;43;1;6.420398713109924
539;539;1449493151;2.1429998874700003;0.809640884399;0.0682185217738;2;True;43;1;6.420398713109924
540;540;1449493151;2.14299535751;0.809648692608;0.0682206898928;2;True;43;1;6.420398713109924
541;541;1449493151;2.14300632477;0.8096494078640001;0.06822472810750001;2;True;43;1;6.420398713109924
542;542;1449493151;2.14301085472;0.809647798538;0.0682269185781;2;True;43;1;6.420398713109924
543;543;1449493151;2.14300394058;0.8096467256550001;0.0682209134102;2;True;43;1;6.420398713109924
544;544;1449493151;2.14299607277;0.8096463084219999;0.0682260990143;2;True;43;1;6.420398713109924
545;545;1449493151;2.14299559593;0.809646487236;0.0682287886739;2;True;43;1;6.420398713109924
546;546;1449493151;2.14300227165;0.809645175934;0.0682310760021;2;True;43;1;6.420398713109924
547;547;1449493151;2.14299607277;0.809639036655;0.068220436573;2;True;43;1;6.420398713109924
548;548;1449493151;2.1430208683000003;0.8096501231190001;0.0682357624173;2;True;43;1;6.420398713109924
549;549;1449493151;2.14299678802;0.809639275074;0.0682255402207;2;True;43;1;6.420398713109924
550;550;1449493151;2.14300656319;0.809637606144;0.0682194158435;2;True;43;1;6.420398713109924
551;551;1449493151;2.1430175304400003;0.809644579887;0.0682346448302;2;True;43;1;6.420398713109924
552;552;1449493151;2.14300870895;0.809637606144;0.0682264491916;2;True;43;1;6.420398713109924
553;553;1449493151;2.14301085472;0.8096297979350001;0.0682395994663;2;True;43;1;6.420398713109924
554;554;1449493151;2.1430037021599997;0.8096414208409999;0.0682332217693;2;True;43;1;6.420398713109924
555;555;1449493151;2.14300107956;0.8096442222600001;0.0682427883148;2;True;43;1;6.420398713109924
556;556;1449493151;2.1429924964900002;0.8096323013310001;0.06822619587180001;2;True;43;1;6.420398713109924
557;557;1449493151;2.1430003643;0.809626936913;0.068224221468;2;True;43;1;6.420398713109924
558;558;1449493151;2.1430077552799998;0.809640467167;0.0682326033711;2;True;43;1;6.420398713109924
559;559;1449493151;2.14300227165;0.8096284866329999;0.0682368725538;2;True;43;1;6.420398713109924
560;560;1449493151;2.1430003643;0.8096448183059999;0.0682445690036;2;True;43;1;6.420398713109924
561;561;1449493151;2.1430118084;0.8096387982369999;0.0682487413287;2;True;43;1;6.420398713109924
562;562;1449493151;2.1430003643;0.809630274773;0.0682456418872;2;True;43;1;6.420398713109924
563;563;1449493151;2.14300608635;0.8096333146100001;0.0682393535972;2;True;43;1;6.420398713109924
564;564;1449493151;2.1430037021599997;0.8096311092380001;0.068247243762;2;True;43;1;6.420398713109924
565;565;1449493151;2.14300227165;0.809635043144;0.0682348236442;2;True;43;1;6.420398713109924
566;566;1449493151;2.1429975032799997;0.8096345067020001;0.06824804842469999;2;True;43;1;6.420398713109924
567;567;1449493151;2.14300012589;0.809635162354;0.0682400837541;2;True;43;1;6.420398713109924
568;568;1449493151;2.1430175304400003;0.8096382021899999;0.0682388916612;2;True;43;1;6.420398713109924
569;569;1449493151;2.14302206039;0.809641540051;0.068260781467;2;True;43;1;6.420398713109924
570;570;1449493151;2.14301586151;0.809643685818;0.0682556554675;2;True;43;1;6.420398713109924
571;571;1449493151;2.14300680161;0.8096413612369999;0.0682413130999;2;True;43;1;6.420398713109924
572;572;1449493151;2.14300513268;0.809635877609;0.0682450383902;2;True;43;1;6.420398713109924
573;573;1449493151;2.1430006027200004;0.809635341167;0.06822866201399999;2;True;43;1;6.420398713109924
574;574;1449493151;2.1430084705400003;0.809648692608;0.0682450160384;2;True;43;1;6.420398713109924
575;575;1449493151;2.14300012589;0.8096339106559999;0.06823736429209999;2;True;43;1;6.420398713109924
576;576;1449493151;2.14299654961;0.8096345067020001;0.068232215941;2;True;43;1;6.420398713109924
577;577;1449493151;2.14299845695;0.809646546841;0.0682391226292;2;True;43;1;6.420398713109924
578;578;1449493151;2.1430013179799996;0.809644639492;0.06824129819869999;2;True;43;1;6.420398713109924
579;579;1449493151;2.14301156998;0.80964243412;0.0682506263256;2;True;43;1;6.420398713109924
580;580;1449493151;2.14300465584;0.809639155865;0.06824374198909999;2;True;43;1;6.420398713109924
581;581;1449493151;2.14300823212;0.80963152647;0.0682383030653;2;True;43;1;6.420398713109924
582;582;1449493151;2.14299607277;0.8096333146100001;0.0682458281517;2;True;43;1;6.420398713109924
583;583;1449493151;2.1430037021599997;0.809635579586;0.0682373791933;2;True;43;1;6.420398713109924
584;584;1449493151;2.14299845695;0.80964243412;0.0682392269373;2;True;43;1;6.420398713109924
585;585;1449493151;2.14300751686;0.8096366524699999;0.0682438462973;2;True;43;1;6.420398713109924
586;586;1449493151;2.14300107956;0.8096417188639999;0.068235591054;2;True;43;1;6.420398713109924
587;587;1449493151;2.1430037021599997;0.809617161751;0.0682303234935;2;True;43;1;6.420398713109924
588;588;1449493151;2.14300560951;0.809629738331;0.0682464838028;2;True;43;1;6.420398713109924
589;589;1449493151;2.14299869537;0.809634447098;0.068237170577;2;True;43;1;6.420398713109924
590;590;1449493151;2.1430084705400003;0.8096446990970001;0.068251542747;2;True;43;1;6.420398713109924
591;591;1449493151;2.14299678802;0.8096407055850001;0.0682444572449;2;True;43;1;6.420398713109924
592;592;1449493151;2.14300966263;0.80964165926;0.0682487785816;2;True;43;1;6.420398713109924
593;593;1449493151;2.1430037021599997;0.8096365332600001;0.0682423561811;2;True;43;1;6.420398713109924
594;594;1449493151;2.14301586151;0.809651970863;0.0682515352964;2;True;43;1;6.420398713109924
595;595;1449493151;2.14298915863;0.8096277713779999;0.06822980195280001;2;True;43;1;6.420398713109924
596;596;1449493151;2.1430003643;0.809644341469;0.0682418271899;2;True;43;1;6.420398713109924
597;597;1449493151;2.14301085472;0.809631466866;0.0682449191809;2;True;43;1;6.420398713109924
598;598;1449493151;2.1429924964900002;0.8096414208409999;0.0682357028127;2;True;43;1;6.420398713109924
599;599;1449493151;2.14300632477;0.809637129307;0.06823043525219999;2;True;43;1;6.420398713109924
600;600;1449493151;2.1429934501599996;0.8096271753309999;0.0682342499495;2;True;43;1;6.420398713109924
601;601;1449493151;2.1430020332299997;0.809641540051;0.0682445168495;2;True;43;1;6.420398713109924
602;602;1449493151;2.14301037788;0.809643626213;0.0682390481234;2;True;43;1;6.420398713109924
603;603;1449493151;2.14301037788;0.809638738632;0.0682391151786;2;True;43;1;6.420398713109924
604;604;1449493151;2.1430020332299997;0.809640347958;0.0682482346892;2;True;43;1;6.420398713109924
605;605;1449493151;2.14301085472;0.80964243412;0.0682476982474;2;True;43;1;6.420398713109924
606;606;1449493151;2.14300537109;0.8096257448199999;0.0682222545147;2;True;43;1;6.420398713109924
607;607;1449493151;2.14299488068;0.809633433819;0.0682287290692;2;True;43;1;6.420398713109924
608;608;1449493151;2.14301109314;0.8096386194230001;0.0682234540582;2;True;43;1;6.420398713109924
609;609;1449493151;2.14301276207;0.809643626213;0.0682319477201;2;True;43;1;6.420398713109924
610;610;1449493151;2.1429972648599995;0.809637665749;0.0682290270925;2;True;43;1;6.420398713109924
611;611;1449493151;2.1429991722099997;0.8096271157260001;0.0682223439217;2;True;43;1;6.420398713109924
