;Unnamed: 0;header_stamp_secs;pose_position_x;pose_position_y;pose_position_z;seconds;drop_values;flight_number;label;dtw
0;0;1445943417;2.16422533989;0.7318428754809999;0.035123024135800006;0;True;48;1;53.22908973674
1;1;1445943417;2.16420507431;0.731822133064;0.0351149365306;0;True;48;1;53.22908973674
2;2;1445943417;2.1642062664;0.731857538223;0.035110138356699995;0;True;48;1;53.22908973674
3;3;1445943417;2.1642127037;0.731779277325;0.0351167842746;0;True;48;1;53.22908973674
4;4;1445943417;2.16421723366;0.731824040413;0.0351031012833;0;True;48;1;53.22908973674
5;5;1445943417;2.1641433239;0.731676161289;0.035134766250800004;0;True;48;1;53.22908973674
6;6;1445943417;2.1641664505000002;0.731846749783;0.035138171166199994;0;True;48;1;53.22908973674
7;7;1445943417;2.1642255783099995;0.7319175601010001;0.0351078398526;0;True;48;1;53.22908973674
8;8;1445943417;2.1642141342200003;0.731817245483;0.0351212918758;0;True;48;1;53.22908973674
9;9;1445943417;2.16414260864;0.731592833996;0.0352089777589;0;True;48;1;53.22908973674
10;10;1445943417;2.1641824245500003;0.731849968433;0.035139609128199994;0;True;48;1;53.22908973674
11;11;1445943417;2.16418528557;0.731810450554;0.0351243950427;0;True;48;1;53.22908973674
12;12;1445943417;2.1642072200799998;0.7317806482320001;0.035117443651;0;True;48;1;53.22908973674
13;13;1445943417;2.1642169952400003;0.7317984700200001;0.035119365900800004;0;True;48;1;53.22908973674
14;14;1445943417;2.16417098045;0.731797933578;0.0351083688438;0;True;48;1;53.22908973674
15;15;1445943417;2.1642129421200003;0.731814324856;0.035107761621500005;0;True;48;1;53.22908973674
16;16;1445943417;2.16416692734;0.7318571805949999;0.0351366586983;0;True;48;1;53.22908973674
17;17;1445943417;2.16419672966;0.731849730015;0.035102065652600004;0;True;48;1;53.22908973674
18;18;1445943417;2.1639630794499998;0.7315306663510001;0.0352534987032;0;True;48;1;53.22908973674
19;19;1445943417;2.1641733646400003;0.731705963612;0.035149715840800004;0;True;48;1;53.22908973674
20;20;1445943417;2.16419935226;0.7318130731579999;0.035114884376500004;0;True;48;1;53.22908973674
21;21;1445943417;2.16412258148;0.731767356396;0.035135798156300004;0;True;48;1;53.22908973674
22;22;1445943417;2.16419911385;0.731839835644;0.0351190641522;0;True;48;1;53.22908973674
23;23;1445943417;2.16411757469;0.731648504734;0.0351557023823;0;True;48;1;53.22908973674
24;24;1445943417;2.16415762901;0.731613337994;0.035129040479699995;0;True;48;1;53.22908973674
25;25;1445943417;2.1642084121700003;0.731805503368;0.0351133383811;0;True;48;1;53.22908973674
26;26;1445943417;2.16421222687;0.7318191528319999;0.0351115725935;0;True;48;1;53.22908973674
27;27;1445943417;2.1641681194299998;0.731582224369;0.0351440533996;0;True;48;1;53.22908973674
28;28;1445943417;2.16420483589;0.731795549393;0.0351083464921;0;True;48;1;53.22908973674
29;29;1445943417;2.1642174720800003;0.731740295887;0.035115242004400006;0;True;48;1;53.22908973674
30;30;1445943417;2.16412878036;0.73157709837;0.0351484715939;0;True;48;1;53.22908973674
31;31;1445943417;2.16420292854;0.731862008572;0.035105496645;0;True;48;1;53.22908973674
32;32;1445943417;2.16421508789;0.73172467947;0.0351151451468;0;True;48;1;53.22908973674
33;33;1445943417;2.16400575638;0.731582522392;0.0355034172535;0;True;48;1;53.22908973674
34;34;1445943417;2.1642036438;0.731730461121;0.03511120378969999;0;True;48;1;53.22908973674
35;35;1445943417;2.16405797005;0.731696486473;0.035187710076599994;0;True;48;1;53.22908973674
36;36;1445943417;2.16420865059;0.731777012348;0.0351204536855;0;True;48;1;53.22908973674
37;37;1445943417;2.16420125961;0.731793880463;0.0351138152182;0;True;48;1;53.22908973674
38;38;1445943417;2.16416573524;0.7318379879000001;0.035123996436600004;0;True;48;1;53.22908973674
39;39;1445943417;2.1640675067900004;0.731707632542;0.035164508968599996;0;True;48;1;53.22908973674
40;40;1445943417;2.16418576241;0.7316331863400001;0.035119131207499994;0;True;48;1;53.22908973674
41;41;1445943417;2.16416049004;0.7317152023319999;0.035135753452800005;0;True;48;1;53.22908973674
42;42;1445943417;2.16420340538;0.731841266155;0.0351172089577;0;True;48;1;53.22908973674
43;43;1445943417;2.16420793533;0.731777071953;0.0351198688149;0;True;48;1;53.22908973674
44;44;1445943417;2.16411662102;0.731733560562;0.0351456403732;0;True;48;1;53.22908973674
45;45;1445943417;2.16420483589;0.7318225502969999;0.0351210385561;0;True;48;1;53.22908973674
46;46;1445943417;2.1641447544099996;0.731648027897;0.0351463854313;0;True;48;1;53.22908973674
47;47;1445943417;2.1642022132900003;0.7318783998489999;0.0351102426648;0;True;48;1;53.22908973674
48;48;1445943417;2.16418886185;0.73164999485;0.0351187586784;0;True;48;1;53.22908973674
49;49;1445943417;2.16418027878;0.731801509857;0.0351282991469;0;True;48;1;53.22908973674
50;50;1445943417;2.16420078278;0.7318312525749999;0.035116549581300005;0;True;48;1;53.22908973674
51;51;1445943417;2.16418170929;0.731828987598;0.0351138152182;0;True;48;1;53.22908973674
52;52;1445943417;2.16417360306;0.731716752052;0.035117216408300005;0;True;48;1;53.22908973674
53;53;1445943417;2.16400194168;0.7316612005230001;0.035217307508;0;True;48;1;53.22908973674
54;54;1445943417;2.1642026901199998;0.731758058071;0.035115826875;0;True;48;1;53.22908973674
55;55;1445943417;2.16414237022;0.7318285107610001;0.035128463059699994;0;True;48;1;53.22908973674
56;56;1445943417;2.16417646408;0.731824338436;0.0351373553276;0;True;48;1;53.22908973674
57;57;1445943417;2.16419148445;0.731789469719;0.0351230837405;0;True;48;1;53.22908973674
58;58;1445943417;2.16419935226;0.731817901134;0.0351137071848;0;True;48;1;53.22908973674
59;59;1445943417;2.1641838550599997;0.731827497482;0.0351285412908;0;True;48;1;53.22908973674
60;60;1445943417;2.16419482231;0.7317791581149999;0.035108804702800006;0;True;48;1;53.22908973674
61;61;1445943417;2.16418886185;0.7318580150599999;0.0351182073355;0;True;48;1;53.22908973674
62;62;1445943417;2.16419482231;0.731727778912;0.0351181663573;0;True;48;1;53.22908973674
63;63;1445943417;2.16408348083;0.731750905514;0.03516272827980001;0;True;48;1;53.22908973674
64;64;1445943417;2.16414546967;0.731736838818;0.035150181502099996;0;True;48;1;53.22908973674
65;65;1445943417;2.16421484947;0.7318153977390001;0.0351218804717;0;True;48;1;53.22908973674
66;66;1445943417;2.16420650482;0.731815218925;0.035120267421;0;True;48;1;53.22908973674
67;67;1445943417;2.1642069816599996;0.7318679094310001;0.0351051837206;0;True;48;1;53.22908973674
68;68;1445943417;2.1641631126400003;0.731646120548;0.03513235226269999;0;True;48;1;53.22908973674
69;69;1445943417;2.16410923004;0.7317278981209999;0.0351382531226;0;True;48;1;53.22908973674
70;70;1445943417;2.16396665573;0.731455206871;0.0357978530228;0;True;48;1;53.22908973674
71;71;1445943417;2.1641461849200003;0.7318129539489999;0.0351239815354;0;True;48;1;53.22908973674
72;72;1445943417;2.1642088890099997;0.731934785843;0.0351263731718;0;True;48;1;53.22908973674
73;73;1445943417;2.16413211823;0.731739640236;0.0350954681635;0;True;48;1;53.22908973674
74;74;1445943418;2.16419911385;0.7317884564399999;0.035125087946699995;1;True;48;1;53.22908973674
75;75;1445943418;2.1642143726299996;0.731843173504;0.0351311229169;1;True;48;1;53.22908973674
76;76;1445943418;2.1642026901199998;0.7317934632299999;0.035133711993699995;1;True;48;1;53.22908973674
77;77;1445943418;2.16414213181;0.731872558594;0.035155594348900004;1;True;48;1;53.22908973674
78;78;1445943418;2.16420030594;0.731762111187;0.035108786076300004;1;True;48;1;53.22908973674
79;79;1445943418;2.16419363022;0.7317231893539999;0.03511377424;1;True;48;1;53.22908973674
80;80;1445943418;2.16415667534;0.7316197752949999;0.03514367342;1;True;48;1;53.22908973674
81;81;1445943418;2.1641952991499998;0.7318652272220001;0.03510775789619999;1;True;48;1;53.22908973674
82;82;1445943418;2.1641960144;0.7317358255390001;0.0351046100259;1;True;48;1;53.22908973674
83;83;1445943418;2.16420817375;0.731891274452;0.0351225137711;1;True;48;1;53.22908973674
84;84;1445943418;2.16419506073;0.731862008572;0.0351196564734;1;True;48;1;53.22908973674
85;85;1445943418;2.16418933868;0.731864273548;0.035112738609300004;1;True;48;1;53.22908973674
86;86;1445943418;2.16416049004;0.73164665699;0.0351228527725;1;True;48;1;53.22908973674
87;87;1445943418;2.1641998290999998;0.731822907925;0.035132728517100004;1;True;48;1;53.22908973674
88;88;1445943418;2.16411828995;0.731586992741;0.035208489745900004;1;True;48;1;53.22908973674
89;89;1445943418;2.16421318054;0.731723368168;0.0351226069033;1;True;48;1;53.22908973674
90;90;1445943418;2.16403245926;0.731650054455;0.0352096781135;1;True;48;1;53.22908973674
91;91;1445943418;2.16419148445;0.731848657131;0.0351100377738;1;True;48;1;53.22908973674
92;92;1445943418;2.16419577599;0.731761097908;0.0351283848286;1;True;48;1;53.22908973674
93;93;1445943418;2.16418147087;0.731734156609;0.0351307839155;1;True;48;1;53.22908973674
94;94;1445943418;2.16419792175;0.7317593097689999;0.0351248309016;1;True;48;1;53.22908973674
95;95;1445943418;2.16419696808;0.731805086136;0.0351072996855;1;True;48;1;53.22908973674
96;96;1445943418;2.16421103477;0.731870412827;0.0351091399789;1;True;48;1;53.22908973674
97;97;1445943418;2.16420006752;0.731881856918;0.035105060786;1;True;48;1;53.22908973674
98;98;1445943418;2.16420412064;0.731913208961;0.0351229310036;1;True;48;1;53.22908973674
99;99;1445943418;2.16408133507;0.731693446636;0.0351716391742;1;True;48;1;53.22908973674
100;100;1445943418;2.1642069816599996;0.7318571805949999;0.0351050011814;1;True;48;1;53.22908973674
101;101;1445943418;2.16419672966;0.731820702553;0.0351121611893;1;True;48;1;53.22908973674
102;102;1445943418;2.16420793533;0.7319375276569999;0.035116136074099996;1;True;48;1;53.22908973674
103;103;1445943418;2.16419148445;0.731797575951;0.035099595785099996;1;True;48;1;53.22908973674
104;104;1445943418;2.16412186623;0.7316013574600001;0.0351438932121;1;True;48;1;53.22908973674
105;105;1445943418;2.16410183907;0.7317142486570001;0.035165265202500004;1;True;48;1;53.22908973674
106;106;1445943418;2.16408348083;0.731683135033;0.035178404301400006;1;True;48;1;53.22908973674
107;107;1445943418;2.16400265694;0.731710791588;0.035180013626800004;1;True;48;1;53.22908973674
108;108;1445943418;2.16420030594;0.731800019741;0.0351192057133;1;True;48;1;53.22908973674
109;109;1445943418;2.16406774521;0.73169708252;0.035196967423;1;True;48;1;53.22908973674
110;110;1445943418;2.16419792175;0.731754302979;0.035120964050300005;1;True;48;1;53.22908973674
111;111;1445943418;2.1641986370099997;0.731810927391;0.035104472190099996;1;True;48;1;53.22908973674
112;112;1445943418;2.16420483589;0.731834411621;0.0351065285504;1;True;48;1;53.22908973674
113;113;1445943418;2.1641986370099997;0.731776952744;0.0351137183607;1;True;48;1;53.22908973674
114;114;1445943418;2.16412138939;0.7317080497740001;0.0351417809725;1;True;48;1;53.22908973674
115;115;1445943418;2.16395354271;0.7314890027050001;0.03548778966069999;1;True;48;1;53.22908973674
116;116;1445943418;2.1641972065;0.7317143082619999;0.0351128391922;1;True;48;1;53.22908973674
117;117;1445943418;2.16420197487;0.7319065332410001;0.0351204387844;1;True;48;1;53.22908973674
118;118;1445943418;2.1642084121700003;0.731788516045;0.0351228043437;1;True;48;1;53.22908973674
119;119;1445943418;2.16408443451;0.731701254845;0.0352075323462;1;True;48;1;53.22908973674
120;120;1445943418;2.16417312622;0.731830835342;0.0351280532777;1;True;48;1;53.22908973674
121;121;1445943418;2.16419291496;0.731852114201;0.0351165831089;1;True;48;1;53.22908973674
122;122;1445943418;2.1639418602;0.7315275073049999;0.0354151874781;1;True;48;1;53.22908973674
123;123;1445943418;2.1641912460299997;0.731869280338;0.035097945481500005;1;True;48;1;53.22908973674
124;124;1445943418;2.16418552399;0.7318416833879999;0.035111289471400006;1;True;48;1;53.22908973674
125;125;1445943418;2.16418886185;0.731881141663;0.0351064950228;1;True;48;1;53.22908973674
126;126;1445943418;2.16413521767;0.7316734194760001;0.0351985432208;1;True;48;1;53.22908973674
127;127;1445943418;2.1641972065;0.731773078442;0.035123370587800004;1;True;48;1;53.22908973674
128;128;1445943418;2.16419792175;0.731780588627;0.035123918205499996;1;True;48;1;53.22908973674
129;129;1445943418;2.16417503357;0.7316538691519999;0.0351174995303;1;True;48;1;53.22908973674
130;130;1445943418;2.16419792175;0.731932222843;0.0351119637489;1;True;48;1;53.22908973674
131;131;1445943418;2.1640927791599998;0.731709361076;0.0351776741445;1;True;48;1;53.22908973674
132;132;1445943418;2.1641938686400004;0.7318767309190001;0.0351159572601;1;True;48;1;53.22908973674
133;133;1445943418;2.1642055511500002;0.731787443161;0.035110771655999996;1;True;48;1;53.22908973674
134;134;1445943418;2.1641516685499997;0.731725394726;0.035132102668300004;1;True;48;1;53.22908973674
135;135;1445943418;2.16420507431;0.731851160526;0.0351168438792;1;True;48;1;53.22908973674
136;136;1445943418;2.1638877391799998;0.7314624786380001;0.0352824516594;1;True;48;1;53.22908973674
137;137;1445943418;2.1641964912400002;0.7317332625390001;0.0351162366569;1;True;48;1;53.22908973674
138;138;1445943418;2.16404485703;0.731568455696;0.035183068364900004;1;True;48;1;53.22908973674
139;139;1445943418;2.16420650482;0.731793701649;0.0351058915257;1;True;48;1;53.22908973674
140;140;1445943418;2.1641666889200004;0.7318006157879999;0.0351100191474;1;True;48;1;53.22908973674
141;141;1445943418;2.1641926765400004;0.731866598129;0.0351039469242;1;True;48;1;53.22908973674
142;142;1445943418;2.16418814659;0.7317911386489999;0.0351018421352;1;True;48;1;53.22908973674
143;143;1445943418;2.16417622566;0.731750607491;0.035114459693400005;1;True;48;1;53.22908973674
144;144;1445943418;2.1641883850099997;0.7318014502529999;0.0351295210421;1;True;48;1;53.22908973674
145;145;1445943418;2.1641941070599997;0.7318562865260001;0.03510170057419999;1;True;48;1;53.22908973674
146;146;1445943418;2.16407871246;0.73170375824;0.0351679101586;1;True;48;1;53.22908973674
147;147;1445943418;2.1641895771;0.7318019270899999;0.0351042374969;1;True;48;1;53.22908973674
148;148;1445943418;2.16420030594;0.7318624258040001;0.035107195377300005;1;True;48;1;53.22908973674
149;149;1445943418;2.16418504715;0.731751263142;0.0351157970726;1;True;48;1;53.22908973674
150;150;1445943418;2.16419053078;0.731659531593;0.0351169407368;1;True;48;1;53.22908973674
151;151;1445943418;2.16420078278;0.731883585453;0.035096582025300006;1;True;48;1;53.22908973674
152;152;1445943418;2.16414809227;0.731754779816;0.0351382344961;1;True;48;1;53.22908973674
153;153;1445943418;2.16419816017;0.7318797111509999;0.035101868212199995;1;True;48;1;53.22908973674
154;154;1445943418;2.16415548325;0.731816411018;0.035119719803300004;1;True;48;1;53.22908973674
155;155;1445943418;2.1640965938599996;0.7317968606949999;0.035145886242400004;1;True;48;1;53.22908973674
156;156;1445943418;2.16409015656;0.7317314744;0.0351739525795;1;True;48;1;53.22908973674
157;157;1445943418;2.16419959068;0.731809854507;0.0351162180305;1;True;48;1;53.22908973674
158;158;1445943418;2.16418719292;0.731779932976;0.0351045541465;1;True;48;1;53.22908973674
159;159;1445943418;2.16420054436;0.7317974567409999;0.0351071730256;1;True;48;1;53.22908973674
160;160;1445943418;2.16407394409;0.7315749526019999;0.0351631641388;1;True;48;1;53.22908973674
161;161;1445943418;2.1640846729299996;0.731727063656;0.035196091979699994;1;True;48;1;53.22908973674
162;162;1445943418;2.16412472725;0.731877982616;0.0351518876851;1;True;48;1;53.22908973674
163;163;1445943418;2.16418099403;0.7318544983859999;0.035121906548699997;1;True;48;1;53.22908973674
164;164;1445943418;2.16413211823;0.731802821159;0.0351024568081;1;True;48;1;53.22908973674
165;165;1445943418;2.16400980949;0.731667935848;0.035214342176900004;1;True;48;1;53.22908973674
166;166;1445943418;2.16417980194;0.731643199921;0.035125810653;1;True;48;1;53.22908973674
167;167;1445943418;2.1641952991499998;0.731882095337;0.035117201507099995;1;True;48;1;53.22908973674
168;168;1445943418;2.16417622566;0.7317728400229999;0.035106621682599995;1;True;48;1;53.22908973674
169;169;1445943418;2.16418933868;0.731944441795;0.035119287669699996;1;True;48;1;53.22908973674
170;170;1445943418;2.16419768333;0.7318809032439999;0.0351213626564;1;True;48;1;53.22908973674
171;171;1445943418;2.16419148445;0.731750786304;0.0351204387844;1;True;48;1;53.22908973674
172;172;1445943418;2.16420578957;0.731777966022;0.0351217500865;1;True;48;1;53.22908973674
173;173;1445943418;2.16420412064;0.731723546982;0.0351225025952;1;True;48;1;53.22908973674
174;174;1445943418;2.16415214539;0.7316169738770001;0.0351512134075;1;True;48;1;53.22908973674
175;175;1445943418;2.16407847404;0.7317373156550001;0.035183545202000004;1;True;48;1;53.22908973674
176;176;1445943418;2.1641387939500003;0.7316597104070001;0.0351257957518;1;True;48;1;53.22908973674
177;177;1445943418;2.16420197487;0.731789708138;0.0351150408387;1;True;48;1;53.22908973674
178;178;1445943418;2.1641883850099997;0.731925487518;0.035115767270300004;1;True;48;1;53.22908973674
179;179;1445943418;2.16411876678;0.7316591143610001;0.0352035835385;1;True;48;1;53.22908973674
180;180;1445943418;2.16420030594;0.731822609901;0.0351137183607;1;True;48;1;53.22908973674
181;181;1445943418;2.16418194771;0.731886029243;0.035115096718099995;1;True;48;1;53.22908973674
182;182;1445943418;2.16421914101;0.731792211533;0.035130940377699996;1;True;48;1;53.22908973674
183;183;1445943418;2.16419291496;0.7318021655079999;0.0351251550019;1;True;48;1;53.22908973674
184;184;1445943418;2.1641547679900004;0.7318584322930001;0.0351491831243;1;True;48;1;53.22908973674
185;185;1445943418;2.16413092613;0.7317468523980001;0.035133011639099994;1;True;48;1;53.22908973674
186;186;1445943418;2.16419100761;0.731782793999;0.0351354032755;1;True;48;1;53.22908973674
187;187;1445943418;2.16421222687;0.7318849563600001;0.0351333618164;1;True;48;1;53.22908973674
188;188;1445943418;2.16419100761;0.731735467911;0.0351155623794;1;True;48;1;53.22908973674
189;189;1445943418;2.16417860985;0.731814563274;0.035128775984;1;True;48;1;53.22908973674
190;190;1445943418;2.16419291496;0.731851279736;0.035121299326400006;1;True;48;1;53.22908973674
191;191;1445943418;2.16416096687;0.731770992279;0.0351431034505;1;True;48;1;53.22908973674
192;192;1445943418;2.16419100761;0.731827437878;0.0351205691695;1;True;48;1;53.22908973674
193;193;1445943418;2.1641664505000002;0.7318373918529999;0.0351208113134;1;True;48;1;53.22908973674
194;194;1445943418;2.16413664818;0.73171120882;0.03511941060419999;1;True;48;1;53.22908973674
195;195;1445943418;2.16419053078;0.731758475304;0.0351222790778;1;True;48;1;53.22908973674
196;196;1445943418;2.1641199588799997;0.731659531593;0.0351498313248;1;True;48;1;53.22908973674
197;197;1445943418;2.1641631126400003;0.731805145741;0.035128057003;1;True;48;1;53.22908973674
198;198;1445943418;2.16418886185;0.7318187356;0.035116240382199994;1;True;48;1;53.22908973674
199;199;1445943418;2.16409778595;0.731594920158;0.0351696796715;1;True;48;1;53.22908973674
200;200;1445943418;2.16419696808;0.731904268265;0.0351251587272;1;True;48;1;53.22908973674
201;201;1445943418;2.16408133507;0.731732785702;0.0352160781622;1;True;48;1;53.22908973674
202;202;1445943418;2.16421127319;0.731821298599;0.0351180098951;1;True;48;1;53.22908973674
203;203;1445943418;2.16415429115;0.7317388057709999;0.035141061991499994;1;True;48;1;53.22908973674
204;204;1445943418;2.16420078278;0.731749176979;0.035122890025400005;1;True;48;1;53.22908973674
205;205;1445943418;2.1639902591699998;0.731506943703;0.035532746464;1;True;48;1;53.22908973674
206;206;1445943418;2.16418218613;0.731922984123;0.035113107413099996;1;True;48;1;53.22908973674
207;207;1445943418;2.16416859627;0.731835067272;0.035129442811;1;True;48;1;53.22908973674
208;208;1445943418;2.16419768333;0.73177421093;0.035124193877;1;True;48;1;53.22908973674
209;209;1445943418;2.1642010211900002;0.731873691082;0.0351268537343;1;True;48;1;53.22908973674
210;210;1445943418;2.1640093326599996;0.731613099575;0.0351907424629;1;True;48;1;53.22908973674
211;211;1445943418;2.16419506073;0.731926500797;0.0351225472987;1;True;48;1;53.22908973674
212;212;1445943418;2.16418933868;0.73183453083;0.0351132079959;1;True;48;1;53.22908973674
213;213;1445943418;2.1641638279;0.731820523739;0.035112850368;1;True;48;1;53.22908973674
214;214;1445943418;2.16419959068;0.7319196462630001;0.0351253561676;1;True;48;1;53.22908973674
215;215;1445943418;2.16412997246;0.731860935688;0.03513956815;1;True;48;1;53.22908973674
216;216;1445943418;2.16405558586;0.7317215204240001;0.0352077186108;1;True;48;1;53.22908973674
217;217;1445943418;2.16420435905;0.731915771961;0.0351265370846;1;True;48;1;53.22908973674
218;218;1445943418;2.16420435905;0.7318408489229999;0.0351170413196;1;True;48;1;53.22908973674
219;219;1445943418;2.16415429115;0.7317118048669999;0.035145189613099995;1;True;48;1;53.22908973674
220;220;1445943418;2.16419911385;0.7319124341009999;0.03511545807119999;1;True;48;1;53.22908973674
221;221;1445943418;2.16418790817;0.731781244278;0.035118140280199994;1;True;48;1;53.22908973674
222;222;1445943418;2.16417145729;0.7318018674850001;0.035115826875;1;True;48;1;53.22908973674
223;223;1445943418;2.16398501396;0.7316088676450001;0.0352015644312;1;True;48;1;53.22908973674
224;224;1445943418;2.16418886185;0.731857359409;0.0351086333394;1;True;48;1;53.22908973674
225;225;1445943418;2.1640496254;0.731695592403;0.035201303660900005;1;True;48;1;53.22908973674
226;226;1445943418;2.16418886185;0.731721103191;0.0351229794323;1;True;48;1;53.22908973674
227;227;1445943418;2.1641998290999998;0.731809794903;0.035120852291599995;1;True;48;1;53.22908973674
228;228;1445943418;2.16417098045;0.7317360043529999;0.0351390354335;1;True;48;1;53.22908973674
229;229;1445943418;2.16401195526;0.731706142426;0.0352365486324;1;True;48;1;53.22908973674
230;230;1445943418;2.16415572166;0.7317231893539999;0.0351388342679;1;True;48;1;53.22908973674
231;231;1445943418;2.1641933918;0.7317800521850001;0.035145368427;1;True;48;1;53.22908973674
232;232;1445943418;2.1641561984999997;0.7317436337469999;0.035137239843599996;1;True;48;1;53.22908973674
233;233;1445943418;2.1642076969099997;0.731935560703;0.0351037830114;1;True;48;1;53.22908973674
234;234;1445943418;2.16420030594;0.73173558712;0.03511383757;1;True;48;1;53.22908973674
235;235;1445943418;2.16416239738;0.731687366962;0.035130906850099994;1;True;48;1;53.22908973674
236;236;1445943418;2.1641960144;0.731782972813;0.0351097770035;1;True;48;1;53.22908973674
237;237;1445943418;2.1641933918;0.731901466846;0.035102806985400005;1;True;48;1;53.22908973674
238;238;1445943418;2.16420149803;0.73187994957;0.0351033173501;1;True;48;1;53.22908973674
239;239;1445943418;2.16408634186;0.7317327260969999;0.035193834453800005;1;True;48;1;53.22908973674
240;240;1445943418;2.16409850121;0.731747746468;0.0352072268724;1;True;48;1;53.22908973674
241;241;1445943418;2.16418194771;0.731769025326;0.0350991897285;1;True;48;1;53.22908973674
242;242;1445943418;2.16419744492;0.7318837046619999;0.0351093374193;1;True;48;1;53.22908973674
243;243;1445943418;2.16418886185;0.731865763664;0.035104393959;1;True;48;1;53.22908973674
244;244;1445943418;2.16415834427;0.731715083122;0.0351311191916;1;True;48;1;53.22908973674
245;245;1445943418;2.16418337822;0.7318421006199999;0.0351064614952;1;True;48;1;53.22908973674
246;246;1445943418;2.16414952278;0.731824159622;0.035113401711;1;True;48;1;53.22908973674
247;247;1445943418;2.1640489101400004;0.731636106968;0.0351535044611;1;True;48;1;53.22908973674
248;248;1445943418;2.16412734985;0.731754720211;0.0351330637932;1;True;48;1;53.22908973674
249;249;1445943418;2.16417121887;0.731720030308;0.0351049341261;1;True;48;1;53.22908973674
250;250;1445943418;2.1640803813900003;0.731727063656;0.03519840165969999;1;True;48;1;53.22908973674
251;251;1445943418;2.16421890259;0.731826007366;0.035108871757999996;1;True;48;1;53.22908973674
252;252;1445943418;2.16419029236;0.731710076332;0.0351214446127;1;True;48;1;53.22908973674
253;253;1445943418;2.1641156673400004;0.731815993786;0.0351449288428;1;True;48;1;53.22908973674
254;254;1445943418;2.1641898155200003;0.731773614883;0.0350874215364;1;True;48;1;53.22908973674
255;255;1445943418;2.1642031669599997;0.731909990311;0.0351069755852;1;True;48;1;53.22908973674
256;256;1445943418;2.1641347408300002;0.7317978739740001;0.035141412168699995;1;True;48;1;53.22908973674
257;257;1445943418;2.16420459747;0.7318672537800001;0.03509607538580001;1;True;48;1;53.22908973674
258;258;1445943418;2.16413354874;0.7317974567409999;0.0351240299642;1;True;48;1;53.22908973674
259;259;1445943418;2.16410160065;0.7317437529559999;0.035166349262;1;True;48;1;53.22908973674
260;260;1445943418;2.16420984268;0.731844544411;0.035115417093;1;True;48;1;53.22908973674
261;261;1445943418;2.1642088890099997;0.7318432927130001;0.035103153437399996;1;True;48;1;53.22908973674
262;262;1445943418;2.16421318054;0.7318871021269999;0.0351098515093;1;True;48;1;53.22908973674
263;263;1445943418;2.16420149803;0.731849253178;0.0351143069565;1;True;48;1;53.22908973674
264;264;1445943418;2.1641528606400002;0.731876671314;0.035166863352099995;1;True;48;1;53.22908973674
265;265;1445943418;2.1641824245500003;0.7317864298819999;0.0351242795587;1;True;48;1;53.22908973674
266;266;1445943418;2.1642069816599996;0.731885015965;0.0351071320474;1;True;48;1;53.22908973674
267;267;1445943418;2.1642072200799998;0.731727182865;0.0351206921041;1;True;48;1;53.22908973674
268;268;1445943418;2.16421103477;0.7318072915080001;0.0351099446416;1;True;48;1;53.22908973674
269;269;1445943418;2.1642124652900003;0.731824338436;0.0351039171219;1;True;48;1;53.22908973674
270;270;1445943418;2.16416096687;0.731651425362;0.0351857580245;1;True;48;1;53.22908973674
271;271;1445943418;2.16421198845;0.731937229633;0.035108707845199996;1;True;48;1;53.22908973674
272;272;1445943418;2.16421222687;0.73183453083;0.0351229049265;1;True;48;1;53.22908973674
273;273;1445943418;2.16419315338;0.7317747473720001;0.0351230762899;1;True;48;1;53.22908973674
274;274;1445943418;2.16421890259;0.731842577457;0.0351089388132;1;True;48;1;53.22908973674
275;275;1445943418;2.1642088890099997;0.731786668301;0.0351119190454;1;True;48;1;53.22908973674
276;276;1445943418;2.16417765617;0.731812119484;0.0351129435003;1;True;48;1;53.22908973674
277;277;1445943418;2.1641926765400004;0.7318078875540001;0.0351219698787;1;True;48;1;53.22908973674
278;278;1445943418;2.1642162799799998;0.731856882572;0.0351067520678;1;True;48;1;53.22908973674
279;279;1445943418;2.16417741776;0.731782615185;0.0351244844496;1;True;48;1;53.22908973674
280;280;1445943418;2.16421222687;0.731774330139;0.0351173095405;1;True;48;1;53.22908973674
281;281;1445943418;2.16412401199;0.731653034687;0.0351515263319;1;True;48;1;53.22908973674
282;282;1445943418;2.16417741776;0.731802940369;0.0351198725402;1;True;48;1;53.22908973674
283;283;1445943418;2.1642036438;0.731790423393;0.0351281762123;1;True;48;1;53.22908973674
284;284;1445943418;2.16420149803;0.731881201267;0.035115882754300005;1;True;48;1;53.22908973674
285;285;1445943418;2.16414928436;0.7315911650660001;0.035141188651300004;1;True;48;1;53.22908973674
286;286;1445943418;2.16419816017;0.731721699238;0.0351252630353;1;True;48;1;53.22908973674
287;287;1445943418;2.16418194771;0.7318239808079999;0.0351226776838;1;True;48;1;53.22908973674
288;288;1445943418;2.1642100811000002;0.73178589344;0.0351159796119;1;True;48;1;53.22908973674
289;289;1445943418;2.16420674324;0.73177421093;0.0351250991225;1;True;48;1;53.22908973674
290;290;1445943418;2.1642169952400003;0.731772184372;0.0351145677269;1;True;48;1;53.22908973674
291;291;1445943418;2.1640820503200002;0.731680750847;0.0351416692138;1;True;48;1;53.22908973674
292;292;1445943418;2.16421508789;0.731844782829;0.0351142771542;1;True;48;1;53.22908973674
293;293;1445943418;2.16409492493;0.7317013740539999;0.0351780056953;1;True;48;1;53.22908973674
294;294;1445943418;2.16422200203;0.731787204742;0.0351203046739;1;True;48;1;53.22908973674
295;295;1445943418;2.16419792175;0.731803834438;0.0351282581687;1;True;48;1;53.22908973674
296;296;1445943418;2.16418218613;0.731807231903;0.0351222455502;1;True;48;1;53.22908973674
297;297;1445943418;2.16416954994;0.7316522598270001;0.035126324743;1;True;48;1;53.22908973674
298;298;1445943418;2.1642074585;0.7318328619;0.035103049129199995;1;True;48;1;53.22908973674
299;299;1445943418;2.1641938686400004;0.731704950333;0.03510699421169999;1;True;48;1;53.22908973674
300;300;1445943418;2.16406583786;0.731704950333;0.035181101411599996;1;True;48;1;53.22908973674
301;301;1445943418;2.16417765617;0.7317618727680001;0.0351276919246;1;True;48;1;53.22908973674
302;302;1445943418;2.1642129421200003;0.7317992448810001;0.035123836249099996;1;True;48;1;53.22908973674
303;303;1445943418;2.16421818733;0.73189252615;0.0351210646331;1;True;48;1;53.22908973674
304;304;1445943418;2.16420030594;0.7318782210349999;0.0351115837693;1;True;48;1;53.22908973674
305;305;1445943418;2.16413760185;0.731827676296;0.035137809813;1;True;48;1;53.22908973674
306;306;1445943418;2.16420578957;0.7317257523540001;0.035108994692599996;1;True;48;1;53.22908973674
307;307;1445943418;2.16420435905;0.7317532300949999;0.035115096718099995;1;True;48;1;53.22908973674
308;308;1445943418;2.16408967972;0.731683254242;0.0351732708514;1;True;48;1;53.22908973674
309;309;1445943418;2.1642036438;0.7317328453059999;0.0351113155484;1;True;48;1;53.22908973674
310;310;1445943418;2.1640598774;0.731676578522;0.035187520086800005;1;True;48;1;53.22908973674
311;311;1445943418;2.16421365738;0.731760144234;0.0351151116192;1;True;48;1;53.22908973674
312;312;1445943418;2.16415309906;0.7317141294480001;0.0351432226598;1;True;48;1;53.22908973674
313;313;1445943419;2.1641113758099997;0.731708467007;0.0351422317326;2;True;48;1;53.22908973674
314;314;1445943419;2.16417598724;0.731773734093;0.0351010598242;2;True;48;1;53.22908973674
315;315;1445943419;2.16407966614;0.731708526611;0.035177383571900006;2;True;48;1;53.22908973674
316;316;1445943419;2.1640965938599996;0.731671273708;0.0351883880794;2;True;48;1;53.22908973674
317;317;1445943419;2.1642055511500002;0.7318198680879999;0.03510578721759999;2;True;48;1;53.22908973674
318;318;1445943419;2.16418194771;0.7317116856579999;0.0351166054606;2;True;48;1;53.22908973674
319;319;1445943419;2.16419625282;0.731757521629;0.0351218469441;2;True;48;1;53.22908973674
320;320;1445943419;2.1642024517099996;0.731872498989;0.0351248607039;2;True;48;1;53.22908973674
321;321;1445943419;2.16418433189;0.73180770874;0.0351292230189;2;True;48;1;53.22908973674
322;322;1445943419;2.16420936584;0.7317267060279999;0.0351043343544;2;True;48;1;53.22908973674
323;323;1445943419;2.1641726493799998;0.731762528419;0.035115428268900004;2;True;48;1;53.22908973674
324;324;1445943419;2.16421532631;0.731797933578;0.03511142358180001;2;True;48;1;53.22908973674
325;325;1445943419;2.16413927078;0.731653392315;0.0351278595626;2;True;48;1;53.22908973674
326;326;1445943419;2.1641497612;0.731825351715;0.035132993012699995;2;True;48;1;53.22908973674
327;327;1445943419;2.1642026901199998;0.731772363186;0.0351196080446;2;True;48;1;53.22908973674
328;328;1445943419;2.16420817375;0.731725811958;0.035110428929300004;2;True;48;1;53.22908973674
329;329;1445943419;2.16421461105;0.731694638729;0.035110604018;2;True;48;1;53.22908973674
330;330;1445943419;2.16421604156;0.7319388389589999;0.035106603056199996;2;True;48;1;53.22908973674
331;331;1445943419;2.1640403270700004;0.7317093014720001;0.0351843982935;2;True;48;1;53.22908973674
332;332;1445943419;2.16420483589;0.731770277023;0.0350956171751;2;True;48;1;53.22908973674
333;333;1445943419;2.16418790817;0.731759369373;0.0350961908698;2;True;48;1;53.22908973674
334;334;1445943419;2.164103508;0.731736063957;0.035172481089800006;2;True;48;1;53.22908973674
335;335;1445943419;2.16418194771;0.7316722869869999;0.0351527817547;2;True;48;1;53.22908973674
336;336;1445943419;2.1642229557;0.731781482697;0.0351049974561;2;True;48;1;53.22908973674
337;337;1445943419;2.16421675682;0.731767058372;0.0351044237614;2;True;48;1;53.22908973674
338;338;1445943419;2.1641433239;0.731818854809;0.0351361595094;2;True;48;1;53.22908973674
339;339;1445943419;2.16421151161;0.7317358255390001;0.035118732601400006;2;True;48;1;53.22908973674
340;340;1445943419;2.1641507148700003;0.731867432594;0.0351555235684;2;True;48;1;53.22908973674
341;341;1445943419;2.16421365738;0.731712579727;0.0351072251797;2;True;48;1;53.22908973674
342;342;1445943419;2.1641204357099997;0.7316789031029999;0.035137090832;2;True;48;1;53.22908973674
343;343;1445943419;2.16413712502;0.7318067550660001;0.0351310260594;2;True;48;1;53.22908973674
344;344;1445943419;2.16418194771;0.7317992448810001;0.035117518156800004;2;True;48;1;53.22908973674
345;345;1445943419;2.16410374641;0.731712520123;0.035171128809500005;2;True;48;1;53.22908973674
346;346;1445943419;2.16421103477;0.731808900833;0.0350948907435;2;True;48;1;53.22908973674
347;347;1445943419;2.16411542892;0.7316075563429999;0.0351477004588;2;True;48;1;53.22908973674
348;348;1445943419;2.16421341896;0.731866836548;0.0351122394204;2;True;48;1;53.22908973674
349;349;1445943419;2.16410088539;0.731809914112;0.0351404845715;2;True;48;1;53.22908973674
350;350;1445943419;2.16421675682;0.7316851615909999;0.0351135022938;2;True;48;1;53.22908973674
351;351;1445943419;2.16420531273;0.7317842841150001;0.0350873842835;2;True;48;1;53.22908973674
352;352;1445943419;2.16414690018;0.731738567352;0.035139467567199996;2;True;48;1;53.22908973674
353;353;1445943419;2.1641938686400004;0.731735885143;0.0350989252329;2;True;48;1;53.22908973674
354;354;1445943419;2.16416859627;0.731744468212;0.0351236090064;2;True;48;1;53.22908973674
355;355;1445943419;2.1640169620500003;0.7316898703579999;0.035164885222900004;2;True;48;1;53.22908973674
356;356;1445943419;2.16408920288;0.731698572636;0.035204369574800005;2;True;48;1;53.22908973674
357;357;1445943419;2.16421580315;0.7318748235699999;0.035114042460900004;2;True;48;1;53.22908973674
358;358;1445943419;2.16421866417;0.7317191958429999;0.035097271204;2;True;48;1;53.22908973674
359;359;1445943419;2.16414928436;0.7318328619;0.0351313501596;2;True;48;1;53.22908973674
360;360;1445943419;2.1642084121700003;0.731784582138;0.035107322037199996;2;True;48;1;53.22908973674
361;361;1445943419;2.16419577599;0.7319416403769999;0.035099234432;2;True;48;1;53.22908973674
362;362;1445943419;2.1641290187799997;0.731652081013;0.0351511202753;2;True;48;1;53.22908973674
363;363;1445943419;2.1641693115200002;0.731748759747;0.0351252146065;2;True;48;1;53.22908973674
364;364;1445943419;2.16417598724;0.731815934181;0.035099118948;2;True;48;1;53.22908973674
365;365;1445943419;2.16414403915;0.7318639159199999;0.035148333758099996;2;True;48;1;53.22908973674
366;366;1445943419;2.1641867160799997;0.7318223714830001;0.0351036824286;2;True;48;1;53.22908973674
367;367;1445943419;2.16420292854;0.731798410416;0.0351028181612;2;True;48;1;53.22908973674
368;368;1445943419;2.16398382187;0.7315776348109999;0.0352298393846;2;True;48;1;53.22908973674
369;369;1445943419;2.16417717934;0.73182451725;0.0350944437087;2;True;48;1;53.22908973674
370;370;1445943419;2.1640763282799997;0.731711149216;0.035167071968300004;2;True;48;1;53.22908973674
371;371;1445943419;2.16397047043;0.7315564155580001;0.0352469310164;2;True;48;1;53.22908973674
372;372;1445943419;2.1641783714300002;0.731770336628;0.035116050392400004;2;True;48;1;53.22908973674
373;373;1445943419;2.16416168213;0.731602311134;0.0351259224117;2;True;48;1;53.22908973674
374;374;1445943419;2.16418290138;0.731841742992;0.035108212381599994;2;True;48;1;53.22908973674
375;375;1445943419;2.16411209106;0.73163163662;0.0351391620934;2;True;48;1;53.22908973674
376;376;1445943419;2.16409778595;0.73179268837;0.035130824893699994;2;True;48;1;53.22908973674
377;377;1445943419;2.1641952991499998;0.731685817242;0.0351126044989;2;True;48;1;53.22908973674
378;378;1445943419;2.16409850121;0.7317256331440001;0.03511048480869999;2;True;48;1;53.22908973674
379;379;1445943419;2.164093256;0.731745898724;0.0351427048445;2;True;48;1;53.22908973674
380;380;1445943419;2.1641740799;0.7317286133769999;0.035106424242300004;2;True;48;1;53.22908973674
381;381;1445943419;2.1641998290999998;0.731917321682;0.035094987601;2;True;48;1;53.22908973674
382;382;1445943419;2.16418337822;0.7318671941760001;0.035112734884000005;2;True;48;1;53.22908973674
383;383;1445943419;2.16417860985;0.731915175915;0.035082533955599994;2;True;48;1;53.22908973674
384;384;1445943419;2.16407775879;0.731683671474;0.035162199288599996;2;True;48;1;53.22908973674
385;385;1445943419;2.16418600082;0.7317468523980001;0.035105958581;2;True;48;1;53.22908973674
386;386;1445943419;2.1641824245500003;0.7318148016930001;0.035094395279900006;2;True;48;1;53.22908973674
387;387;1445943419;2.16419315338;0.7318416833879999;0.0351003520191;2;True;48;1;53.22908973674
388;388;1445943419;2.16418290138;0.7318208813670001;0.0350947231054;2;True;48;1;53.22908973674
389;389;1445943419;2.1641547679900004;0.731752574444;0.0351098738611;2;True;48;1;53.22908973674
390;390;1445943419;2.16408658028;0.7317184209819999;0.0351933166385;2;True;48;1;53.22908973674
391;391;1445943419;2.16421461105;0.731922984123;0.035087894648300005;2;True;48;1;53.22908973674
392;392;1445943419;2.16407871246;0.731723368168;0.035175420343900005;2;True;48;1;53.22908973674
393;393;1445943419;2.16417455673;0.731762230396;0.0350984185934;2;True;48;1;53.22908973674
394;394;1445943419;2.16410827637;0.731812298298;0.0351281128824;2;True;48;1;53.22908973674
395;395;1445943419;2.1641907691999998;0.731771111488;0.035112641751800004;2;True;48;1;53.22908973674
396;396;1445943419;2.16418361664;0.731729567051;0.0351095385849;2;True;48;1;53.22908973674
397;397;1445943419;2.16410279274;0.7317278385160001;0.035132754594099994;2;True;48;1;53.22908973674
398;398;1445943419;2.16415786743;0.7317582964899999;0.0350871123374;2;True;48;1;53.22908973674
399;399;1445943419;2.16421079636;0.73193693161;0.035093575716;2;True;48;1;53.22908973674
400;400;1445943419;2.1642117500299998;0.7317457199099999;0.035089913755699996;2;True;48;1;53.22908973674
401;401;1445943419;2.16417217255;0.731718301773;0.03511377424;2;True;48;1;53.22908973674
402;402;1445943419;2.1642169952400003;0.731847822666;0.035107571631699995;2;True;48;1;53.22908973674
403;403;1445943419;2.16415405273;0.731822669506;0.035113286227;2;True;48;1;53.22908973674
404;404;1445943419;2.16421341896;0.731897056103;0.0350999720395;2;True;48;1;53.22908973674
405;405;1445943419;2.16421079636;0.731795370579;0.0351014882326;2;True;48;1;53.22908973674
406;406;1445943419;2.16412734985;0.731702506542;0.035154718905699996;2;True;48;1;53.22908973674
407;407;1445943419;2.1642124652900003;0.7317290306090001;0.0351044088602;2;True;48;1;53.22908973674
408;408;1445943419;2.16420125961;0.731841862202;0.035089552402499995;2;True;48;1;53.22908973674
409;409;1445943419;2.1642262935599996;0.731865048409;0.0350961461663;2;True;48;1;53.22908973674
410;410;1445943419;2.16422700882;0.731718599796;0.035096049308800004;2;True;48;1;53.22908973674
411;411;1445943419;2.16412878036;0.7317257523540001;0.03516646102069999;2;True;48;1;53.22908973674
412;412;1445943419;2.1642103195200004;0.731761515141;0.0351098179817;2;True;48;1;53.22908973674
413;413;1445943419;2.16396522522;0.7315638661380001;0.0352113842964;2;True;48;1;53.22908973674
414;414;1445943419;2.16421198845;0.731712579727;0.03512204065919999;2;True;48;1;53.22908973674
415;415;1445943419;2.16412258148;0.731587588787;0.0351350791752;2;True;48;1;53.22908973674
416;416;1445943419;2.1642062664;0.7317957878110001;0.0351021438837;2;True;48;1;53.22908973674
417;417;1445943419;2.16408157349;0.731720685959;0.035183213651199995;2;True;48;1;53.22908973674
418;418;1445943419;2.1641831398;0.731802940369;0.035110384225800005;2;True;48;1;53.22908973674
419;419;1445943419;2.1642010211900002;0.731743872166;0.0351102240384;2;True;48;1;53.22908973674
420;420;1445943419;2.16408491135;0.7317237854;0.0351811572909;2;True;48;1;53.22908973674
421;421;1445943419;2.16412496567;0.7317993640899999;0.035134892910699995;2;True;48;1;53.22908973674
422;422;1445943419;2.1642143726299996;0.7318987250329999;0.0351006500423;2;True;48;1;53.22908973674
423;423;1445943419;2.16421103477;0.731827557087;0.0351030826569;2;True;48;1;53.22908973674
424;424;1445943419;2.16412353516;0.731723487377;0.0351574867964;2;True;48;1;53.22908973674
425;425;1445943419;2.1640722751599997;0.7316097021100001;0.0351519174874;2;True;48;1;53.22908973674
426;426;1445943419;2.16399407387;0.7314403057100001;0.0354210622609;2;True;48;1;53.22908973674
427;427;1445943419;2.16421318054;0.731893539429;0.035107251256699994;2;True;48;1;53.22908973674
428;428;1445943419;2.16420817375;0.731875240803;0.0351083017886;2;True;48;1;53.22908973674
429;429;1445943419;2.1640906333900003;0.731710791588;0.035210840404;2;True;48;1;53.22908973674
430;430;1445943419;2.16415715218;0.731775403023;0.0351243317127;2;True;48;1;53.22908973674
431;431;1445943419;2.1641664505000002;0.7317714095119999;0.0351017937064;2;True;48;1;53.22908973674
432;432;1445943419;2.1640446186099997;0.7316594719889999;0.0351736135781;2;True;48;1;53.22908973674
433;433;1445943419;2.16420054436;0.7318938970569999;0.035105265677;2;True;48;1;53.22908973674
434;434;1445943419;2.1642010211900002;0.7317299246789999;0.0351094976068;2;True;48;1;53.22908973674
435;435;1445943419;2.1642127037;0.731909990311;0.0351084582508;2;True;48;1;53.22908973674
436;436;1445943419;2.16415596008;0.731720089912;0.0350959338248;2;True;48;1;53.22908973674
437;437;1445943419;2.16411375999;0.731718719006;0.0351218655705;2;True;48;1;53.22908973674
438;438;1445943419;2.1641266346;0.7317532897;0.0351150929928;2;True;48;1;53.22908973674
439;439;1445943419;2.16420388222;0.731868565083;0.0351074971259;2;True;48;1;53.22908973674
440;440;1445943419;2.1642026901199998;0.731921076775;0.0351049229503;2;True;48;1;53.22908973674
441;441;1445943419;2.1641812324500003;0.7317131161689999;0.035106997937;2;True;48;1;53.22908973674
442;442;1445943419;2.16417551041;0.731794118881;0.0351155176759;2;True;48;1;53.22908973674
443;443;1445943419;2.16416716576;0.731864750385;0.035153795033699996;2;True;48;1;53.22908973674
444;444;1445943419;2.1642174720800003;0.731917977333;0.035104211419800004;2;True;48;1;53.22908973674
445;445;1445943419;2.1642184257499997;0.731833636761;0.035108581185300004;2;True;48;1;53.22908973674
446;446;1445943419;2.16418433189;0.731759786606;0.0351167879999;2;True;48;1;53.22908973674
447;447;1445943419;2.16419768333;0.731756150723;0.035108402371400005;2;True;48;1;53.22908973674
448;448;1445943419;2.1641907691999998;0.731682181358;0.0351178906858;2;True;48;1;53.22908973674
449;449;1445943419;2.16418504715;0.7318651080130001;0.0351128540933;2;True;48;1;53.22908973674
450;450;1445943419;2.16420078278;0.731874287128;0.0351019985974;2;True;48;1;53.22908973674
451;451;1445943419;2.16418814659;0.731728732586;0.0351234823465;2;True;48;1;53.22908973674
452;452;1445943419;2.1642062664;0.731815695763;0.0351034738123;2;True;48;1;53.22908973674
453;453;1445943419;2.16417694092;0.7316884994509999;0.035111989826;2;True;48;1;53.22908973674
454;454;1445943419;2.16415190697;0.7316545844079999;0.0351067222655;2;True;48;1;53.22908973674
455;455;1445943419;2.16416430473;0.7317339777949999;0.0351383239031;2;True;48;1;53.22908973674
456;456;1445943419;2.16420531273;0.7319221496580001;0.0351123139262;2;True;48;1;53.22908973674
457;457;1445943419;2.16417574883;0.731771945953;0.0350999124348;2;True;48;1;53.22908973674
458;458;1445943419;2.1641252040900003;0.7316781282420001;0.035139106214;2;True;48;1;53.22908973674
459;459;1445943419;2.16409921646;0.731634616852;0.035148333758099996;2;True;48;1;53.22908973674
460;460;1445943419;2.16419577599;0.731873273849;0.0351037830114;2;True;48;1;53.22908973674
461;461;1445943419;2.16421484947;0.731739401817;0.0351127758622;2;True;48;1;53.22908973674
462;462;1445943419;2.1642103195200004;0.7318307757379999;0.035103574395199996;2;True;48;1;53.22908973674
463;463;1445943419;2.1641595363599997;0.7317278981209999;0.035115830600300005;2;True;48;1;53.22908973674
464;464;1445943419;2.16398000717;0.731457054615;0.0353690087795;2;True;48;1;53.22908973674
465;465;1445943419;2.1641039848299997;0.7317237257960001;0.0352016985416;2;True;48;1;53.22908973674
466;466;1445943419;2.16419792175;0.7317095398899999;0.0351307988167;2;True;48;1;53.22908973674
467;467;1445943419;2.16409492493;0.731709897518;0.0351509042084;2;True;48;1;53.22908973674
468;468;1445943419;2.16418814659;0.731832027435;0.035096883773800006;2;True;48;1;53.22908973674
469;469;1445943419;2.16412234306;0.7316951155660001;0.0351070873439;2;True;48;1;53.22908973674
470;470;1445943419;2.1642074585;0.7318223714830001;0.0350976288319;2;True;48;1;53.22908973674
471;471;1445943419;2.1641664505000002;0.73175317049;0.0350951701403;2;True;48;1;53.22908973674
472;472;1445943419;2.16419887543;0.731753587723;0.035114146769;2;True;48;1;53.22908973674
473;473;1445943419;2.16415977478;0.731862843037;0.035144001245499996;2;True;48;1;53.22908973674
474;474;1445943419;2.1641964912400002;0.731757700443;0.0350990630686;2;True;48;1;53.22908973674
475;475;1445943419;2.16419291496;0.731773436069;0.035091847181300005;2;True;48;1;53.22908973674
476;476;1445943419;2.16419887543;0.73175650835;0.035093598067800005;2;True;48;1;53.22908973674
477;477;1445943419;2.16404151917;0.731699109077;0.035190515220199996;2;True;48;1;53.22908973674
478;478;1445943419;2.16419887543;0.7318543791769999;0.035097800195199994;2;True;48;1;53.22908973674
479;479;1445943419;2.16415452957;0.731727063656;0.035116013139499996;2;True;48;1;53.22908973674
480;480;1445943419;2.1642055511500002;0.731677293777;0.035108994692599996;2;True;48;1;53.22908973674
481;481;1445943419;2.1642055511500002;0.731818139553;0.0350918322802;2;True;48;1;53.22908973674
482;482;1445943419;2.16420507431;0.731815934181;0.035098627209699994;2;True;48;1;53.22908973674
483;483;1445943419;2.1641983985900004;0.731870353222;0.035093061626;2;True;48;1;53.22908973674
484;484;1445943419;2.16413593292;0.731688976288;0.035101771354699995;2;True;48;1;53.22908973674
485;485;1445943419;2.16415643692;0.731739997864;0.035100307315599995;2;True;48;1;53.22908973674
486;486;1445943419;2.16394352913;0.731427311897;0.0352331437171;2;True;48;1;53.22908973674
487;487;1445943419;2.16418027878;0.731704950333;0.0351003408432;2;True;48;1;53.22908973674
488;488;1445943419;2.16420865059;0.731952667236;0.0350919291377;2;True;48;1;53.22908973674
489;489;1445943419;2.16408491135;0.7317013740539999;0.0351951159537;2;True;48;1;53.22908973674
490;490;1445943419;2.16418170929;0.7318405509;0.03508915007109999;2;True;48;1;53.22908973674
491;491;1445943419;2.16419315338;0.731757521629;0.035114236176;2;True;48;1;53.22908973674
492;492;1445943419;2.16411685944;0.731787979603;0.035131763666900004;2;True;48;1;53.22908973674
493;493;1445943419;2.1642031669599997;0.731773495674;0.035110075026800004;2;True;48;1;53.22908973674
494;494;1445943419;2.1642069816599996;0.731833934784;0.035104516893599995;2;True;48;1;53.22908973674
495;495;1445943419;2.16416549683;0.731747508049;0.035114761441900004;2;True;48;1;53.22908973674
496;496;1445943419;2.16414785385;0.731821835041;0.0351294241846;2;True;48;1;53.22908973674
497;497;1445943419;2.16420173645;0.731791913509;0.0350889004767;2;True;48;1;53.22908973674
498;498;1445943419;2.1641297340400003;0.73177498579;0.03510171175;2;True;48;1;53.22908973674
499;499;1445943419;2.16419959068;0.731855809689;0.035092946142;2;True;48;1;53.22908973674
500;500;1445943419;2.16403412819;0.73156028986;0.0351429618895;2;True;48;1;53.22908973674
501;501;1445943419;2.1642127037;0.731810986996;0.0351138077676;2;True;48;1;53.22908973674
502;502;1445943419;2.16415691376;0.731771826744;0.0350967459381;2;True;48;1;53.22908973674
503;503;1445943419;2.1642076969099997;0.731796443462;0.0350901149213;2;True;48;1;53.22908973674
504;504;1445943419;2.16411185265;0.7317925691600001;0.035137757659;2;True;48;1;53.22908973674
505;505;1445943419;2.1641476154299997;0.731668651104;0.035116225481;2;True;48;1;53.22908973674
506;506;1445943419;2.1642124652900003;0.73180770874;0.035089801996900004;2;True;48;1;53.22908973674
507;507;1445943419;2.1639902591699998;0.7317115068440001;0.0351726077497;2;True;48;1;53.22908973674
508;508;1445943419;2.1641705036200003;0.731776833534;0.035098977387;2;True;48;1;53.22908973674
509;509;1445943419;2.16393971443;0.7314763665199999;0.035229023546;2;True;48;1;53.22908973674
510;510;1445943419;2.16413760185;0.731823444366;0.0351242385805;2;True;48;1;53.22908973674
511;511;1445943419;2.16417145729;0.731652677059;0.0351109653711;2;True;48;1;53.22908973674
512;512;1445943419;2.16419219971;0.73173302412;0.035108402371400005;2;True;48;1;53.22908973674
513;513;1445943419;2.1641767025;0.731717169285;0.0351284518838;2;True;48;1;53.22908973674
514;514;1445943419;2.16397309303;0.731701731682;0.0351970754564;2;True;48;1;53.22908973674
515;515;1445943419;2.16396808624;0.7316306829449999;0.035570256412;2;True;48;1;53.22908973674
516;516;1445943419;2.16416835785;0.7318518161769999;0.035116918385;2;True;48;1;53.22908973674
517;517;1445943419;2.16420674324;0.731813430786;0.0351054146886;2;True;48;1;53.22908973674
518;518;1445943419;2.16411542892;0.7318044900890001;0.035143706947599995;2;True;48;1;53.22908973674
519;519;1445943419;2.1641688346900003;0.731727004051;0.0351157300174;2;True;48;1;53.22908973674
520;520;1445943419;2.16420578957;0.7318239808079999;0.035109043121300004;2;True;48;1;53.22908973674
521;521;1445943419;2.16417503357;0.731851458549;0.035113498568500004;2;True;48;1;53.22908973674
522;522;1445943419;2.1641356945;0.731708467007;0.035125605762;2;True;48;1;53.22908973674
523;523;1445943419;2.16419315338;0.731867790222;0.0351005531847;2;True;48;1;53.22908973674
524;524;1445943419;2.16417384148;0.7317912578579999;0.035111811012;2;True;48;1;53.22908973674
525;525;1445943419;2.1641633510599996;0.731639444828;0.03512388840319999;2;True;48;1;53.22908973674
526;526;1445943419;2.1641933918;0.7319026589390001;0.0350997261703;2;True;48;1;53.22908973674
527;527;1445943419;2.16420412064;0.7318931221960001;0.0351047813892;2;True;48;1;53.22908973674
528;528;1445943419;2.16416764259;0.73177498579;0.035105615854300005;2;True;48;1;53.22908973674
529;529;1445943419;2.16407370567;0.73172467947;0.0351712442935;2;True;48;1;53.22908973674
530;530;1445943419;2.16418027878;0.731747865677;0.035115830600300005;2;True;48;1;53.22908973674
531;531;1445943419;2.16420984268;0.731926560402;0.0351078696549;2;True;48;1;53.22908973674
532;532;1445943419;2.16411471367;0.731592833996;0.035113990306899996;2;True;48;1;53.22908973674
533;533;1445943419;2.16416692734;0.7317250967030001;0.0351025052369;2;True;48;1;53.22908973674
534;534;1445943419;2.1640369892099995;0.731774508953;0.0351866260171;2;True;48;1;53.22908973674
535;535;1445943419;2.16417384148;0.731821417809;0.0351065173745;2;True;48;1;53.22908973674
536;536;1445943419;2.16420674324;0.7318127751350001;0.0351114869118;2;True;48;1;53.22908973674
537;537;1445943419;2.1641952991499998;0.731841206551;0.035108651965900003;2;True;48;1;53.22908973674
538;538;1445943419;2.16403126717;0.731732904911;0.0351788587868;2;True;48;1;53.22908973674
539;539;1445943419;2.1641256809200002;0.731747508049;0.035137351602300006;2;True;48;1;53.22908973674
540;540;1445943419;2.1642072200799998;0.731713414192;0.035114951431800004;2;True;48;1;53.22908973674
541;541;1445943419;2.16399383545;0.731619119644;0.035197626799300004;2;True;48;1;53.22908973674
542;542;1445943419;2.1641283035299996;0.73178589344;0.035146355628999995;2;True;48;1;53.22908973674
543;543;1445943419;2.16409015656;0.7317031025890001;0.035184524953400007;2;True;48;1;53.22908973674
544;544;1445943419;2.16416072845;0.7317582964899999;0.0351401269436;2;True;48;1;53.22908973674
545;545;1445943419;2.1641228199;0.7317122817039999;0.03510767593980001;2;True;48;1;53.22908973674
546;546;1445943419;2.16420459747;0.7318416833879999;0.0351135134697;2;True;48;1;53.22908973674
547;547;1445943419;2.16410827637;0.73180603981;0.03515163064;2;True;48;1;53.22908973674
548;548;1445943419;2.16397809982;0.7315900325779999;0.0352346412838;2;True;48;1;53.22908973674
549;549;1445943419;2.16420674324;0.731898248196;0.0351127684116;2;True;48;1;53.22908973674
550;550;1445943419;2.16391158104;0.731713652611;0.035240307450300004;2;True;48;1;53.22908973674
551;551;1445943419;2.1641476154299997;0.73179090023;0.0351187065244;2;True;48;1;53.22908973674
552;552;1445943420;2.1640598774;0.731704950333;0.035186193883400003;3;True;48;1;53.22908973674
553;553;1445943420;2.16409349442;0.731730878353;0.035196259617800006;3;True;48;1;53.22908973674
554;554;1445943420;2.1641204357099997;0.731624245644;0.0351127870381;3;True;48;1;53.22908973674
555;555;1445943420;2.1642076969099997;0.7318679094310001;0.035105958581;3;True;48;1;53.22908973674
556;556;1445943420;2.1641666889200004;0.73186224699;0.0351118929684;3;True;48;1;53.22908973674
557;557;1445943420;2.1642072200799998;0.731843531132;0.0351127162576;3;True;48;1;53.22908973674
558;558;1445943420;2.16420149803;0.7318837046619999;0.035108547657699996;3;True;48;1;53.22908973674
559;559;1445943420;2.1641688346900003;0.731813788414;0.035124152898800005;3;True;48;1;53.22908973674
560;560;1445943420;2.16420197487;0.7318999171259999;0.0351107344031;3;True;48;1;53.22908973674
561;561;1445943420;2.16409873962;0.731669843197;0.0351714789867;3;True;48;1;53.22908973674
562;562;1445943420;2.16420912743;0.7318929433820001;0.0351167805493;3;True;48;1;53.22908973674
563;563;1445943420;2.16419005394;0.731794297695;0.0351065658033;3;True;48;1;53.22908973674
564;564;1445943420;2.1642088890099997;0.731822907925;0.035111222416199996;3;True;48;1;53.22908973674
565;565;1445943420;2.16409468651;0.731729090214;0.0351618342102;3;True;48;1;53.22908973674
566;566;1445943420;2.16418433189;0.731707155704;0.035130567848699994;3;True;48;1;53.22908973674
567;567;1445943420;2.16421198845;0.7317405343060001;0.0351048782468;3;True;48;1;53.22908973674
568;568;1445943420;2.1640210151700003;0.731674313545;0.03516034036869999;3;True;48;1;53.22908973674
569;569;1445943420;2.16421365738;0.731892168522;0.0351078994572;3;True;48;1;53.22908973674
570;570;1445943420;2.1641693115200002;0.731774628162;0.0351037308574;3;True;48;1;53.22908973674
571;571;1445943420;2.16409802437;0.731728315353;0.0351687818766;3;True;48;1;53.22908973674
572;572;1445943420;2.16416621208;0.731784641743;0.035098906606400006;3;True;48;1;53.22908973674
573;573;1445943420;2.16419959068;0.731936514378;0.0350973345339;3;True;48;1;53.22908973674
574;574;1445943420;2.1641497612;0.731777966022;0.0351069010794;3;True;48;1;53.22908973674
575;575;1445943420;2.16408634186;0.731638729572;0.0351523086429;3;True;48;1;53.22908973674
576;576;1445943420;2.16420173645;0.731744289398;0.0351046174765;3;True;48;1;53.22908973674
577;577;1445943420;2.16421890259;0.731871187687;0.035102684050800005;3;True;48;1;53.22908973674
578;578;1445943420;2.16420578957;0.731813311577;0.0351062454283;3;True;48;1;53.22908973674
579;579;1445943420;2.16421914101;0.7318042516709999;0.035102266818300004;3;True;48;1;53.22908973674
580;580;1445943420;2.16412734985;0.7316999435420001;0.0351218469441;3;True;48;1;53.22908973674
581;581;1445943420;2.16407561302;0.731645941734;0.0351223014295;3;True;48;1;53.22908973674
582;582;1445943420;2.16421461105;0.731887340546;0.0351028852165;3;True;48;1;53.22908973674
583;583;1445943420;2.16420483589;0.7318516969679999;0.035097356885699996;3;True;48;1;53.22908973674
584;584;1445943420;2.16410183907;0.731718540192;0.0351906977594;3;True;48;1;53.22908973674
585;585;1445943420;2.16413736343;0.7317293286319999;0.0351020172238;3;True;48;1;53.22908973674
586;586;1445943420;2.16404557228;0.731626093388;0.0352445095778;3;True;48;1;53.22908973674
587;587;1445943420;2.16419053078;0.7318173646930001;0.0351039171219;3;True;48;1;53.22908973674
588;588;1445943420;2.16421484947;0.731780230999;0.03510372340680001;3;True;48;1;53.22908973674
589;589;1445943420;2.1641845703099998;0.7317895889280001;0.03511620312930001;3;True;48;1;53.22908973674
590;590;1445943420;2.16411304474;0.731674671173;0.0351665951312;3;True;48;1;53.22908973674
591;591;1445943420;2.16421365738;0.7319086194040001;0.0350996404886;3;True;48;1;53.22908973674
592;592;1445943420;2.1640818119;0.7317176461220001;0.0351903177798;3;True;48;1;53.22908973674
593;593;1445943420;2.1641986370099997;0.731817901134;0.0351015776396;3;True;48;1;53.22908973674
594;594;1445943420;2.16408729553;0.731690227985;0.035177607089300005;3;True;48;1;53.22908973674
595;595;1445943420;2.16422796249;0.731877207756;0.035103391856;3;True;48;1;53.22908973674
596;596;1445943420;2.1641640663099997;0.7317969203;0.03510806337;3;True;48;1;53.22908973674
597;597;1445943420;2.16420793533;0.73178511858;0.0351136475801;3;True;48;1;53.22908973674
598;598;1445943420;2.1641149520900003;0.73180103302;0.03514222055669999;3;True;48;1;53.22908973674
599;599;1445943420;2.16404938698;0.731624960899;0.035539358854300006;3;True;48;1;53.22908973674
600;600;1445943420;2.16421604156;0.731733798981;0.0351088196039;3;True;48;1;53.22908973674
601;601;1445943420;2.16421556473;0.731756210327;0.0351098589599;3;True;48;1;53.22908973674
602;602;1445943420;2.16422271729;0.731817722321;0.0351123213768;3;True;48;1;53.22908973674
603;603;1445943420;2.1641986370099997;0.731812000275;0.0350987128913;3;True;48;1;53.22908973674
604;604;1445943420;2.16414046288;0.731875896454;0.0351471155882;3;True;48;1;53.22908973674
605;605;1445943420;2.1642174720800003;0.7317790389059999;0.0351053290069;3;True;48;1;53.22908973674
606;606;1445943420;2.16402077675;0.73156440258;0.0352028571069;3;True;48;1;53.22908973674
607;607;1445943420;2.16421341896;0.731885075569;0.0350998044014;3;True;48;1;53.22908973674
608;608;1445943420;2.16418528557;0.731744408607;0.0351145453751;3;True;48;1;53.22908973674
609;609;1445943420;2.1641728878;0.731622815132;0.0351318605244;3;True;48;1;53.22908973674
610;610;1445943420;2.1641347408300002;0.731671631336;0.0351912528276;3;True;48;1;53.22908973674
611;611;1445943420;2.16418814659;0.7318025827410001;0.0351148918271;3;True;48;1;53.22908973674
612;612;1445943420;2.1641697883599997;0.7318162918089999;0.035122208297300006;3;True;48;1;53.22908973674
613;613;1445943420;2.16413450241;0.7316742539409999;0.035126127302599994;3;True;48;1;53.22908973674
614;614;1445943420;2.1642162799799998;0.731870770454;0.035106487572199994;3;True;48;1;53.22908973674
615;615;1445943420;2.1641805172;0.731647908688;0.0351168103516;3;True;48;1;53.22908973674
616;616;1445943420;2.16420984268;0.731895923615;0.0351099744439;3;True;48;1;53.22908973674
617;617;1445943420;2.16415715218;0.731630027294;0.0351892001927;3;True;48;1;53.22908973674
618;618;1445943420;2.1641941070599997;0.731773197651;0.035114187747199994;3;True;48;1;53.22908973674
619;619;1445943420;2.16419172287;0.7318106889720001;0.035116512328400004;3;True;48;1;53.22908973674
620;620;1445943420;2.1639177799200002;0.731560468674;0.0355072170496;3;True;48;1;53.22908973674
621;621;1445943420;2.16410946846;0.731703937054;0.0351689122617;3;True;48;1;53.22908973674
622;622;1445943420;2.1642031669599997;0.73186904192;0.03510781005019999;3;True;48;1;53.22908973674
623;623;1445943420;2.16421890259;0.731797218323;0.03510510921480001;3;True;48;1;53.22908973674
624;624;1445943420;2.1642062664;0.731688380241;0.0351123064756;3;True;48;1;53.22908973674
625;625;1445943420;2.16400623322;0.7316572666169999;0.035223796963699996;3;True;48;1;53.22908973674
