;Unnamed: 0;header_stamp_secs;pose_position_x;pose_position_y;pose_position_z;seconds;drop_values;flight_number;label;dtw
0;0;1445944236;2.14336037636;0.733012080193;0.0353094339371;0;True;49;1;8.439786673910016
1;1;1445944236;2.14364671707;0.7332618236540001;0.035117089748400006;0;True;49;1;8.439786673910016
2;2;1445944236;2.14363265038;0.733172595501;0.0351304411888;0;True;49;1;8.439786673910016
3;3;1445944236;2.14365124702;0.733150422573;0.03510984405880001;0;True;49;1;8.439786673910016
4;4;1445944236;2.1436424255400004;0.733241796494;0.035102106630800003;0;True;49;1;8.439786673910016
5;5;1445944236;2.14362335205;0.7331275343889999;0.0351274870336;0;True;49;1;8.439786673910016
6;6;1445944236;2.14365196228;0.7332702279090001;0.0351117253304;0;True;49;1;8.439786673910016
7;7;1445944236;2.14362883568;0.733158528805;0.0351087115705;0;True;49;1;8.439786673910016
8;8;1445944236;2.14359140396;0.733114957809;0.035125378519300005;0;True;49;1;8.439786673910016
9;9;1445944236;2.14356541634;0.733178496361;0.035159830004;0;True;49;1;8.439786673910016
10;10;1445944236;2.14340901375;0.7330083251;0.035239603370400004;0;True;49;1;8.439786673910016
11;11;1445944236;2.14360880852;0.73313832283;0.035118710249699994;0;True;49;1;8.439786673910016
12;12;1445944236;2.14364171028;0.7331715822220001;0.03510881215330001;0;True;49;1;8.439786673910016
13;13;1445944236;2.14365291595;0.7331994771960001;0.035100325942;0;True;49;1;8.439786673910016
14;14;1445944236;2.14362239838;0.733099758625;0.0351289100945;0;True;49;1;8.439786673910016
15;15;1445944236;2.14365768433;0.733305513859;0.0351189412177;0;True;49;1;8.439786673910016
16;16;1445944236;2.14364647865;0.7332516908650001;0.0351058766246;0;True;49;1;8.439786673910016
17;17;1445944236;2.1434655189500003;0.733036577702;0.0351935476065;0;True;49;1;8.439786673910016
18;18;1445944236;2.14356637001;0.733224391937;0.0351548530161;0;True;49;1;8.439786673910016
19;19;1445944236;2.14342093468;0.733088552952;0.0353152677417;0;True;49;1;8.439786673910016
20;20;1445944236;2.14365315437;0.7332558631899999;0.0351068452001;0;True;49;1;8.439786673910016
21;21;1445944236;2.14365434647;0.7331763505940001;0.035113118588900004;0;True;49;1;8.439786673910016
22;22;1445944236;2.14359688759;0.733152389526;0.0351497121155;0;True;49;1;8.439786673910016
23;23;1445944236;2.14366221428;0.733218371868;0.03510338440540001;0;True;49;1;8.439786673910016
24;24;1445944236;2.14348006248;0.733123481274;0.0352254472673;0;True;49;1;8.439786673910016
25;25;1445944236;2.14364528656;0.7331777215;0.0351041071117;0;True;49;1;8.439786673910016
26;26;1445944236;2.14366531372;0.733258724213;0.0351141951978;0;True;49;1;8.439786673910016
27;27;1445944236;2.14364337921;0.733251750469;0.035106129944300006;0;True;49;1;8.439786673910016
28;28;1445944236;2.14364790916;0.733311712742;0.0351212807;0;True;49;1;8.439786673910016
29;29;1445944236;2.1435918808000003;0.733092546463;0.0351145751774;0;True;49;1;8.439786673910016
30;30;1445944236;2.1436405181900002;0.733142316341;0.0351145155728;0;True;49;1;8.439786673910016
31;31;1445944236;2.14364624023;0.7332023382189999;0.0351052395999;0;True;49;1;8.439786673910016
32;32;1445944236;2.14357662201;0.7331662178039999;0.0351485051215;0;True;49;1;8.439786673910016
33;33;1445944236;2.14364814758;0.733255088329;0.035112481564300004;0;True;49;1;8.439786673910016
34;34;1445944236;2.14358115196;0.733152091503;0.0351363010705;0;True;49;1;8.439786673910016
35;35;1445944236;2.14356040955;0.7330947518350001;0.0351328328252;0;True;49;1;8.439786673910016
36;36;1445944236;2.14351081848;0.7330211997030001;0.0351647883654;0;True;49;1;8.439786673910016
37;37;1445944236;2.14356684685;0.7332023382189999;0.03516259044409999;0;True;49;1;8.439786673910016
38;38;1445944236;2.1436569690700003;0.733133852482;0.0351120606065;0;True;49;1;8.439786673910016
39;39;1445944236;2.1436166763299997;0.733115494251;0.0351304523647;0;True;49;1;8.439786673910016
40;40;1445944236;2.1435728073099996;0.733111977577;0.0351683981717;0;True;49;1;8.439786673910016
41;41;1445944236;2.14361858368;0.733161985874;0.035109620541300006;0;True;49;1;8.439786673910016
42;42;1445944236;2.14365911484;0.7331913113590001;0.0351071059704;0;True;49;1;8.439786673910016
43;43;1445944236;2.1436369419099996;0.733229517937;0.0351084657013;0;True;49;1;8.439786673910016
44;44;1445944236;2.1436021328;0.7331275343889999;0.0351164527237;0;True;49;1;8.439786673910016
45;45;1445944236;2.1436450481400002;0.733258485794;0.0351149141788;0;True;49;1;8.439786673910016
46;46;1445944236;2.1436495780900002;0.7331820726389999;0.0351052246988;0;True;49;1;8.439786673910016
47;47;1445944236;2.1435894966099998;0.7331355810169999;0.0351764783263;0;True;49;1;8.439786673910016
48;48;1445944236;2.14363718033;0.7331913709639999;0.035111460834699994;0;True;49;1;8.439786673910016
49;49;1445944236;2.14356517792;0.733094334602;0.035175040364300005;0;True;49;1;8.439786673910016
50;50;1445944236;2.1436324119599997;0.7331104874609999;0.0351236872375;0;True;49;1;8.439786673910016
51;51;1445944236;2.14365506172;0.733196437359;0.035119783133300005;0;True;49;1;8.439786673910016
52;52;1445944236;2.14364171028;0.733230412006;0.0351108759642;0;True;49;1;8.439786673910016
53;53;1445944236;2.14364886284;0.7332580685619999;0.0351055338979;0;True;49;1;8.439786673910016
54;54;1445944236;2.14348101616;0.7330319881440001;0.0351900309324;0;True;49;1;8.439786673910016
55;55;1445944236;2.1436405181900002;0.7331657409669999;0.0351051315665;0;True;49;1;8.439786673910016
56;56;1445944236;2.1435596942900004;0.733224451542;0.035167347639800006;0;True;49;1;8.439786673910016
57;57;1445944236;2.1436574459099997;0.7333118319509999;0.035103704780300005;0;True;49;1;8.439786673910016
58;58;1445944236;2.14357590675;0.7331660389899999;0.0351614654064;0;True;49;1;8.439786673910016
59;59;1445944236;2.14364981651;0.733163177967;0.0351110883057;0;True;49;1;8.439786673910016
60;60;1445944236;2.1436429023700003;0.733194410801;0.0351111739874;0;True;49;1;8.439786673910016
61;61;1445944236;2.14345097542;0.73305106163;0.0352230891585;0;True;49;1;8.439786673910016
62;62;1445944236;2.14362549782;0.7331191301350001;0.0351164937019;0;True;49;1;8.439786673910016
63;63;1445944236;2.14360761642;0.733113467693;0.0351184085011;0;True;49;1;8.439786673910016
64;64;1445944236;2.14365124702;0.7333077192309999;0.035121422261;0;True;49;1;8.439786673910016
65;65;1445944236;2.1436445713;0.733266055584;0.035112798214;0;True;49;1;8.439786673910016
66;66;1445944236;2.1436252594;0.733083665371;0.0351170524955;0;True;49;1;8.439786673910016
67;67;1445944236;2.14363002777;0.733111441135;0.0351188108325;0;True;49;1;8.439786673910016
68;68;1445944236;2.14361691475;0.73322224617;0.0351439677179;0;True;49;1;8.439786673910016
69;69;1445944236;2.14363598824;0.7332491278650001;0.0351276621222;0;True;49;1;8.439786673910016
70;70;1445944236;2.14365315437;0.733236134052;0.0351145938039;0;True;49;1;8.439786673910016
71;71;1445944236;2.1436438560499997;0.733152806759;0.035115208476800004;0;True;49;1;8.439786673910016
72;72;1445944236;2.14363074303;0.7332761287690001;0.035125788301199994;0;True;49;1;8.439786673910016
73;73;1445944236;2.14364671707;0.733189225197;0.0351179614663;0;True;49;1;8.439786673910016
74;74;1445944236;2.14362072945;0.733190774918;0.0351287648082;0;True;49;1;8.439786673910016
75;75;1445944236;2.14354228973;0.7331110835079999;0.0351508073509;0;True;49;1;8.439786673910016
76;76;1445944236;2.1436483859999997;0.7331858873370001;0.0351142920554;0;True;49;1;8.439786673910016
77;77;1445944236;2.1434264183000002;0.733033239841;0.0352361574769;0;True;49;1;8.439786673910016
78;78;1445944236;2.14348125458;0.7330507040019999;0.0351834744215;0;True;49;1;8.439786673910016
79;79;1445944236;2.14362955093;0.7331676483149999;0.0351085737348;0;True;49;1;8.439786673910016
80;80;1445944236;2.1436405181900002;0.733240664005;0.0351174660027;0;True;49;1;8.439786673910016
81;81;1445944236;2.1436033248900004;0.733116865158;0.035124409943800006;0;True;49;1;8.439786673910016
82;82;1445944236;2.14363360405;0.733156085014;0.0351126343012;0;True;49;1;8.439786673910016
83;83;1445944236;2.14363265038;0.733217656612;0.0351139754057;0;True;49;1;8.439786673910016
84;84;1445944236;2.14360427856;0.7331184148790001;0.0351151451468;0;True;49;1;8.439786673910016
85;85;1445944236;2.14361691475;0.733246922493;0.0351205915213;0;True;49;1;8.439786673910016
86;86;1445944236;2.14365673065;0.733260393143;0.0351131483912;0;True;49;1;8.439786673910016
87;87;1445944236;2.14359688759;0.7331261038779999;0.0351241230965;0;True;49;1;8.439786673910016
88;88;1445944236;2.1436419487;0.733292281628;0.0351175777614;0;True;49;1;8.439786673910016
89;89;1445944236;2.14353990555;0.7331083416940001;0.0351870059967;0;True;49;1;8.439786673910016
90;90;1445944236;2.1436393261;0.7332926392560001;0.035124249756300005;0;True;49;1;8.439786673910016
91;91;1445944236;2.14361310005;0.73311150074;0.0351252928376;0;True;49;1;8.439786673910016
92;92;1445944236;2.1436471939099997;0.7332776188850001;0.035121563822;0;True;49;1;8.439786673910016
93;93;1445944236;2.14363861084;0.733194410801;0.03513133153319999;0;True;49;1;8.439786673910016
94;94;1445944236;2.14354634285;0.733092427254;0.0351541899145;0;True;49;1;8.439786673910016
95;95;1445944236;2.1436197757700004;0.733135163784;0.0351229980588;0;True;49;1;8.439786673910016
96;96;1445944236;2.1435244083400002;0.733102858067;0.035186853259800005;0;True;49;1;8.439786673910016
97;97;1445944236;2.14364624023;0.733250379562;0.0351365543902;0;True;49;1;8.439786673910016
98;98;1445944236;2.1435761451700004;0.7331635355949999;0.035153333097699996;0;True;49;1;8.439786673910016
99;99;1445944236;2.14365029335;0.733249187469;0.035119879990800004;0;True;49;1;8.439786673910016
100;100;1445944236;2.1435582637799997;0.733116090298;0.035138040781;0;True;49;1;8.439786673910016
101;101;1445944236;2.14363408089;0.733255326748;0.035127889365;0;True;49;1;8.439786673910016
102;102;1445944236;2.1435725688900003;0.733164608479;0.03517115861180001;0;True;49;1;8.439786673910016
103;103;1445944236;2.1435790062;0.733107328415;0.0351537801325;0;True;49;1;8.439786673910016
104;104;1445944236;2.14365649223;0.733180105686;0.03511897102;0;True;49;1;8.439786673910016
105;105;1445944236;2.14361858368;0.733242034912;0.03514210507269999;0;True;49;1;8.439786673910016
106;106;1445944236;2.14364933968;0.733265995979;0.0351167917252;0;True;49;1;8.439786673910016
107;107;1445944236;2.14365649223;0.7332192659379999;0.0351288989186;0;True;49;1;8.439786673910016
108;108;1445944236;2.14349532127;0.733120679855;0.0352363660932;0;True;49;1;8.439786673910016
109;109;1445944236;2.1436517238599997;0.7332198023800001;0.035117678344199994;0;True;49;1;8.439786673910016
110;110;1445944236;2.14363574982;0.733248949051;0.0351259186864;0;True;49;1;8.439786673910016
111;111;1445944236;2.14365506172;0.7332022190090001;0.035113401711;0;True;49;1;8.439786673910016
112;112;1445944236;2.1436419487;0.733115673065;0.035121891647600004;0;True;49;1;8.439786673910016
113;113;1445944236;2.14364433289;0.733170568943;0.0351104475558;0;True;49;1;8.439786673910016
114;114;1445944236;2.14351034164;0.7330620884899999;0.0351732298732;0;True;49;1;8.439786673910016
115;115;1445944236;2.14358711243;0.7330895066259999;0.0351211205125;0;True;49;1;8.439786673910016
116;116;1445944236;2.14365386963;0.733267068863;0.0351142957807;0;True;49;1;8.439786673910016
117;117;1445944236;2.14366602898;0.733210206032;0.035122692585;0;True;49;1;8.439786673910016
118;118;1445944236;2.14361572266;0.733248233795;0.0351300276816;0;True;49;1;8.439786673910016
119;119;1445944236;2.1436548233000003;0.733268499374;0.0351170450449;0;True;49;1;8.439786673910016
120;120;1445944236;2.14361715317;0.733198642731;0.0351350605488;0;True;49;1;8.439786673910016
121;121;1445944236;2.14365053177;0.733260452747;0.0351204797626;0;True;49;1;8.439786673910016
122;122;1445944236;2.14361953735;0.733095765114;0.035135004669400005;0;True;49;1;8.439786673910016
123;123;1445944236;2.14363789558;0.733144402504;0.035131435841300004;0;True;49;1;8.439786673910016
124;124;1445944236;2.14364671707;0.7332388162610001;0.0351203307509;0;True;49;1;8.439786673910016
125;125;1445944236;2.14363956451;0.733204126358;0.0351269170642;0;True;49;1;8.439786673910016
126;126;1445944236;2.14364862442;0.733256459236;0.0351160615683;0;True;49;1;8.439786673910016
127;127;1445944236;2.14352679253;0.733119487762;0.035182148218199996;0;True;49;1;8.439786673910016
128;128;1445944236;2.14364767075;0.733321666718;0.035120714455800006;0;True;49;1;8.439786673910016
129;129;1445944236;2.14363622665;0.73324662447;0.0351121164858;0;True;49;1;8.439786673910016
130;130;1445944236;2.14356279373;0.733230769634;0.0351795479655;0;True;49;1;8.439786673910016
131;131;1445944236;2.14359378815;0.7332796454430001;0.0351582281291;0;True;49;1;8.439786673910016
132;132;1445944236;2.14350008965;0.733127295971;0.0352115705609;0;True;49;1;8.439786673910016
133;133;1445944236;2.14360117912;0.733087599277;0.0351207107306;0;True;49;1;8.439786673910016
134;134;1445944236;2.1435887813599996;0.733137190342;0.035122808069;0;True;49;1;8.439786673910016
135;135;1445944236;2.14358186722;0.733184576035;0.0351273193955;0;True;49;1;8.439786673910016
136;136;1445944236;2.14351534843;0.73313498497;0.035199172794800004;0;True;49;1;8.439786673910016
137;137;1445944236;2.14364480972;0.7332465052600001;0.0351131483912;0;True;49;1;8.439786673910016
138;138;1445944236;2.14364767075;0.733238041401;0.0351158156991;0;True;49;1;8.439786673910016
139;139;1445944236;2.14364886284;0.7332450151440001;0.0351190976799;0;True;49;1;8.439786673910016
140;140;1445944236;2.1436469554900004;0.733209908009;0.035127911716699996;0;True;49;1;8.439786673910016
141;141;1445944236;2.1436517238599997;0.733247995377;0.0351338349283;0;True;49;1;8.439786673910016
142;142;1445944236;2.14361405373;0.733151376247;0.0351250059903;0;True;49;1;8.439786673910016
143;143;1445944236;2.1436471939099997;0.733160793781;0.035116136074099996;0;True;49;1;8.439786673910016
144;144;1445944236;2.14347553253;0.733050942421;0.035191029310199996;0;True;49;1;8.439786673910016
145;145;1445944236;2.14365291595;0.7332521080969999;0.0351161286235;0;True;49;1;8.439786673910016
146;146;1445944236;2.14359140396;0.7331714630130001;0.035132370889199994;0;True;49;1;8.439786673910016
147;147;1445944236;2.14364147186;0.7332430481910001;0.0351055860519;0;True;49;1;8.439786673910016
148;148;1445944236;2.14364433289;0.733258843422;0.0351084731519;0;True;49;1;8.439786673910016
149;149;1445944236;2.14365339279;0.733254134655;0.0351149812341;0;True;49;1;8.439786673910016
150;150;1445944236;2.14360928535;0.733091235161;0.0351215153933;0;True;49;1;8.439786673910016
151;151;1445944236;2.1436350345599995;0.733291566372;0.0351172983646;0;True;49;1;8.439786673910016
152;152;1445944236;2.14363646507;0.733194291592;0.0351201109588;0;True;49;1;8.439786673910016
153;153;1445944236;2.14349341393;0.7330464720730001;0.0351839996874;0;True;49;1;8.439786673910016
154;154;1445944236;2.14364337921;0.733156442642;0.0351307056844;0;True;49;1;8.439786673910016
155;155;1445944236;2.14363145828;0.733181536198;0.0351246409118;0;True;49;1;8.439786673910016
156;156;1445944236;2.14363622665;0.7332534193989999;0.0351233780384;0;True;49;1;8.439786673910016
157;157;1445944236;2.14364409447;0.733237028122;0.0351207740605;0;True;49;1;8.439786673910016
158;158;1445944236;2.14350652695;0.733139157295;0.0351952500641;0;True;49;1;8.439786673910016
159;159;1445944236;2.14360308647;0.733102202415;0.0351178906858;0;True;49;1;8.439786673910016
160;160;1445944236;2.14365649223;0.7332456111910001;0.0351210571826;0;True;49;1;8.439786673910016
161;161;1445944236;2.14365029335;0.7332553863529999;0.0351116769016;0;True;49;1;8.439786673910016
162;162;1445944236;2.14357566833;0.733138084412;0.0351494289935;0;True;49;1;8.439786673910016
163;163;1445944236;2.1436409950299997;0.733242988586;0.0351138748229;0;True;49;1;8.439786673910016
164;164;1445944236;2.14361763;0.733212828636;0.0351346768439;0;True;49;1;8.439786673910016
165;165;1445944236;2.14360642433;0.733148276806;0.035111296922;0;True;49;1;8.439786673910016
166;166;1445944236;2.14363574982;0.7332897186280001;0.0351125523448;0;True;49;1;8.439786673910016
167;167;1445944236;2.14362168312;0.7331511378290001;0.0351196713746;0;True;49;1;8.439786673910016
168;168;1445944236;2.14348340034;0.7331265211110001;0.0352219007909;0;True;49;1;8.439786673910016
169;169;1445944236;2.1436429023700003;0.733242750168;0.03511409834030001;0;True;49;1;8.439786673910016
170;170;1445944236;2.14356589317;0.733101129532;0.0351373292506;0;True;49;1;8.439786673910016
171;171;1445944236;2.14363956451;0.733266413212;0.0351109206676;0;True;49;1;8.439786673910016
172;172;1445944236;2.1434879303;0.7330561876299999;0.035172320902300006;0;True;49;1;8.439786673910016
173;173;1445944236;2.1436352729799997;0.7332994937899999;0.035106159746599995;0;True;49;1;8.439786673910016
174;174;1445944236;2.14364790916;0.733271956444;0.035110954195300005;0;True;49;1;8.439786673910016
175;175;1445944236;2.1436450481400002;0.7332378029819999;0.0351056940854;0;True;49;1;8.439786673910016
176;176;1445944236;2.14360642433;0.733137607574;0.035107098519800005;0;True;49;1;8.439786673910016
177;177;1445944236;2.14360880852;0.733082473278;0.035132996738;0;True;49;1;8.439786673910016
178;178;1445944236;2.1434724330900004;0.733042240143;0.035187538713199996;0;True;49;1;8.439786673910016
179;179;1445944236;2.14366006851;0.733155548573;0.035111524164699995;0;True;49;1;8.439786673910016
180;180;1445944236;2.14361000061;0.733127474785;0.035119641572199996;0;True;49;1;8.439786673910016
181;181;1445944236;2.1436588764200004;0.733269155025;0.035105403512699994;0;True;49;1;8.439786673910016
182;182;1445944236;2.1435046196000003;0.73300409317;0.0351678915322;0;True;49;1;8.439786673910016
183;183;1445944236;2.14357566833;0.73314923048;0.035138823092;0;True;49;1;8.439786673910016
184;184;1445944236;2.14361023903;0.733151376247;0.035114120692;0;True;49;1;8.439786673910016
185;185;1445944236;2.14345908165;0.733024895191;0.035192031413300004;0;True;49;1;8.439786673910016
186;186;1445944236;2.14364361763;0.7331697344779999;0.035105843097;0;True;49;1;8.439786673910016
187;187;1445944236;2.14364171028;0.733251154423;0.0351096987724;0;True;49;1;8.439786673910016
188;188;1445944236;2.14358615875;0.733236551285;0.0351430289447;0;True;49;1;8.439786673910016
189;189;1445944236;2.14354395866;0.7331484556199999;0.0351596772671;0;True;49;1;8.439786673910016
190;190;1445944236;2.14364600182;0.733245372772;0.035122364759400004;0;True;49;1;8.439786673910016
191;191;1445944236;2.14356327057;0.733194410801;0.0351675078273;0;True;49;1;8.439786673910016
192;192;1445944236;2.143638134;0.733259558678;0.0351149626076;0;True;49;1;8.439786673910016
193;193;1445944236;2.14362883568;0.733187139034;0.035134840756699995;0;True;49;1;8.439786673910016
194;194;1445944236;2.14365768433;0.7332340478899999;0.035110399127;0;True;49;1;8.439786673910016
195;195;1445944236;2.14359784126;0.7331356406209999;0.0351166427135;0;True;49;1;8.439786673910016
196;196;1445944236;2.1436445713;0.733286499977;0.0351140573621;0;True;49;1;8.439786673910016
197;197;1445944236;2.14363431931;0.733206689358;0.03511948511;0;True;49;1;8.439786673910016
198;198;1445944236;2.14364409447;0.733192801476;0.0351123251021;0;True;49;1;8.439786673910016
199;199;1445944236;2.1436352729799997;0.7331440448759999;0.035114757716699994;0;True;49;1;8.439786673910016
200;200;1445944236;2.14365649223;0.733178257942;0.0351151004434;0;True;49;1;8.439786673910016
201;201;1445944236;2.14355492592;0.73320287466;0.0351671390235;0;True;49;1;8.439786673910016
202;202;1445944236;2.14365005493;0.73326253891;0.03511040285230001;0;True;49;1;8.439786673910016
203;203;1445944236;2.1436316967;0.73323816061;0.035109680146;0;True;49;1;8.439786673910016
204;204;1445944236;2.14363336563;0.733277440071;0.0351084657013;0;True;49;1;8.439786673910016
205;205;1445944236;2.14339280128;0.733051359653;0.035279519855999995;0;True;49;1;8.439786673910016
206;206;1445944236;2.14358186722;0.733234643936;0.0351420119405;0;True;49;1;8.439786673910016
207;207;1445944236;2.14363956451;0.7332437634469999;0.0351072922349;0;True;49;1;8.439786673910016
208;208;1445944236;2.1435072422;0.7331295013429999;0.0351987928152;0;True;49;1;8.439786673910016
209;209;1445944236;2.14358568192;0.733156442642;0.0351412557065;0;True;49;1;8.439786673910016
210;210;1445944236;2.14356541634;0.733118772507;0.0351174473763;0;True;49;1;8.439786673910016
211;211;1445944236;2.1436495780900002;0.733211219311;0.03511204198;0;True;49;1;8.439786673910016
212;212;1445944236;2.14363884926;0.733168780804;0.0351147539914;0;True;49;1;8.439786673910016
213;213;1445944236;2.14366865158;0.7332506775859999;0.0351125299931;0;True;49;1;8.439786673910016
214;214;1445944236;2.1436355114;0.733288228512;0.0351160913706;0;True;49;1;8.439786673910016
215;215;1445944236;2.1436419487;0.733300983906;0.035110380500599996;0;True;49;1;8.439786673910016
216;216;1445944236;2.14365124702;0.733258485794;0.0351183153689;0;True;49;1;8.439786673910016
217;217;1445944236;2.1435754299200003;0.733151614666;0.035177167505;0;True;49;1;8.439786673910016
218;218;1445944236;2.14363193512;0.733155012131;0.0351187251508;0;True;49;1;8.439786673910016
219;219;1445944236;2.14357352257;0.7331066131589999;0.0351690612733;0;True;49;1;8.439786673910016
220;220;1445944236;2.14362096786;0.733133077621;0.0351280160248;0;True;49;1;8.439786673910016
221;221;1445944236;2.14364814758;0.733216702938;0.0351107269526;0;True;49;1;8.439786673910016
222;222;1445944236;2.1436238288900005;0.733130156994;0.035128615796599996;0;True;49;1;8.439786673910016
223;223;1445944236;2.14356541634;0.733148574829;0.0351523607969;0;True;49;1;8.439786673910016
224;224;1445944236;2.1436183452599997;0.73311817646;0.0351098738611;0;True;49;1;8.439786673910016
225;225;1445944236;2.1436393261;0.733240008354;0.035103321075400006;0;True;49;1;8.439786673910016
226;226;1445944236;2.14361548424;0.7332171797750001;0.0351272374392;0;True;49;1;8.439786673910016
227;227;1445944236;2.1436383724200003;0.7332524061200001;0.0351144187152;0;True;49;1;8.439786673910016
228;228;1445944236;2.1436405181900002;0.733304977417;0.0351179391146;0;True;49;1;8.439786673910016
229;229;1445944236;2.14363336563;0.7332430481910001;0.035128720104699994;0;True;49;1;8.439786673910016
230;230;1445944236;2.14357590675;0.733137071133;0.035178571939500004;0;True;49;1;8.439786673910016
231;231;1445944236;2.1434135437;0.733004748821;0.035227108746800004;0;True;49;1;8.439786673910016
232;232;1445944236;2.14365386963;0.7332674264910001;0.035117354244;0;True;49;1;8.439786673910016
233;233;1445944236;2.14361572266;0.733129024506;0.035132009536;0;True;49;1;8.439786673910016
234;234;1445944236;2.14363646507;0.733179032803;0.0351186841726;0;True;49;1;8.439786673910016
235;235;1445944237;2.14358448982;0.73313832283;0.0351920798421;1;True;49;1;8.439786673910016
236;236;1445944237;2.1436350345599995;0.7332491278650001;0.035125423222800004;1;True;49;1;8.439786673910016
237;237;1445944237;2.14362311363;0.733122169971;0.0351223908365;1;True;49;1;8.439786673910016
238;238;1445944237;2.1436350345599995;0.733257174492;0.0351102240384;1;True;49;1;8.439786673910016
239;239;1445944237;2.1436553001400003;0.733225166798;0.0351096950471;1;True;49;1;8.439786673910016
240;240;1445944237;2.14354324341;0.7331559062;0.0351605676115;1;True;49;1;8.439786673910016
241;241;1445944237;2.14361071587;0.733201563358;0.035138957202400005;1;True;49;1;8.439786673910016
242;242;1445944237;2.14357352257;0.733138382435;0.035178553313;1;True;49;1;8.439786673910016
243;243;1445944237;2.1436409950299997;0.7331483364110001;0.0351144261658;1;True;49;1;8.439786673910016
244;244;1445944237;2.14364433289;0.733277022839;0.0351200178266;1;True;49;1;8.439786673910016
245;245;1445944237;2.1436445713;0.7332547903059999;0.035119701176900005;1;True;49;1;8.439786673910016
246;246;1445944237;2.14356398582;0.733170807362;0.035126522183400004;1;True;49;1;8.439786673910016
247;247;1445944237;2.14364624023;0.7332859039309999;0.035121653229;1;True;49;1;8.439786673910016
248;248;1445944237;2.14362478256;0.7331520318979999;0.0351188331842;1;True;49;1;8.439786673910016
249;249;1445944237;2.14365267754;0.733259141445;0.0351147167385;1;True;49;1;8.439786673910016
250;250;1445944237;2.14353895187;0.733073472977;0.035153999924699995;1;True;49;1;8.439786673910016
251;251;1445944237;2.14361715317;0.733087599277;0.0351390317082;1;True;49;1;8.439786673910016
252;252;1445944237;2.1436560154;0.733213543892;0.0351226255298;1;True;49;1;8.439786673910016
253;253;1445944237;2.1436331272099998;0.733257055283;0.035123270005;1;True;49;1;8.439786673910016
254;254;1445944237;2.14362668991;0.7331160306929999;0.0351245030761;1;True;49;1;8.439786673910016
255;255;1445944237;2.14357089996;0.7331605553630001;0.0351377278566;1;True;49;1;8.439786673910016
256;256;1445944237;2.14361643791;0.733148276806;0.0351248644292;1;True;49;1;8.439786673910016
257;257;1445944237;2.14353847504;0.733145475388;0.0351531356573;1;True;49;1;8.439786673910016
258;258;1445944237;2.14363622665;0.7332280874250001;0.0351220518351;1;True;49;1;8.439786673910016
259;259;1445944237;2.1436021328;0.733098089695;0.035137597471500005;1;True;49;1;8.439786673910016
260;260;1445944237;2.1435854435;0.733128786087;0.035132672637699994;1;True;49;1;8.439786673910016
261;261;1445944237;2.14357662201;0.733105957508;0.0351421460509;1;True;49;1;8.439786673910016
262;262;1445944237;2.14362812042;0.7331135272980001;0.0351248756051;1;True;49;1;8.439786673910016
263;263;1445944237;2.1436510086099996;0.7331744432449999;0.0351184010506;1;True;49;1;8.439786673910016
264;264;1445944237;2.14364862442;0.7331477403640001;0.0351203382015;1;True;49;1;8.439786673910016
265;265;1445944237;2.14358830452;0.7331281900409999;0.0351272039115;1;True;49;1;8.439786673910016
266;266;1445944237;2.14365506172;0.73330026865;0.0351155363023;1;True;49;1;8.439786673910016
267;267;1445944237;2.14364171028;0.733158409595;0.0351218171418;1;True;49;1;8.439786673910016
268;268;1445944237;2.14352035522;0.733018100262;0.0351690612733;1;True;49;1;8.439786673910016
269;269;1445944237;2.14366173744;0.7332534193989999;0.0351155474782;1;True;49;1;8.439786673910016
270;270;1445944237;2.14366364479;0.733203351498;0.035119965672499996;1;True;49;1;8.439786673910016
271;271;1445944237;2.14363908768;0.73324996233;0.0351197756827;1;True;49;1;8.439786673910016
272;272;1445944237;2.14357972145;0.733121275902;0.0351834744215;1;True;49;1;8.439786673910016
273;273;1445944237;2.14355754852;0.7331928610799999;0.035169206559699996;1;True;49;1;8.439786673910016
274;274;1445944237;2.14356470108;0.733081936836;0.035131845623300004;1;True;49;1;8.439786673910016
275;275;1445944237;2.14358472824;0.733200132847;0.0351419560611;1;True;49;1;8.439786673910016
276;276;1445944237;2.14354848862;0.7331249117849999;0.0351504720747;1;True;49;1;8.439786673910016
277;277;1445944237;2.14356637001;0.7332164645199999;0.035163592547199994;1;True;49;1;8.439786673910016
278;278;1445944237;2.14352464676;0.733116269112;0.0351816825569;1;True;49;1;8.439786673910016
279;279;1445944237;2.14359068871;0.7332490086560001;0.0351463705301;1;True;49;1;8.439786673910016
280;280;1445944237;2.14365243912;0.7332484722139999;0.035117171704800006;1;True;49;1;8.439786673910016
281;281;1445944237;2.14364027977;0.733253479004;0.03513069078330001;1;True;49;1;8.439786673910016
282;282;1445944237;2.1434738636;0.733029842377;0.0351937934756;1;True;49;1;8.439786673910016
283;283;1445944237;2.14356613159;0.733092665672;0.035139244049800004;1;True;49;1;8.439786673910016
284;284;1445944237;2.1436469554900004;0.733265161514;0.035117983818099996;1;True;49;1;8.439786673910016
285;285;1445944237;2.1435947418200003;0.733140826225;0.0351166427135;1;True;49;1;8.439786673910016
286;286;1445944237;2.14363956451;0.733146309853;0.0351281985641;1;True;49;1;8.439786673910016
287;287;1445944237;2.14360451698;0.733154177666;0.0351256430149;1;True;49;1;8.439786673910016
288;288;1445944237;2.14356994629;0.733117580414;0.035121474415099996;1;True;49;1;8.439786673910016
289;289;1445944237;2.14349079132;0.733119606972;0.035210814326999997;1;True;49;1;8.439786673910016
290;290;1445944237;2.14354634285;0.7332165837289999;0.035174898803199996;1;True;49;1;8.439786673910016
291;291;1445944237;2.1435701847099997;0.733172595501;0.0351654067636;1;True;49;1;8.439786673910016
292;292;1445944237;2.14355897903;0.733214914799;0.0351506359875;1;True;49;1;8.439786673910016
293;293;1445944237;2.1436438560499997;0.733252942562;0.0351253673434;1;True;49;1;8.439786673910016
294;294;1445944237;2.14362955093;0.733137369156;0.035119879990800004;1;True;49;1;8.439786673910016
295;295;1445944237;2.1434762477900002;0.733111262321;0.0352099426091;1;True;49;1;8.439786673910016
296;296;1445944237;2.14362311363;0.733244776726;0.035117626190199994;1;True;49;1;8.439786673910016
297;297;1445944237;2.14360165596;0.733159661293;0.03511666506530001;1;True;49;1;8.439786673910016
298;298;1445944237;2.14362001419;0.7331336140629999;0.03512923792;1;True;49;1;8.439786673910016
299;299;1445944237;2.14364933968;0.733267486095;0.0351181477308;1;True;49;1;8.439786673910016
300;300;1445944237;2.1436445713;0.7332437634469999;0.0351120121777;1;True;49;1;8.439786673910016
301;301;1445944237;2.14364933968;0.733267128468;0.0351196974516;1;True;49;1;8.439786673910016
302;302;1445944237;2.14362978935;0.733288288116;0.0351152457297;1;True;49;1;8.439786673910016
303;303;1445944237;2.1436212062799997;0.7332036495209999;0.0351351052523;1;True;49;1;8.439786673910016
304;304;1445944237;2.14363646507;0.733275592327;0.0351163968444;1;True;49;1;8.439786673910016
305;305;1445944237;2.1436429023700003;0.733178675175;0.0351154692471;1;True;49;1;8.439786673910016
306;306;1445944237;2.14364647865;0.733171820641;0.0351086854935;1;True;49;1;8.439786673910016
307;307;1445944237;2.14361572266;0.7331025004389999;0.0351201184094;1;True;49;1;8.439786673910016
308;308;1445944237;2.1436424255400004;0.733243942261;0.0351187549531;1;True;49;1;8.439786673910016
309;309;1445944237;2.1435537338299997;0.733106195927;0.0351863466203;1;True;49;1;8.439786673910016
310;310;1445944237;2.1436469554900004;0.7332580089569999;0.0351228602231;1;True;49;1;8.439786673910016
311;311;1445944237;2.14364981651;0.733249664307;0.0351179502904;1;True;49;1;8.439786673910016
312;312;1445944237;2.1436264514900003;0.733229160309;0.0351212136447;1;True;49;1;8.439786673910016
313;313;1445944237;2.1436316967;0.73319786787;0.0351264774799;1;True;49;1;8.439786673910016
314;314;1445944237;2.1435511112200003;0.733100354671;0.035157155245500005;1;True;49;1;8.439786673910016
315;315;1445944237;2.14362215996;0.73313087225;0.0351143628359;1;True;49;1;8.439786673910016
316;316;1445944237;2.14355325699;0.7332578301430001;0.035163491964300006;1;True;49;1;8.439786673910016
317;317;1445944237;2.14359211922;0.7331238389020001;0.0351213477552;1;True;49;1;8.439786673910016
318;318;1445944237;2.14363765717;0.733310878277;0.035116709768800006;1;True;49;1;8.439786673910016
319;319;1445944237;2.1436166763299997;0.733166575432;0.0351082645357;1;True;49;1;8.439786673910016
320;320;1445944237;2.14356660843;0.733134686947;0.035127196461;1;True;49;1;8.439786673910016
321;321;1445944237;2.14362835884;0.73322892189;0.0351171307266;1;True;49;1;8.439786673910016
322;322;1445944237;2.14363145828;0.7332490086560001;0.035124562680699994;1;True;49;1;8.439786673910016
323;323;1445944237;2.14365053177;0.733183503151;0.0351132452488;1;True;49;1;8.439786673910016
324;324;1445944237;2.1435685157799997;0.733100473881;0.0351257398725;1;True;49;1;8.439786673910016
325;325;1445944237;2.14356613159;0.73322981596;0.0351666621864;1;True;49;1;8.439786673910016
326;326;1445944237;2.14364361763;0.733282566071;0.0351161025465;1;True;49;1;8.439786673910016
327;327;1445944237;2.14362430573;0.733096003532;0.0351284556091;1;True;49;1;8.439786673910016
328;328;1445944237;2.14362168312;0.7331267595290001;0.0351139232516;1;True;49;1;8.439786673910016
329;329;1445944237;2.1436002254499997;0.733149170876;0.0351105630398;1;True;49;1;8.439786673910016
330;330;1445944237;2.14364218712;0.733231008053;0.0351152941585;1;True;49;1;8.439786673910016
331;331;1445944237;2.14364624023;0.7331342101100001;0.0351085364819;1;True;49;1;8.439786673910016
332;332;1445944237;2.14364624023;0.733269870281;0.0351234227419;1;True;49;1;8.439786673910016
333;333;1445944237;2.1436290741;0.7332315444949999;0.0351217202842;1;True;49;1;8.439786673910016
334;334;1445944237;2.14364624023;0.733279466629;0.0351155996323;1;True;49;1;8.439786673910016
335;335;1445944237;2.14354920387;0.733085870743;0.0351826511323;1;True;49;1;8.439786673910016
336;336;1445944237;2.14355444908;0.7331704497339999;0.0351479016244;1;True;49;1;8.439786673910016
337;337;1445944237;2.14355134964;0.733099460602;0.035121608525499996;1;True;49;1;8.439786673910016
338;338;1445944237;2.1436562538099997;0.733202397823;0.0351089425385;1;True;49;1;8.439786673910016
339;339;1445944237;2.1436495780900002;0.733147621155;0.035110190510699996;1;True;49;1;8.439786673910016
340;340;1445944237;2.14361071587;0.733115017414;0.0351214073598;1;True;49;1;8.439786673910016
341;341;1445944237;2.14347028732;0.733022928238;0.0351894795895;1;True;49;1;8.439786673910016
342;342;1445944237;2.14364552498;0.733142077923;0.0351188629866;1;True;49;1;8.439786673910016
343;343;1445944237;2.14364266396;0.7332606911660001;0.0351170524955;1;True;49;1;8.439786673910016
344;344;1445944237;2.14366984367;0.7332111001010001;0.035109978169199994;1;True;49;1;8.439786673910016
345;345;1445944237;2.1436009407;0.7331030368800001;0.0351249575615;1;True;49;1;8.439786673910016
346;346;1445944237;2.1436080932599997;0.73316180706;0.0351235233247;1;True;49;1;8.439786673910016
347;347;1445944237;2.14349961281;0.733054578304;0.03519045934080001;1;True;49;1;8.439786673910016
348;348;1445944237;2.14343309402;0.733088493347;0.0352710746229;1;True;49;1;8.439786673910016
349;349;1445944237;2.14365124702;0.7332525253300001;0.035128708928800004;1;True;49;1;8.439786673910016
350;350;1445944237;2.14359998703;0.733088552952;0.0351234227419;1;True;49;1;8.439786673910016
351;351;1445944237;2.14351153374;0.733016431332;0.0351672284305;1;True;49;1;8.439786673910016
352;352;1445944237;2.14364600182;0.7332808971410001;0.0351165980101;1;True;49;1;8.439786673910016
353;353;1445944237;2.1436471939099997;0.7331758737559999;0.035113710910099995;1;True;49;1;8.439786673910016
354;354;1445944237;2.14363288879;0.733129024506;0.035119429230699994;1;True;49;1;8.439786673910016
355;355;1445944237;2.14364814758;0.7331479191779999;0.035115793347400004;1;True;49;1;8.439786673910016
356;356;1445944237;2.14361405373;0.7331248521799999;0.0351331084967;1;True;49;1;8.439786673910016
357;357;1445944237;2.14350032806;0.7329908609389999;0.0351813733578;1;True;49;1;8.439786673910016
358;358;1445944237;2.1436269283300002;0.73319542408;0.0351444371045;1;True;49;1;8.439786673910016
359;359;1445944237;2.14360976219;0.7330937981610001;0.0351430661976;1;True;49;1;8.439786673910016
360;360;1445944237;2.14363956451;0.7331375479699999;0.0351223908365;1;True;49;1;8.439786673910016
361;361;1445944237;2.14362549782;0.733221590519;0.0351193025708;1;True;49;1;8.439786673910016
362;362;1445944237;2.1436429023700003;0.733145177364;0.03511990606780001;1;True;49;1;8.439786673910016
363;363;1445944237;2.14363026619;0.7331207394600001;0.0351330041885;1;True;49;1;8.439786673910016
364;364;1445944237;2.14363765717;0.733193218708;0.0351301953197;1;True;49;1;8.439786673910016
365;365;1445944237;2.1436424255400004;0.7331315279009999;0.0351287126541;1;True;49;1;8.439786673910016
366;366;1445944237;2.14348006248;0.733033716679;0.035187792033;1;True;49;1;8.439786673910016
367;367;1445944237;2.1436085701;0.733138024807;0.0351312160492;1;True;49;1;8.439786673910016
368;368;1445944237;2.14359974861;0.733217060566;0.0351499319077;1;True;49;1;8.439786673910016
369;369;1445944237;2.14360308647;0.7331646680830001;0.035132534802;1;True;49;1;8.439786673910016
370;370;1445944237;2.14358758926;0.7331369519230001;0.035167876631;1;True;49;1;8.439786673910016
371;371;1445944237;2.1436116695400003;0.733139634132;0.0351203195751;1;True;49;1;8.439786673910016
372;372;1445944237;2.1436309814500003;0.733113706112;0.0351177603006;1;True;49;1;8.439786673910016
373;373;1445944237;2.14349365234;0.733041226864;0.0351775474846;1;True;49;1;8.439786673910016
374;374;1445944237;2.14364814758;0.733271062374;0.0351173654199;1;True;49;1;8.439786673910016
375;375;1445944237;2.1435828208900003;0.7331302165989999;0.0351669564843;1;True;49;1;8.439786673910016
376;376;1445944237;2.14361524582;0.733160614967;0.035122402012300005;1;True;49;1;8.439786673910016
377;377;1445944237;2.14365792274;0.733266472816;0.0351194255054;1;True;49;1;8.439786673910016
378;378;1445944237;2.14367032051;0.733252048492;0.035128872841599997;1;True;49;1;8.439786673910016
379;379;1445944237;2.14364600182;0.733238756657;0.0351205728948;1;True;49;1;8.439786673910016
380;380;1445944237;2.14358139038;0.7332239151000001;0.035156093537800005;1;True;49;1;8.439786673910016
381;381;1445944237;2.1436650753;0.733241438866;0.0351153425872;1;True;49;1;8.439786673910016
382;382;1445944237;2.1435687542;0.7331764101980001;0.0351646728814;1;True;49;1;8.439786673910016
383;383;1445944237;2.14358067513;0.733183979988;0.0351626798511;1;True;49;1;8.439786673910016
384;384;1445944237;2.1436655521400003;0.7332592010500001;0.035115711391;1;True;49;1;8.439786673910016
385;385;1445944237;2.14358377457;0.733137309551;0.0351853109896;1;True;49;1;8.439786673910016
386;386;1445944237;2.14365983009;0.733264684677;0.035126522183400004;1;True;49;1;8.439786673910016
387;387;1445944237;2.14356946945;0.733184397221;0.0351720526814;1;True;49;1;8.439786673910016
388;388;1445944237;2.1436548233000003;0.7332608103749999;0.035121534019699994;1;True;49;1;8.439786673910016
389;389;1445944237;2.14348006248;0.733033418655;0.0351991429925;1;True;49;1;8.439786673910016
390;390;1445944237;2.1434967517900003;0.7330029010770001;0.035189129412199996;1;True;49;1;8.439786673910016
391;391;1445944237;2.14365673065;0.733198344707;0.0351204201579;1;True;49;1;8.439786673910016
392;392;1445944237;2.1436190605200003;0.733121752739;0.0351344496012;1;True;49;1;8.439786673910016
393;393;1445944237;2.1435012817400003;0.733139336109;0.0352036729455;1;True;49;1;8.439786673910016
394;394;1445944237;2.14359974861;0.733156263828;0.0351494178176;1;True;49;1;8.439786673910016
395;395;1445944237;2.14364528656;0.733245134354;0.0351180396974;1;True;49;1;8.439786673910016
396;396;1445944237;2.14365363121;0.7332608103749999;0.0351193100214;1;True;49;1;8.439786673910016
397;397;1445944237;2.14363670349;0.733204722404;0.035130277276;1;True;49;1;8.439786673910016
398;398;1445944237;2.14361000061;0.733097195625;0.0351113416255;1;True;49;1;8.439786673910016
399;399;1445944237;2.1436562538099997;0.73324662447;0.035114377737;1;True;49;1;8.439786673910016
400;400;1445944237;2.14364910126;0.733251094818;0.0351081080735;1;True;49;1;8.439786673910016
401;401;1445944237;2.14361429214;0.733086645603;0.0351339392364;1;True;49;1;8.439786673910016
402;402;1445944237;2.14364027977;0.7332375049590001;0.0351177826524;1;True;49;1;8.439786673910016
403;403;1445944237;2.14365363121;0.73328769207;0.0351224206388;1;True;49;1;8.439786673910016
404;404;1445944237;2.1436309814500003;0.733201444149;0.0351212732494;1;True;49;1;8.439786673910016
405;405;1445944237;2.14365911484;0.7332496047020001;0.035116307437400004;1;True;49;1;8.439786673910016
406;406;1445944237;2.14363026619;0.733141601086;0.0351166725159;1;True;49;1;8.439786673910016
407;407;1445944237;2.14359760284;0.733082532883;0.035121269524099996;1;True;49;1;8.439786673910016
408;408;1445944237;2.1436626911200003;0.7332933545110001;0.035120006650699996;1;True;49;1;8.439786673910016
409;409;1445944237;2.1435973644299997;0.733124375343;0.0351751595736;1;True;49;1;8.439786673910016
410;410;1445944237;2.1436355114;0.73314011097;0.0351134054363;1;True;49;1;8.439786673910016
411;411;1445944237;2.14357209206;0.733105421066;0.035174883902099996;1;True;49;1;8.439786673910016
412;412;1445944237;2.14362454414;0.733189582825;0.0351312533021;1;True;49;1;8.439786673910016
413;413;1445944237;2.14351177216;0.733129858971;0.035195749252999994;1;True;49;1;8.439786673910016
414;414;1445944237;2.14340519905;0.732973694801;0.0352373197675;1;True;49;1;8.439786673910016
415;415;1445944237;2.14366054535;0.7332000732420001;0.0351088829339;1;True;49;1;8.439786673910016
416;416;1445944237;2.1435775756799997;0.7331417202949999;0.035166054964099996;1;True;49;1;8.439786673910016
417;417;1445944237;2.14360070229;0.733073532581;0.035117216408300005;1;True;49;1;8.439786673910016
418;418;1445944237;2.1436495780900002;0.7332544922830001;0.0351142287254;1;True;49;1;8.439786673910016
419;419;1445944237;2.1436369419099996;0.733147025108;0.035115625709300005;1;True;49;1;8.439786673910016
420;420;1445944237;2.1435840129900003;0.733121454716;0.0351156331599;1;True;49;1;8.439786673910016
421;421;1445944237;2.14355897903;0.7331282496449999;0.0351284742355;1;True;49;1;8.439786673910016
422;422;1445944237;2.14365816116;0.7331771254539999;0.035101260989900004;1;True;49;1;8.439786673910016
423;423;1445944237;2.14363956451;0.733263731003;0.0351062901318;1;True;49;1;8.439786673910016
424;424;1445944237;2.14363765717;0.733235180378;0.035108909010900004;1;True;49;1;8.439786673910016
425;425;1445944237;2.14365053177;0.733211815357;0.0351127311587;1;True;49;1;8.439786673910016
426;426;1445944237;2.14366221428;0.73321968317;0.035105023533099994;1;True;49;1;8.439786673910016
427;427;1445944237;2.14363288879;0.733234226704;0.035105176269999996;1;True;49;1;8.439786673910016
428;428;1445944237;2.14364123344;0.733274042606;0.0351150892675;1;True;49;1;8.439786673910016
429;429;1445944237;2.14360380173;0.7331911921500001;0.0351375192404;1;True;49;1;8.439786673910016
430;430;1445944237;2.14364075661;0.733252644539;0.035106793046;1;True;49;1;8.439786673910016
431;431;1445944237;2.14365029335;0.7331698536869999;0.035102616995599994;1;True;49;1;8.439786673910016
432;432;1445944237;2.1436214447;0.7332363724709999;0.035106562078;1;True;49;1;8.439786673910016
433;433;1445944237;2.14364862442;0.733215928078;0.0351079627872;1;True;49;1;8.439786673910016
434;434;1445944237;2.14361476898;0.7330961823459999;0.0351123027503;1;True;49;1;8.439786673910016
435;435;1445944237;2.1436252594;0.7330750226970001;0.0351126044989;1;True;49;1;8.439786673910016
436;436;1445944237;2.1435091495500003;0.733117520809;0.0351977311075;1;True;49;1;8.439786673910016
437;437;1445944237;2.14364004135;0.733165323734;0.0351145192981;1;True;49;1;8.439786673910016
438;438;1445944237;2.1436309814500003;0.733238518238;0.0351017452776;1;True;49;1;8.439786673910016
439;439;1445944237;2.1436078548400004;0.733113765717;0.035116262733900006;1;True;49;1;8.439786673910016
440;440;1445944237;2.1436510086099996;0.733185708523;0.03509940207;1;True;49;1;8.439786673910016
441;441;1445944237;2.14364600182;0.733306407928;0.0351140834391;1;True;49;1;8.439786673910016
442;442;1445944237;2.14357590675;0.733151376247;0.0351261049509;1;True;49;1;8.439786673910016
443;443;1445944237;2.1435739994;0.733196616173;0.035163484513800004;1;True;49;1;8.439786673910016
444;444;1445944237;2.14353704453;0.7331064939499999;0.0351677052677;1;True;49;1;8.439786673910016
445;445;1445944237;2.1434326171900002;0.733053505421;0.0352217964828;1;True;49;1;8.439786673910016
446;446;1445944237;2.14364886284;0.7332985401150001;0.0351107008755;1;True;49;1;8.439786673910016
447;447;1445944237;2.14361286163;0.73319196701;0.0351186580956;1;True;49;1;8.439786673910016
448;448;1445944237;2.14364218712;0.7332594990729999;0.0351105742157;1;True;49;1;8.439786673910016
449;449;1445944237;2.14364886284;0.733258903027;0.0351015254855;1;True;49;1;8.439786673910016
450;450;1445944237;2.1436398029299997;0.733246564865;0.035109892487499995;1;True;49;1;8.439786673910016
451;451;1445944237;2.14360284805;0.733146607876;0.0351118333638;1;True;49;1;8.439786673910016
452;452;1445944237;2.1435170173599998;0.7330636382100001;0.0351544767618;1;True;49;1;8.439786673910016
453;453;1445944237;2.14355802536;0.7330920100210001;0.0351374484599;1;True;49;1;8.439786673910016
454;454;1445944237;2.1436424255400004;0.7332825064659999;0.0351195670664;1;True;49;1;8.439786673910016
455;455;1445944237;2.14355039597;0.7331032156939999;0.03514553233980001;1;True;49;1;8.439786673910016
456;456;1445944237;2.14359259605;0.7331384420389999;0.0351189114153;1;True;49;1;8.439786673910016
457;457;1445944237;2.14361691475;0.7331754565240001;0.035128917545099995;1;True;49;1;8.439786673910016
458;458;1445944237;2.1436429023700003;0.733306467533;0.035117585212;1;True;49;1;8.439786673910016
459;459;1445944237;2.14364671707;0.733217597008;0.0351094305515;1;True;49;1;8.439786673910016
460;460;1445944237;2.14345431328;0.733042359352;0.0352208316326;1;True;49;1;8.439786673910016
461;461;1445944237;2.1436510086099996;0.7332581877709999;0.03511864691969999;1;True;49;1;8.439786673910016
462;462;1445944237;2.14362454414;0.733140826225;0.0351366326213;1;True;49;1;8.439786673910016
463;463;1445944237;2.1435832977300002;0.733117759228;0.0351239666343;1;True;49;1;8.439786673910016
464;464;1445944237;2.14365386963;0.733250558376;0.0351156517863;1;True;49;1;8.439786673910016
465;465;1445944237;2.1436510086099996;0.733299136162;0.035117458552099995;1;True;49;1;8.439786673910016
466;466;1445944237;2.14347887039;0.733080029488;0.035189565271099996;1;True;49;1;8.439786673910016
467;467;1445944237;2.14364361763;0.733261108398;0.0351296551526;1;True;49;1;8.439786673910016
468;468;1445944237;2.14352583885;0.733133077621;0.035186432302;1;True;49;1;8.439786673910016
469;469;1445944237;2.14360404015;0.733112096786;0.0351282805204;1;True;49;1;8.439786673910016
470;470;1445944237;2.1436133384700002;0.7331048250200001;0.0351271107793;1;True;49;1;8.439786673910016
471;471;1445944237;2.14348196983;0.7331306338310001;0.0352091304958;1;True;49;1;8.439786673910016
472;472;1445944237;2.1436560154;0.733203947544;0.0351132974029;1;True;49;1;8.439786673910016
473;473;1445944237;2.14360404015;0.733156323433;0.03511361032719999;1;True;49;1;8.439786673910016
474;474;1445944238;2.14364337921;0.7331915497779999;0.0351158715785;2;True;49;1;8.439786673910016
475;475;1445944238;2.14364981651;0.7332640290260001;0.0351196825504;2;True;49;1;8.439786673910016
476;476;1445944238;2.14360976219;0.733083844185;0.0351326651871;2;True;49;1;8.439786673910016
477;477;1445944238;2.14349484444;0.733131110668;0.0352049805224;2;True;49;1;8.439786673910016
478;478;1445944238;2.1435685157799997;0.7332363724709999;0.0351665578783;2;True;49;1;8.439786673910016
479;479;1445944238;2.14357233047;0.7331473231319999;0.0351568162441;2;True;49;1;8.439786673910016
480;480;1445944238;2.1436126232099997;0.7331565618520001;0.0351190008223;2;True;49;1;8.439786673910016
481;481;1445944238;2.14365386963;0.733263790607;0.035122111439699996;2;True;49;1;8.439786673910016
482;482;1445944238;2.14365911484;0.7332552075390001;0.0351181775331;2;True;49;1;8.439786673910016
483;483;1445944238;2.14364886284;0.7333164811130001;0.0351179279387;2;True;49;1;8.439786673910016
484;484;1445944238;2.14363646507;0.7330861091609999;0.0351131260395;2;True;49;1;8.439786673910016
485;485;1445944238;2.14365911484;0.733273386955;0.03511728718880001;2;True;49;1;8.439786673910016
486;486;1445944238;2.14346981049;0.733047425747;0.035207580775000004;2;True;49;1;8.439786673910016
487;487;1445944238;2.14359021187;0.733163177967;0.0351565591991;2;True;49;1;8.439786673910016
488;488;1445944238;2.14361071587;0.733287096024;0.0351350717247;2;True;49;1;8.439786673910016
489;489;1445944238;2.14366054535;0.733186900616;0.0351271703839;2;True;49;1;8.439786673910016
490;490;1445944238;2.1436457634;0.733281672001;0.035118240863099996;2;True;49;1;8.439786673910016
491;491;1445944238;2.14365434647;0.7331871986390001;0.035115636885199995;2;True;49;1;8.439786673910016
492;492;1445944238;2.14365768433;0.733215391636;0.035112779587500004;2;True;49;1;8.439786673910016
493;493;1445944238;2.1436285972599998;0.733232557774;0.0351335778832;2;True;49;1;8.439786673910016
494;494;1445944238;2.14358830452;0.733138620853;0.0351238138974;2;True;49;1;8.439786673910016
495;495;1445944238;2.14355635643;0.7331138849259999;0.0351785905659;2;True;49;1;8.439786673910016
496;496;1445944238;2.1436123848;0.7330896258349999;0.0351119600236;2;True;49;1;8.439786673910016
497;497;1445944238;2.14360642433;0.733158409595;0.03510604426259999;2;True;49;1;8.439786673910016
498;498;1445944238;2.1436116695400003;0.733105480671;0.035127021372300005;2;True;49;1;8.439786673910016
499;499;1445944238;2.14361143112;0.7331280112270001;0.0351325832307;2;True;49;1;8.439786673910016
500;500;1445944238;2.14344167709;0.733041524887;0.035202059894800006;2;True;49;1;8.439786673910016
501;501;1445944238;2.14350390434;0.7330300807950001;0.035182084888199995;2;True;49;1;8.439786673910016
502;502;1445944238;2.14364480972;0.733244657516;0.0351255722344;2;True;49;1;8.439786673910016
503;503;1445944238;2.1435585022;0.733109354973;0.0351437404752;2;True;49;1;8.439786673910016
504;504;1445944238;2.14363431931;0.733296394348;0.0351328440011;2;True;49;1;8.439786673910016
505;505;1445944238;2.14363908768;0.733261287212;0.0351252928376;2;True;49;1;8.439786673910016
506;506;1445944238;2.14364123344;0.733274579048;0.03512763604519999;2;True;49;1;8.439786673910016
507;507;1445944238;2.14363479614;0.733248829842;0.035129789263;2;True;49;1;8.439786673910016
508;508;1445944238;2.14363765717;0.7331927418709999;0.0351302623749;2;True;49;1;8.439786673910016
509;509;1445944238;2.1435573101;0.733136475086;0.0351269394159;2;True;49;1;8.439786673910016
510;510;1445944238;2.143638134;0.733268380165;0.0351264066994;2;True;49;1;8.439786673910016
511;511;1445944238;2.14357376099;0.733151376247;0.035124599933599995;2;True;49;1;8.439786673910016
512;512;1445944238;2.1436409950299997;0.733194887638;0.0351268462837;2;True;49;1;8.439786673910016
513;513;1445944238;2.14364528656;0.7332472801209999;0.0351283065975;2;True;49;1;8.439786673910016
514;514;1445944238;2.14359164238;0.7331381440160001;0.0351288057864;2;True;49;1;8.439786673910016
515;515;1445944238;2.14356279373;0.733131587505;0.035191569477300004;2;True;49;1;8.439786673910016
516;516;1445944238;2.14362716675;0.733229935169;0.0351258851588;2;True;49;1;8.439786673910016
517;517;1445944238;2.14360237122;0.733228325844;0.035144995898;2;True;49;1;8.439786673910016
518;518;1445944238;2.1436173915900003;0.7331279516220001;0.035129569470900006;2;True;49;1;8.439786673910016
519;519;1445944238;2.14363670349;0.733200550079;0.0351406037807;2;True;49;1;8.439786673910016
520;520;1445944238;2.1434881687200003;0.733057677746;0.0351883657277;2;True;49;1;8.439786673910016
521;521;1445944238;2.14363718033;0.733242750168;0.0351261198521;2;True;49;1;8.439786673910016
522;522;1445944238;2.1436071395900003;0.733140468597;0.0351441986859;2;True;49;1;8.439786673910016
523;523;1445944238;2.14356040955;0.7330995798109999;0.0351450331509;2;True;49;1;8.439786673910016
524;524;1445944238;2.14362311363;0.73315435648;0.03513460233809999;2;True;49;1;8.439786673910016
525;525;1445944238;2.14363861084;0.733206152916;0.0351158753037;2;True;49;1;8.439786673910016
526;526;1445944238;2.14364075661;0.733187019825;0.0351185798645;2;True;49;1;8.439786673910016
527;527;1445944238;2.14356231689;0.7332484722139999;0.0351860783994;2;True;49;1;8.439786673910016
528;528;1445944238;2.14359068871;0.733132481575;0.035140629857800004;2;True;49;1;8.439786673910016
529;529;1445944238;2.1436204910299996;0.7331272363660001;0.035147245973300004;2;True;49;1;8.439786673910016
530;530;1445944238;2.14348483086;0.7329956293109999;0.0351944044232;2;True;49;1;8.439786673910016
531;531;1445944238;2.14364624023;0.7332996129989999;0.0351284220815;2;True;49;1;8.439786673910016
532;532;1445944238;2.14364123344;0.733115673065;0.035142455249999996;2;True;49;1;8.439786673910016
533;533;1445944238;2.14360880852;0.733236670494;0.035145614296199994;2;True;49;1;8.439786673910016
534;534;1445944238;2.14362740517;0.733139276505;0.0351406373084;2;True;49;1;8.439786673910016
535;535;1445944238;2.14364218712;0.733252763748;0.0351416915655;2;True;49;1;8.439786673910016
536;536;1445944238;2.1436517238599997;0.733230471611;0.0351245030761;2;True;49;1;8.439786673910016
537;537;1445944238;2.1436624527;0.7332071661949999;0.035117212683;2;True;49;1;8.439786673910016
538;538;1445944238;2.14364767075;0.7331723570819999;0.035124130547000004;2;True;49;1;8.439786673910016
539;539;1445944238;2.14357089996;0.733184397221;0.0351690091193;2;True;49;1;8.439786673910016
540;540;1445944238;2.1436517238599997;0.7333116531370001;0.03512838110330001;2;True;49;1;8.439786673910016
541;541;1445944238;2.14365386963;0.733227968216;0.0351318120956;2;True;49;1;8.439786673910016
542;542;1445944238;2.14362955093;0.733192920685;0.0351429358125;2;True;49;1;8.439786673910016
543;543;1445944238;2.14365291595;0.733160316944;0.0351160317659;2;True;49;1;8.439786673910016
544;544;1445944238;2.14365386963;0.7331955432889999;0.0351149998605;2;True;49;1;8.439786673910016
545;545;1445944238;2.14364767075;0.733235895634;0.0351122654974;2;True;49;1;8.439786673910016
546;546;1445944238;2.1435084343;0.7330539822579999;0.0351727232337;2;True;49;1;8.439786673910016
547;547;1445944238;2.14365267754;0.73323059082;0.0351259633899;2;True;49;1;8.439786673910016
548;548;1445944238;2.14359951019;0.7331098914149999;0.0351382568479;2;True;49;1;8.439786673910016
549;549;1445944238;2.1436548233000003;0.733233749866;0.035128924995699994;2;True;49;1;8.439786673910016
550;550;1445944238;2.14365363121;0.7332070469859999;0.0351216644049;2;True;49;1;8.439786673910016
551;551;1445944238;2.1436235904700003;0.733103573322;0.035141091793800004;2;True;49;1;8.439786673910016
552;552;1445944238;2.14362812042;0.733133673668;0.03511379659180001;2;True;49;1;8.439786673910016
553;553;1445944238;2.14363288879;0.733119785786;0.0351382307708;2;True;49;1;8.439786673910016
554;554;1445944238;2.1436522007;0.733206629753;0.0351120606065;2;True;49;1;8.439786673910016
555;555;1445944238;2.14365434647;0.733236730099;0.0351192727685;2;True;49;1;8.439786673910016
556;556;1445944238;2.14364480972;0.733153581619;0.0351110249758;2;True;49;1;8.439786673910016
557;557;1445944238;2.14358615875;0.7331101298330001;0.0351598933339;2;True;49;1;8.439786673910016
558;558;1445944238;2.14365649223;0.733234226704;0.0351209156215;2;True;49;1;8.439786673910016
559;559;1445944238;2.14359593391;0.7331275343889999;0.035169165581499996;2;True;49;1;8.439786673910016
560;560;1445944238;2.14357662201;0.7331222295759999;0.0351770780981;2;True;49;1;8.439786673910016
561;561;1445944238;2.14365506172;0.733159005642;0.035116974264400004;2;True;49;1;8.439786673910016
562;562;1445944238;2.14352226257;0.733062744141;0.0351647771895;2;True;49;1;8.439786673910016
563;563;1445944238;2.14364743233;0.73316192627;0.0351208634675;2;True;49;1;8.439786673910016
564;564;1445944238;2.1434905529;0.733048260212;0.0351882651448;2;True;49;1;8.439786673910016
565;565;1445944238;2.14360761642;0.7332030534739999;0.035142380744199994;2;True;49;1;8.439786673910016
566;566;1445944238;2.14355444908;0.7332254052159999;0.0351682752371;2;True;49;1;8.439786673910016
567;567;1445944238;2.14364671707;0.733163416386;0.035113308578699994;2;True;49;1;8.439786673910016
568;568;1445944238;2.14362335205;0.7331268191339999;0.035132307559300004;2;True;49;1;8.439786673910016
569;569;1445944238;2.14363479614;0.73316937685;0.0351326167583;2;True;49;1;8.439786673910016
570;570;1445944238;2.14356207848;0.7332097887989999;0.035161636769800005;2;True;49;1;8.439786673910016
571;571;1445944238;2.14364814758;0.733130693436;0.035123385489;2;True;49;1;8.439786673910016
572;572;1445944238;2.14363884926;0.7331496477130001;0.0351202748716;2;True;49;1;8.439786673910016
573;573;1445944238;2.14365434647;0.7332056164740001;0.0351091362536;2;True;49;1;8.439786673910016
574;574;1445944238;2.14364218712;0.7331496477130001;0.0351133346558;2;True;49;1;8.439786673910016
575;575;1445944238;2.14365506172;0.733209908009;0.0351182483137;2;True;49;1;8.439786673910016
576;576;1445944238;2.14363908768;0.733248829842;0.0351180173457;2;True;49;1;8.439786673910016
577;577;1445944238;2.14361000061;0.733140766621;0.0351361446083;2;True;49;1;8.439786673910016
578;578;1445944238;2.1436445713;0.733212709427;0.0351194888353;2;True;49;1;8.439786673910016
579;579;1445944238;2.1436405181900002;0.733256459236;0.0351136885583;2;True;49;1;8.439786673910016
580;580;1445944238;2.14355993271;0.73316514492;0.035145010799199995;2;True;49;1;8.439786673910016
581;581;1445944238;2.14363574982;0.7331219315530001;0.035124246031;2;True;49;1;8.439786673910016
582;582;1445944238;2.1436190605200003;0.73311150074;0.035131029784699994;2;True;49;1;8.439786673910016
583;583;1445944238;2.14363193512;0.7332403659819999;0.035111401230099995;2;True;49;1;8.439786673910016
584;584;1445944238;2.1436235904700003;0.7332335710529999;0.035120245069300005;2;True;49;1;8.439786673910016
585;585;1445944238;2.14363861084;0.7332978248600001;0.035121548920900005;2;True;49;1;8.439786673910016
586;586;1445944238;2.14362478256;0.733230769634;0.035123128444;2;True;49;1;8.439786673910016
587;587;1445944238;2.14364624023;0.7332360744480001;0.035122327506499997;2;True;49;1;8.439786673910016
588;588;1445944238;2.1436429023700003;0.733270049095;0.0351162739098;2;True;49;1;8.439786673910016
589;589;1445944238;2.1434552669499998;0.733016967773;0.035203512758;2;True;49;1;8.439786673910016
590;590;1445944238;2.1436383724200003;0.7331683635709999;0.0351157821715;2;True;49;1;8.439786673910016
591;591;1445944238;2.14359998703;0.7331683635709999;0.035139191895699994;2;True;49;1;8.439786673910016
592;592;1445944238;2.14349532127;0.733125448227;0.0352063439786;2;True;49;1;8.439786673910016
593;593;1445944238;2.1436002254499997;0.733119666576;0.0351175554097;2;True;49;1;8.439786673910016
594;594;1445944238;2.1436483859999997;0.733246684074;0.0351147428155;2;True;49;1;8.439786673910016
595;595;1445944238;2.1436522007;0.733245432377;0.0351044163108;2;True;49;1;8.439786673910016
596;596;1445944238;2.14356708527;0.733087420464;0.0351387746632;2;True;49;1;8.439786673910016
597;597;1445944238;2.14356708527;0.7332451939579999;0.035177767276800005;2;True;49;1;8.439786673910016
598;598;1445944238;2.1436562538099997;0.733191132545;0.0351054593921;2;True;49;1;8.439786673910016
599;599;1445944238;2.14363622665;0.7330859899519999;0.035107843577900005;2;True;49;1;8.439786673910016
600;600;1445944238;2.1436133384700002;0.7331602573389999;0.0351225398481;2;True;49;1;8.439786673910016
601;601;1445944238;2.14359045029;0.733168661594;0.035147856921000004;2;True;49;1;8.439786673910016
602;602;1445944238;2.1436760425599997;0.733255445957;0.03511700406669999;2;True;49;1;8.439786673910016
603;603;1445944238;2.14367437363;0.733277499676;0.0351140834391;2;True;49;1;8.439786673910016
604;604;1445944238;2.1436662674;0.7331720590590001;0.0351131744683;2;True;49;1;8.439786673910016
605;605;1445944238;2.1435778141;0.7331905961040001;0.0351386964321;2;True;49;1;8.439786673910016
606;606;1445944238;2.1436610221900003;0.733286082745;0.035115305334300004;2;True;49;1;8.439786673910016
607;607;1445944238;2.1436753273;0.733260333538;0.0351101160049;2;True;49;1;8.439786673910016
608;608;1445944238;2.14365291595;0.7332646250720001;0.035117108374800005;2;True;49;1;8.439786673910016
609;609;1445944238;2.1436669826499997;0.733257055283;0.035108152777;2;True;49;1;8.439786673910016
