;Unnamed: 0;header_stamp_secs;pose_position_x;pose_position_y;pose_position_z;seconds;drop_values;flight_number;label;dtw
0;0;1445945486;2.14745855331;0.745601773262;0.034285176545400003;0;True;51;1;16.011636734280017
1;1;1445945486;2.14744901657;0.7455928921699999;0.0342943146825;0;True;51;1;16.011636734280017
2;2;1445945486;2.14725136757;0.745328247547;0.0343861691654;0;True;51;1;16.011636734280017
3;3;1445945486;2.14743709564;0.745534598827;0.0343053862453;0;True;51;1;16.011636734280017
4;4;1445945486;2.14745187759;0.745474338531;0.0342866182327;0;True;51;1;16.011636734280017
5;5;1445945486;2.14744853973;0.745533406734;0.0343079790473;0;True;51;1;16.011636734280017
6;6;1445945486;2.1474277973199998;0.7456009984020001;0.034284520894299994;0;True;51;1;16.011636734280017
7;7;1445945486;2.14742422104;0.745652198792;0.0343011915684;0;True;51;1;16.011636734280017
8;8;1445945486;2.14745354652;0.745561242104;0.0342890135944;0;True;51;1;16.011636734280017
9;9;1445945487;2.14743089676;0.7455894351010001;0.0342928059399;1;True;51;1;16.011636734280017
10;10;1445945487;2.14744591713;0.745580017567;0.0342873595655;1;True;51;1;16.011636734280017
11;11;1445945487;2.14745187759;0.745664656162;0.0342737212777;1;True;51;1;16.011636734280017
12;12;1445945487;2.14734959602;0.74549138546;0.034358672797699996;1;True;51;1;16.011636734280017
13;13;1445945487;2.14742541313;0.745595633984;0.0342936553061;1;True;51;1;16.011636734280017
14;14;1445945487;2.14740657806;0.7455001473430001;0.0343180336058;1;True;51;1;16.011636734280017
15;15;1445945487;2.14739251137;0.7454602718350001;0.0343335419893;1;True;51;1;16.011636734280017
16;16;1445945487;2.14742732048;0.7455573081970001;0.034355662763099995;1;True;51;1;16.011636734280017
17;17;1445945487;2.14746117592;0.745584905148;0.0342712514102;1;True;51;1;16.011636734280017
18;18;1445945487;2.14736890793;0.7454383373260001;0.0343544855714;1;True;51;1;16.011636734280017
19;19;1445945487;2.14742898941;0.745525300503;0.034296751022299996;1;True;51;1;16.011636734280017
20;20;1445945487;2.14744949341;0.7455875873569999;0.0342787131667;1;True;51;1;16.011636734280017
21;21;1445945487;2.1474425792700003;0.7455793023109999;0.0343014188111;1;True;51;1;16.011636734280017
22;22;1445945487;2.14732456207;0.745503604412;0.034411698579800004;1;True;51;1;16.011636734280017
23;23;1445945487;2.14742493629;0.745553076267;0.034329060465099995;1;True;51;1;16.011636734280017
24;24;1445945487;2.1473526954700004;0.745505452156;0.0343600809574;1;True;51;1;16.011636734280017
25;25;1445945487;2.1473915576900002;0.745558440685;0.0343199335039;1;True;51;1;16.011636734280017
26;26;1445945487;2.14742064476;0.7456157207490001;0.0343100093305;1;True;51;1;16.011636734280017
27;27;1445945487;2.14741897583;0.7454990744589999;0.0342856682837;1;True;51;1;16.011636734280017
28;28;1445945487;2.1474232673599998;0.7455804944040001;0.0343088582158;1;True;51;1;16.011636734280017
29;29;1445945487;2.14740514755;0.7454740405079999;0.0343078896403;1;True;51;1;16.011636734280017
30;30;1445945487;2.14742588997;0.745591461658;0.0343113467097;1;True;51;1;16.011636734280017
31;31;1445945487;2.14743375778;0.745495796204;0.0343080200255;1;True;51;1;16.011636734280017
32;32;1445945487;2.1473505497;0.7455118894580001;0.0343586839736;1;True;51;1;16.011636734280017
33;33;1445945487;2.14743709564;0.745653986931;0.0343113578856;1;True;51;1;16.011636734280017
34;34;1445945487;2.14744400978;0.745533943176;0.0343310721219;1;True;51;1;16.011636734280017
35;35;1445945487;2.1474380493200003;0.7454602122310001;0.0343169681728;1;True;51;1;16.011636734280017
36;36;1445945487;2.14739084244;0.7454324364659999;0.0343541689217;1;True;51;1;16.011636734280017
37;37;1445945487;2.147377491;0.745546281338;0.0343880988657;1;True;51;1;16.011636734280017
38;38;1445945487;2.14741253853;0.745500326157;0.034349583089400004;1;True;51;1;16.011636734280017
39;39;1445945487;2.1473505497;0.745357811451;0.0344525910914;1;True;51;1;16.011636734280017
40;40;1445945487;2.14744639397;0.745603144169;0.034305807203099996;1;True;51;1;16.011636734280017
41;41;1445945487;2.14743828773;0.745636582375;0.0343297272921;1;True;51;1;16.011636734280017
42;42;1445945487;2.14739131927;0.7454138994220001;0.0343767739832;1;True;51;1;16.011636734280017
43;43;1445945487;2.14737915993;0.7455452084540001;0.0344090238214;1;True;51;1;16.011636734280017
44;44;1445945487;2.1474521160099997;0.745599389076;0.0343285053968;1;True;51;1;16.011636734280017
45;45;1445945487;2.14744400978;0.745563566685;0.034332819283;1;True;51;1;16.011636734280017
46;46;1445945487;2.14739322662;0.745432794094;0.0343837924302;1;True;51;1;16.011636734280017
47;47;1445945487;2.14737486839;0.745400190353;0.0344183929265;1;True;51;1;16.011636734280017
48;48;1445945487;2.14736795425;0.745399653912;0.0344314686954;1;True;51;1;16.011636734280017
49;49;1445945487;2.14737558365;0.745483934879;0.0344000793993;1;True;51;1;16.011636734280017
50;50;1445945487;2.14742350578;0.745480597019;0.0343381911516;1;True;51;1;16.011636734280017
51;51;1445945487;2.14745283127;0.745488643646;0.034330438822499997;1;True;51;1;16.011636734280017
52;52;1445945487;2.14746427536;0.7456595301629999;0.0343278162181;1;True;51;1;16.011636734280017
53;53;1445945487;2.14743757248;0.7455315589899999;0.0343519821763;1;True;51;1;16.011636734280017
54;54;1445945487;2.14738106728;0.745444178581;0.0344117730856;1;True;51;1;16.011636734280017
55;55;1445945487;2.14743685722;0.7455208301540001;0.0343685634434;1;True;51;1;16.011636734280017
56;56;1445945487;2.14742445946;0.745513021946;0.034389905631499997;1;True;51;1;16.011636734280017
57;57;1445945487;2.14736676216;0.745379447937;0.034438982605900004;1;True;51;1;16.011636734280017
58;58;1445945487;2.14746713638;0.7455720901489999;0.034321356564799996;1;True;51;1;16.011636734280017
59;59;1445945487;2.1473870277400002;0.7453916668889999;0.0344365015626;1;True;51;1;16.011636734280017
60;60;1445945487;2.14744329453;0.745524525642;0.0343643389642;1;True;51;1;16.011636734280017
61;61;1445945487;2.14746713638;0.745649516582;0.0343258939683;1;True;51;1;16.011636734280017
62;62;1445945487;2.14743041992;0.7455853819850001;0.0344325192273;1;True;51;1;16.011636734280017
63;63;1445945487;2.14746928215;0.745547175407;0.034342251718000004;1;True;51;1;16.011636734280017
64;64;1445945487;2.14746713638;0.745619297028;0.0343430824578;1;True;51;1;16.011636734280017
65;65;1445945487;2.14747333527;0.745575428009;0.0343375317752;1;True;51;1;16.011636734280017
66;66;1445945487;2.1474380493200003;0.7455567121510001;0.0344266779721;1;True;51;1;16.011636734280017
67;67;1445945487;2.14747667313;0.745462536812;0.034336965531099994;1;True;51;1;16.011636734280017
68;68;1445945487;2.1474618911700003;0.745584487915;0.0343386344612;1;True;51;1;16.011636734280017
69;69;1445945487;2.1474168300599996;0.745444357395;0.0343776792288;1;True;51;1;16.011636734280017
70;70;1445945487;2.14746665955;0.7455697655679999;0.03434138372540001;1;True;51;1;16.011636734280017
71;71;1445945487;2.1473951339700004;0.7454156279559999;0.0343933925033;1;True;51;1;16.011636734280017
72;72;1445945487;2.1474466323900003;0.745466709137;0.034348379820599996;1;True;51;1;16.011636734280017
73;73;1445945487;2.14746403694;0.74559867382;0.0343343839049;1;True;51;1;16.011636734280017
74;74;1445945487;2.14737010002;0.745535373688;0.034409854561099996;1;True;51;1;16.011636734280017
75;75;1445945487;2.14739632607;0.74546790123;0.034397609531900006;1;True;51;1;16.011636734280017
76;76;1445945487;2.14745092392;0.745569109917;0.0343396998942;1;True;51;1;16.011636734280017
77;77;1445945487;2.1474030017900003;0.745490312576;0.034376364201300004;1;True;51;1;16.011636734280017
78;78;1445945487;2.14742541313;0.745534598827;0.0343641340733;1;True;51;1;16.011636734280017
79;79;1445945487;2.1474182605700003;0.745506167412;0.0343736074865;1;True;51;1;16.011636734280017
80;80;1445945487;2.14738368988;0.745485723019;0.0343901850283;1;True;51;1;16.011636734280017
81;81;1445945487;2.14741659164;0.7455092668529999;0.0343807525933;1;True;51;1;16.011636734280017
82;82;1445945487;2.14745903015;0.745589852333;0.034326788037999996;1;True;51;1;16.011636734280017
83;83;1445945487;2.14743494987;0.745594501495;0.0343360565603;1;True;51;1;16.011636734280017
84;84;1445945487;2.1473054885900003;0.7454071044920001;0.0344847068191;1;True;51;1;16.011636734280017
85;85;1445945487;2.1474587917299996;0.745536863804;0.034318368881900006;1;True;51;1;16.011636734280017
86;86;1445945487;2.14743924141;0.7455452084540001;0.0343422405422;1;True;51;1;16.011636734280017
87;87;1445945487;2.14736533165;0.745452284813;0.0344247594476;1;True;51;1;16.011636734280017
88;88;1445945487;2.1474559307099996;0.7455718517300001;0.034335557371400004;1;True;51;1;16.011636734280017
89;89;1445945487;2.14746212959;0.7455642819399999;0.034324567765;1;True;51;1;16.011636734280017
90;90;1445945487;2.1474182605700003;0.745553791523;0.0343712121248;1;True;51;1;16.011636734280017
91;91;1445945487;2.14745521545;0.745595395565;0.0343243926764;1;True;51;1;16.011636734280017
92;92;1445945487;2.1474373340599997;0.7455301880840001;0.034326329827299995;1;True;51;1;16.011636734280017
93;93;1445945487;2.14742422104;0.745489060879;0.0343428365886;1;True;51;1;16.011636734280017
94;94;1445945487;2.14743852615;0.745603978634;0.0343464314938;1;True;51;1;16.011636734280017
95;95;1445945487;2.1474413871799998;0.745528399944;0.034321829676599996;1;True;51;1;16.011636734280017
96;96;1445945487;2.14734721184;0.745434165001;0.0344073213637;1;True;51;1;16.011636734280017
97;97;1445945487;2.14739751816;0.745488107204;0.0343749299645;1;True;51;1;16.011636734280017
98;98;1445945487;2.14740133286;0.745492458344;0.03435645625;1;True;51;1;16.011636734280017
99;99;1445945487;2.1474401950799997;0.745518505573;0.0343277305365;1;True;51;1;16.011636734280017
100;100;1445945487;2.14738106728;0.7454967498780001;0.034403834492000004;1;True;51;1;16.011636734280017
101;101;1445945487;2.14744448662;0.7456317543979999;0.0343228504062;1;True;51;1;16.011636734280017
102;102;1445945487;2.14745521545;0.7455500960349999;0.034328006207900004;1;True;51;1;16.011636734280017
103;103;1445945487;2.14741587639;0.745557844639;0.0343229621649;1;True;51;1;16.011636734280017
104;104;1445945487;2.14735722542;0.745481014252;0.0343809276819;1;True;51;1;16.011636734280017
105;105;1445945487;2.14743351936;0.745548903942;0.0343203656375;1;True;51;1;16.011636734280017
106;106;1445945487;2.14737844467;0.745499491692;0.034369494766;1;True;51;1;16.011636734280017
107;107;1445945487;2.14742922783;0.745543062687;0.0343248620629;1;True;51;1;16.011636734280017
108;108;1445945487;2.14741659164;0.745523154736;0.0343112424016;1;True;51;1;16.011636734280017
109;109;1445945487;2.14740109444;0.745503008366;0.0343165099621;1;True;51;1;16.011636734280017
110;110;1445945487;2.1474232673599998;0.7455941438670001;0.0342985056341;1;True;51;1;16.011636734280017
111;111;1445945487;2.14740824699;0.745603084564;0.034311927855;1;True;51;1;16.011636734280017
112;112;1445945487;2.1474084854099997;0.7456118464470001;0.0343322381377;1;True;51;1;16.011636734280017
113;113;1445945487;2.1473929882;0.745589852333;0.0343151055276;1;True;51;1;16.011636734280017
114;114;1445945487;2.14738965034;0.745538949966;0.034326732158699996;1;True;51;1;16.011636734280017
115;115;1445945487;2.14740681648;0.745561420918;0.0343078561127;1;True;51;1;16.011636734280017
116;116;1445945487;2.1474039554599997;0.745554745197;0.0343341603875;1;True;51;1;16.011636734280017
117;117;1445945487;2.1474075317400003;0.745585083961;0.034303929656700004;1;True;51;1;16.011636734280017
118;118;1445945487;2.1473958492299996;0.745578229427;0.0343319140375;1;True;51;1;16.011636734280017
119;119;1445945487;2.14739346504;0.745399653912;0.0343800038099;1;True;51;1;16.011636734280017
120;120;1445945487;2.1473367214200003;0.745408952236;0.034384462982400006;1;True;51;1;16.011636734280017
121;121;1445945487;2.14738535881;0.745440840721;0.0343298651278;1;True;51;1;16.011636734280017
122;122;1445945487;2.1474084854099997;0.745625257492;0.034319780767;1;True;51;1;16.011636734280017
123;123;1445945487;2.1473903656;0.745484173298;0.0343083813787;1;True;51;1;16.011636734280017
124;124;1445945487;2.1474037170400004;0.745636045933;0.034295476973099995;1;True;51;1;16.011636734280017
125;125;1445945487;2.147387743;0.745455801487;0.034334290772700005;1;True;51;1;16.011636734280017
126;126;1445945487;2.14741444588;0.7455459833149999;0.0342902056873;1;True;51;1;16.011636734280017
127;127;1445945487;2.14743471146;0.745550990105;0.034312918782200004;1;True;51;1;16.011636734280017
128;128;1445945487;2.1474468708;0.745580434799;0.034297235310100004;1;True;51;1;16.011636734280017
129;129;1445945487;2.14736175537;0.745406270027;0.034361593425300006;1;True;51;1;16.011636734280017
130;130;1445945487;2.14741039276;0.745528042316;0.0342966280878;1;True;51;1;16.011636734280017
131;131;1445945487;2.14742541313;0.745580971241;0.0343005731702;1;True;51;1;16.011636734280017
132;132;1445945487;2.14742064476;0.7454419136049999;0.0343171097338;1;True;51;1;16.011636734280017
133;133;1445945487;2.1473772525799997;0.7454962730410001;0.0343457534909;1;True;51;1;16.011636734280017
134;134;1445945487;2.14738368988;0.745456695557;0.034333452582400004;1;True;51;1;16.011636734280017
135;135;1445945487;2.14740538597;0.745490312576;0.0343137569726;1;True;51;1;16.011636734280017
136;136;1445945487;2.1474022865299998;0.7455425858499999;0.034341063350400006;1;True;51;1;16.011636734280017
137;137;1445945487;2.14736557007;0.745496511459;0.0343754626811;1;True;51;1;16.011636734280017
138;138;1445945487;2.147377491;0.745442688465;0.0343545302749;1;True;51;1;16.011636734280017
139;139;1445945487;2.14744472504;0.745672821999;0.034301847219500005;1;True;51;1;16.011636734280017
140;140;1445945487;2.14735150337;0.745413184166;0.034372877329599996;1;True;51;1;16.011636734280017
141;141;1445945487;2.14741754532;0.745644927025;0.034327622503;1;True;51;1;16.011636734280017
142;142;1445945487;2.14742636681;0.7456058859829999;0.0343141965568;1;True;51;1;16.011636734280017
143;143;1445945487;2.1474378109;0.7456240057950001;0.0343017652631;1;True;51;1;16.011636734280017
144;144;1445945487;2.14742922783;0.745463967323;0.034321360290099995;1;True;51;1;16.011636734280017
145;145;1445945487;2.14744901657;0.74559867382;0.0343081839383;1;True;51;1;16.011636734280017
146;146;1445945487;2.14745759964;0.745662093163;0.0343056432903;1;True;51;1;16.011636734280017
147;147;1445945487;2.14743900299;0.7456079125399999;0.0343136414886;1;True;51;1;16.011636734280017
148;148;1445945487;2.14744353294;0.745632350445;0.0343068912625;1;True;51;1;16.011636734280017
149;149;1445945487;2.1474268436400004;0.745646953583;0.0343184396625;1;True;51;1;16.011636734280017
150;150;1445945487;2.1474022865299998;0.745529353619;0.034372270107300006;1;True;51;1;16.011636734280017
151;151;1445945487;2.1474413871799998;0.7454727292059999;0.034428257495199996;1;True;51;1;16.011636734280017
152;152;1445945487;2.14744377136;0.745563149452;0.034331504255499995;1;True;51;1;16.011636734280017
153;153;1445945487;2.14742398262;0.745618760586;0.0343468151987;1;True;51;1;16.011636734280017
154;154;1445945487;2.14744520187;0.745649039745;0.034322973340699996;1;True;51;1;16.011636734280017
155;155;1445945487;2.1473941803;0.7455419898029999;0.034371294081199995;1;True;51;1;16.011636734280017
156;156;1445945487;2.14742970467;0.7456319332119999;0.034337379038299996;1;True;51;1;16.011636734280017
157;157;1445945487;2.1473951339700004;0.745566248894;0.0343560576439;1;True;51;1;16.011636734280017
158;158;1445945487;2.14742875099;0.745464205742;0.0343367829919;1;True;51;1;16.011636734280017
159;159;1445945487;2.14746856689;0.745688021183;0.034323912113900006;1;True;51;1;16.011636734280017
160;160;1445945487;2.14743709564;0.7454541325570001;0.0343418046832;1;True;51;1;16.011636734280017
161;161;1445945487;2.14737892151;0.7455207705500001;0.0343749187887;1;True;51;1;16.011636734280017
162;162;1445945487;2.1474645137799997;0.745617210865;0.0343198738992;1;True;51;1;16.011636734280017
163;163;1445945487;2.1474599838299997;0.745581746101;0.0343441702425;1;True;51;1;16.011636734280017
164;164;1445945487;2.14741706848;0.7455942630769999;0.0343389287591;1;True;51;1;16.011636734280017
165;165;1445945487;2.1474711895;0.745571374893;0.0343153849244;1;True;51;1;16.011636734280017
166;166;1445945487;2.14741134644;0.745441555977;0.03437844291330001;1;True;51;1;16.011636734280017
167;167;1445945487;2.14739847183;0.745448470116;0.0343837253749;1;True;51;1;16.011636734280017
168;168;1445945487;2.14746069908;0.745674788952;0.0343312136829;1;True;51;1;16.011636734280017
169;169;1445945487;2.14746117592;0.7456640601160001;0.0343415476382;1;True;51;1;16.011636734280017
170;170;1445945487;2.14744353294;0.745576739311;0.0343468338251;1;True;51;1;16.011636734280017
171;171;1445945487;2.14743852615;0.7456233501430001;0.0343463420868;1;True;51;1;16.011636734280017
172;172;1445945487;2.14746022224;0.745640158653;0.0343402400613;1;True;51;1;16.011636734280017
173;173;1445945487;2.14745426178;0.745638906956;0.034341391176;1;True;51;1;16.011636734280017
174;174;1445945487;2.14744925499;0.7455649971960001;0.034340724349000006;1;True;51;1;16.011636734280017
175;175;1445945487;2.14743614197;0.7454922795300001;0.0343646928668;1;True;51;1;16.011636734280017
176;176;1445945487;2.14745664597;0.745634615421;0.0343399420381;1;True;51;1;16.011636734280017
177;177;1445945487;2.1474070549;0.7455478906630001;0.034448768943500005;1;True;51;1;16.011636734280017
178;178;1445945487;2.14740419388;0.745471358299;0.0343760959804;1;True;51;1;16.011636734280017
179;179;1445945487;2.1474120616900003;0.7454758286480001;0.0343799926341;1;True;51;1;16.011636734280017
180;180;1445945487;2.1474373340599997;0.7454332113269999;0.034438427537699996;1;True;51;1;16.011636734280017
181;181;1445945487;2.14740586281;0.745438396931;0.034379251301300005;1;True;51;1;16.011636734280017
182;182;1445945487;2.14745426178;0.745566129684;0.0343370735645;1;True;51;1;16.011636734280017
183;183;1445945487;2.14738368988;0.745580434799;0.034429654479;1;True;51;1;16.011636734280017
184;184;1445945487;2.1474373340599997;0.745592772961;0.0343820564449;1;True;51;1;16.011636734280017
185;185;1445945487;2.1474306583400002;0.74556261301;0.0343623496592;1;True;51;1;16.011636734280017
186;186;1445945487;2.14746713638;0.745601773262;0.034369360655499996;1;True;51;1;16.011636734280017
187;187;1445945487;2.1473972797400003;0.74553591013;0.034414738416699994;1;True;51;1;16.011636734280017
188;188;1445945487;2.1473977565799998;0.745514631271;0.034425564110300004;1;True;51;1;16.011636734280017
189;189;1445945487;2.1474261283900002;0.745528519154;0.0343562178314;1;True;51;1;16.011636734280017
190;190;1445945487;2.14730262756;0.745440900326;0.034504406154199994;1;True;51;1;16.011636734280017
191;191;1445945487;2.14745855331;0.745565414429;0.0343478731811;1;True;51;1;16.011636734280017
192;192;1445945487;2.1473929882;0.745389282703;0.0343967080116;1;True;51;1;16.011636734280017
193;193;1445945487;2.14734172821;0.7454936504359999;0.034435350447900005;1;True;51;1;16.011636734280017
194;194;1445945487;2.14741754532;0.7454236149789999;0.034365478903099995;1;True;51;1;16.011636734280017
195;195;1445945487;2.1473684310900003;0.745527803898;0.0344130918384;1;True;51;1;16.011636734280017
196;196;1445945487;2.1473493576;0.7454038858409999;0.0344379208982;1;True;51;1;16.011636734280017
197;197;1445945487;2.14746165276;0.745580434799;0.0343418121338;1;True;51;1;16.011636734280017
198;198;1445945487;2.14745974541;0.745598971844;0.034335836768200005;1;True;51;1;16.011636734280017
199;199;1445945487;2.14747166634;0.7456145286560001;0.0343376323581;1;True;51;1;16.011636734280017
200;200;1445945487;2.1473805904400005;0.7455296516419999;0.0344392620027;1;True;51;1;16.011636734280017
201;201;1445945487;2.14743685722;0.745531201363;0.0343478135765;1;True;51;1;16.011636734280017
202;202;1445945487;2.1474044323;0.745390534401;0.034385174512900005;1;True;51;1;16.011636734280017
203;203;1445945487;2.1474316120099997;0.745582044125;0.0343362689018;1;True;51;1;16.011636734280017
204;204;1445945487;2.1473598480200002;0.745390355587;0.0344342850149;1;True;51;1;16.011636734280017
205;205;1445945487;2.14745497704;0.745610594749;0.0343450382352;1;True;51;1;16.011636734280017
206;206;1445945487;2.14739489555;0.745431661606;0.0343446619809;1;True;51;1;16.011636734280017
207;207;1445945487;2.1474673747999997;0.7455431818960001;0.0343269817531;1;True;51;1;16.011636734280017
208;208;1445945487;2.14734745026;0.745364546776;0.034489866346100004;1;True;51;1;16.011636734280017
209;209;1445945487;2.14736318588;0.745466470718;0.0343772470951;1;True;51;1;16.011636734280017
210;210;1445945487;2.14744901657;0.7456257343289999;0.0343394055963;1;True;51;1;16.011636734280017
211;211;1445945487;2.14741849899;0.7454085350040001;0.0343619212508;1;True;51;1;16.011636734280017
212;212;1445945487;2.14742302895;0.745523035526;0.034331958740900004;1;True;51;1;16.011636734280017
213;213;1445945487;2.14745378494;0.74555850029;0.0343023538589;1;True;51;1;16.011636734280017
214;214;1445945487;2.14744186401;0.7454905509950001;0.0343034751713;1;True;51;1;16.011636734280017
215;215;1445945487;2.1474268436400004;0.7454923391339999;0.0343110859394;1;True;51;1;16.011636734280017
216;216;1445945487;2.14746499062;0.7456344366069999;0.0343105681241;1;True;51;1;16.011636734280017
217;217;1445945487;2.14745354652;0.745594859123;0.0342932902277;1;True;51;1;16.011636734280017
218;218;1445945487;2.1474545002000003;0.745643377304;0.0343064963818;1;True;51;1;16.011636734280017
219;219;1445945487;2.14736366272;0.7454507350920001;0.03436740115280001;1;True;51;1;16.011636734280017
220;220;1445945487;2.14747095108;0.7456094026569999;0.0342888683081;1;True;51;1;16.011636734280017
221;221;1445945487;2.14744973183;0.745556414127;0.0343054309487;1;True;51;1;16.011636734280017
222;222;1445945487;2.14743709564;0.7455506920810001;0.0342973396182;1;True;51;1;16.011636734280017
223;223;1445945487;2.1474428176900004;0.745567798615;0.034330252558;1;True;51;1;16.011636734280017
224;224;1445945487;2.1474413871799998;0.745500504971;0.0343163870275;1;True;51;1;16.011636734280017
225;225;1445945487;2.1474306583400002;0.745483219624;0.0343271046877;1;True;51;1;16.011636734280017
226;226;1445945487;2.14738678932;0.745496988297;0.034343469888;1;True;51;1;16.011636734280017
227;227;1445945487;2.14741253853;0.745403528214;0.034442637115699996;1;True;51;1;16.011636734280017
228;228;1445945487;2.14744520187;0.7456002235410001;0.034309752285500004;1;True;51;1;16.011636734280017
229;229;1445945487;2.1474404335;0.745554566383;0.0342997424304;1;True;51;1;16.011636734280017
230;230;1445945487;2.1474559307099996;0.7456304430959999;0.0343231447041;1;True;51;1;16.011636734280017
231;231;1445945487;2.1474120616900003;0.745513677597;0.034317035228;1;True;51;1;16.011636734280017
232;232;1445945487;2.14747166634;0.745503723621;0.0343271233141;1;True;51;1;16.011636734280017
233;233;1445945487;2.14736104012;0.7454724907879999;0.034405197948199996;1;True;51;1;16.011636734280017
234;234;1445945487;2.1474430561099997;0.745611488819;0.0343213379383;1;True;51;1;16.011636734280017
235;235;1445945487;2.14745330811;0.7455992102619999;0.034345854073799996;1;True;51;1;16.011636734280017
236;236;1445945487;2.14744234085;0.7455452084540001;0.0343238264322;1;True;51;1;16.011636734280017
237;237;1445945487;2.14746427536;0.745619654655;0.0343329384923;1;True;51;1;16.011636734280017
238;238;1445945487;2.14737558365;0.7455036640170001;0.0343760736287;1;True;51;1;16.011636734280017
239;239;1445945487;2.14744210243;0.745526313782;0.0343275666237;1;True;51;1;16.011636734280017
240;240;1445945487;2.14743852615;0.7456357479100001;0.0343522876501;1;True;51;1;16.011636734280017
241;241;1445945487;2.14737439156;0.745475530624;0.0344245024025;1;True;51;1;16.011636734280017
242;242;1445945487;2.14747238159;0.745611488819;0.0343197286129;1;True;51;1;16.011636734280017
243;243;1445945487;2.1474409103400003;0.745533525944;0.034334179014;1;True;51;1;16.011636734280017
244;244;1445945487;2.14744353294;0.745521306992;0.034354854375100004;1;True;51;1;16.011636734280017
245;245;1445945487;2.1474373340599997;0.7455164790150001;0.0343456082046;1;True;51;1;16.011636734280017
246;246;1445945487;2.1474194526700003;0.7454618215559999;0.03437479212880001;1;True;51;1;16.011636734280017
247;247;1445945487;2.14741182327;0.7455682158470001;0.0343542583287;1;True;51;1;16.011636734280017
248;248;1445945488;2.1474480629;0.745587348938;0.0343443974853;2;True;51;1;16.011636734280017
249;249;1445945488;2.14748740196;0.745621860027;0.0343308821321;2;True;51;1;16.011636734280017
250;250;1445945488;2.14738726616;0.745430588722;0.034411303699;2;True;51;1;16.011636734280017
251;251;1445945488;2.14741039276;0.7455655932430001;0.034459695219999996;2;True;51;1;16.011636734280017
252;252;1445945488;2.1474912166599998;0.745659828186;0.0343411713839;2;True;51;1;16.011636734280017
253;253;1445945488;2.14727401733;0.745377659798;0.034447863698;2;True;51;1;16.011636734280017
254;254;1445945488;2.14747571945;0.7456206679340001;0.0343357436359;2;True;51;1;16.011636734280017
255;255;1445945488;2.14744377136;0.745620191097;0.034353170543900004;2;True;51;1;16.011636734280017
256;256;1445945488;2.1474943161;0.745607078075;0.0343200415373;2;True;51;1;16.011636734280017
257;257;1445945488;2.1473920345299997;0.7455500960349999;0.0344512686133;2;True;51;1;16.011636734280017
258;258;1445945488;2.14736795425;0.745494663715;0.034417971968699994;2;True;51;1;16.011636734280017
259;259;1445945488;2.1473846435499997;0.745493710041;0.034439146518699996;2;True;51;1;16.011636734280017
260;260;1445945488;2.1473915576900002;0.745512962341;0.0343827456236;2;True;51;1;16.011636734280017
261;261;1445945488;2.14745426178;0.745549082756;0.03434826806190001;2;True;51;1;16.011636734280017
262;262;1445945488;2.1474366188;0.745570659637;0.0343474373221;2;True;51;1;16.011636734280017
263;263;1445945488;2.14745950699;0.745669305325;0.0343354828656;2;True;51;1;16.011636734280017
264;264;1445945488;2.14745855331;0.7456325292589999;0.034336630255;2;True;51;1;16.011636734280017
265;265;1445945488;2.1473531723;0.7455064654350001;0.0344876721501;2;True;51;1;16.011636734280017
266;266;1445945488;2.1474475860599997;0.7456037998199999;0.0343389622867;2;True;51;1;16.011636734280017
267;267;1445945488;2.14745092392;0.745567679405;0.0343258492649;2;True;51;1;16.011636734280017
268;268;1445945488;2.14745092392;0.745445311069;0.0343339890242;2;True;51;1;16.011636734280017
269;269;1445945488;2.14744877815;0.745643138885;0.034356076270300004;2;True;51;1;16.011636734280017
270;270;1445945488;2.1474316120099997;0.745503544807;0.034394774586;2;True;51;1;16.011636734280017
271;271;1445945488;2.14746665955;0.745634377003;0.0343592204154;2;True;51;1;16.011636734280017
272;272;1445945488;2.14746165276;0.745554566383;0.0343525595963;2;True;51;1;16.011636734280017
273;273;1445945488;2.14746785164;0.745613098145;0.0343499556184;2;True;51;1;16.011636734280017
274;274;1445945488;2.14746999741;0.745607078075;0.034338500350700005;2;True;51;1;16.011636734280017
275;275;1445945488;2.1474831104299996;0.745596587658;0.0343429259956;2;True;51;1;16.011636734280017
276;276;1445945488;2.14746618271;0.745608985424;0.0343564040959;2;True;51;1;16.011636734280017
277;277;1445945488;2.14735150337;0.745489895344;0.034501042217000004;2;True;51;1;16.011636734280017
278;278;1445945488;2.14746522903;0.745623826981;0.0343671627343;2;True;51;1;16.011636734280017
279;279;1445945488;2.14746427536;0.745654523373;0.0343475304544;2;True;51;1;16.011636734280017
280;280;1445945488;2.14740419388;0.7455787062639999;0.0344289243221;2;True;51;1;16.011636734280017
281;281;1445945488;2.1474032402;0.745452463627;0.034393440932;2;True;51;1;16.011636734280017
282;282;1445945488;2.14746809006;0.7455792427060001;0.0343767218292;2;True;51;1;16.011636734280017
283;283;1445945488;2.1473596096;0.745457351208;0.0344489887357;2;True;51;1;16.011636734280017
284;284;1445945488;2.14740133286;0.745542287827;0.0343890078366;2;True;51;1;16.011636734280017
285;285;1445945488;2.1473295688599996;0.745351493359;0.034497883170800006;2;True;51;1;16.011636734280017
286;286;1445945488;2.1474475860599997;0.7454968690870001;0.0343683585525;2;True;51;1;16.011636734280017
287;287;1445945488;2.1474573612200003;0.7455158829690001;0.0343794710934;2;True;51;1;16.011636734280017
288;288;1445945488;2.14745163918;0.745536506176;0.034351650625499996;2;True;51;1;16.011636734280017
289;289;1445945488;2.1474635601;0.7455018162729999;0.0343558304012;2;True;51;1;16.011636734280017
290;290;1445945488;2.1474378109;0.745621681213;0.034345369786;2;True;51;1;16.011636734280017
291;291;1445945488;2.14742016792;0.745446205139;0.0343483537436;2;True;51;1;16.011636734280017
292;292;1445945488;2.1474223136900004;0.745561718941;0.0343708321452;2;True;51;1;16.011636734280017
293;293;1445945488;2.14747214317;0.7455683350560001;0.034330278635;2;True;51;1;16.011636734280017
294;294;1445945488;2.1473672390000003;0.745478510857;0.0343825668097;2;True;51;1;16.011636734280017
295;295;1445945488;2.1474134922;0.745471715927;0.0343519411981;2;True;51;1;16.011636734280017
296;296;1445945488;2.14747095108;0.74558788538;0.0343292020261;2;True;51;1;16.011636734280017
297;297;1445945488;2.14745688438;0.7454868555069999;0.034328632056700004;2;True;51;1;16.011636734280017
298;298;1445945488;2.14736056328;0.7453948855399999;0.034463789314;2;True;51;1;16.011636734280017
299;299;1445945488;2.1473705768599998;0.7453406453129999;0.034394104033699996;2;True;51;1;16.011636734280017
300;300;1445945488;2.14746427536;0.745630800724;0.0343189537525;2;True;51;1;16.011636734280017
301;301;1445945488;2.1474378109;0.745463371277;0.0343558080494;2;True;51;1;16.011636734280017
302;302;1445945488;2.14742875099;0.745477676392;0.03437507897619999;2;True;51;1;16.011636734280017
303;303;1445945488;2.1474707126599997;0.74556273222;0.0343199744821;2;True;51;1;16.011636734280017
304;304;1445945488;2.14746904373;0.7455493211750001;0.0343132168055;2;True;51;1;16.011636734280017
305;305;1445945488;2.14744997025;0.7454358935359999;0.0343221910298;2;True;51;1;16.011636734280017
306;306;1445945488;2.1474313736000004;0.745497524738;0.0343420505524;2;True;51;1;16.011636734280017
307;307;1445945488;2.14736557007;0.7453833818440001;0.0343931168318;2;True;51;1;16.011636734280017
308;308;1445945488;2.14746999741;0.745423674583;0.0343201719224;2;True;51;1;16.011636734280017
309;309;1445945488;2.1474261283900002;0.745551049709;0.0343667976558;2;True;51;1;16.011636734280017
310;310;1445945488;2.14750003815;0.7455508708949999;0.0342898331583;2;True;51;1;16.011636734280017
311;311;1445945488;2.14746713638;0.745509445667;0.0343134067953;2;True;51;1;16.011636734280017
312;312;1445945488;2.14743924141;0.7454410791399999;0.0343275815248;2;True;51;1;16.011636734280017
313;313;1445945488;2.1474108696000003;0.74543684721;0.0343402773142;2;True;51;1;16.011636734280017
314;314;1445945488;2.14744114876;0.745552837849;0.0343062914908;2;True;51;1;16.011636734280017
315;315;1445945488;2.1474039554599997;0.745423257351;0.0343345999718;2;True;51;1;16.011636734280017
316;316;1445945488;2.14747262001;0.7455962300300001;0.0343111045659;2;True;51;1;16.011636734280017
317;317;1445945488;2.14746832848;0.745484411716;0.034301802516;2;True;51;1;16.011636734280017
318;318;1445945488;2.1474480629;0.7455222606659999;0.0343183539808;2;True;51;1;16.011636734280017
319;319;1445945488;2.14742946625;0.7455821037289999;0.0343303717673;2;True;51;1;16.011636734280017
320;320;1445945488;2.14742732048;0.745489597321;0.034308876842299996;2;True;51;1;16.011636734280017
321;321;1445945488;2.1474814415;0.745483756065;0.0342914871871;2;True;51;1;16.011636734280017
322;322;1445945488;2.14739990234;0.745413780212;0.034335982054499996;2;True;51;1;16.011636734280017
323;323;1445945488;2.14738607407;0.7454956173899999;0.034380681812800004;2;True;51;1;16.011636734280017
324;324;1445945488;2.14738559723;0.745437383652;0.0343364849687;2;True;51;1;16.011636734280017
325;325;1445945488;2.14729642868;0.745364546776;0.034454517066500004;2;True;51;1;16.011636734280017
326;326;1445945488;2.14741921425;0.7455499768260001;0.0343369469047;2;True;51;1;16.011636734280017
327;327;1445945488;2.1474173069;0.7454506158830001;0.034327611327200004;2;True;51;1;16.011636734280017
328;328;1445945488;2.14738345146;0.745526611805;0.034357205033299996;2;True;51;1;16.011636734280017
329;329;1445945488;2.14744353294;0.7456235289569999;0.034307647496500004;2;True;51;1;16.011636734280017
330;330;1445945488;2.1474583149;0.745530247688;0.034293435514;2;True;51;1;16.011636734280017
331;331;1445945488;2.14739108086;0.7454799413680001;0.0343506298959;2;True;51;1;16.011636734280017
332;332;1445945488;2.14742660522;0.745558857918;0.034317027777400005;2;True;51;1;16.011636734280017
333;333;1445945488;2.14744186401;0.745551645756;0.0342957600951;2;True;51;1;16.011636734280017
334;334;1445945488;2.14743709564;0.745626449585;0.0343068763614;2;True;51;1;16.011636734280017
335;335;1445945488;2.14744114876;0.745504796505;0.034291513264200005;2;True;51;1;16.011636734280017
336;336;1445945488;2.1472408771500002;0.7453424930570001;0.0344618782401;2;True;51;1;16.011636734280017
337;337;1445945488;2.1474339962;0.745510697365;0.0343321748078;2;True;51;1;16.011636734280017
338;338;1445945488;2.14742279053;0.745546281338;0.0343076623976;2;True;51;1;16.011636734280017
339;339;1445945488;2.1474380493200003;0.745522737503;0.0342995338142;2;True;51;1;16.011636734280017
340;340;1445945488;2.14742493629;0.745561242104;0.034310098737499996;2;True;51;1;16.011636734280017
341;341;1445945488;2.1474394798299996;0.7455486059190001;0.0343102253973;2;True;51;1;16.011636734280017
342;342;1445945488;2.14735722542;0.745411574841;0.0343963429332;2;True;51;1;16.011636734280017
343;343;1445945488;2.1474194526700003;0.745561540127;0.034295912832;2;True;51;1;16.011636734280017
344;344;1445945488;2.14735174179;0.7454459667209999;0.034391794353699996;2;True;51;1;16.011636734280017
345;345;1445945488;2.14739274979;0.745436728001;0.0343307107687;2;True;51;1;16.011636734280017
346;346;1445945488;2.14739251137;0.745426893234;0.0343473628163;2;True;51;1;16.011636734280017
347;347;1445945488;2.1474425792700003;0.745555818081;0.034310311079000004;2;True;51;1;16.011636734280017
348;348;1445945488;2.14742302895;0.7455250620839999;0.034328039735599995;2;True;51;1;16.011636734280017
349;349;1445945488;2.14742469788;0.745539844036;0.034305438399299996;2;True;51;1;16.011636734280017
350;350;1445945488;2.14741659164;0.7455928325650001;0.0343079343438;2;True;51;1;16.011636734280017
351;351;1445945488;2.14746427536;0.74558365345;0.034289263188800004;2;True;51;1;16.011636734280017
352;352;1445945488;2.14742898941;0.7455770969390001;0.03431760519740001;2;True;51;1;16.011636734280017
353;353;1445945488;2.14735388756;0.7453911900519999;0.0344063155353;2;True;51;1;16.011636734280017
354;354;1445945488;2.14745306969;0.745596587658;0.0343028455973;2;True;51;1;16.011636734280017
355;355;1445945488;2.14744877815;0.7456553578380001;0.0343024022877;2;True;51;1;16.011636734280017
356;356;1445945488;2.1474466323900003;0.7454814314839999;0.0343121513724;2;True;51;1;16.011636734280017
357;357;1445945488;2.1472523212400003;0.7454193234440001;0.0344994962215;2;True;51;1;16.011636734280017
358;358;1445945488;2.14738941193;0.745569467545;0.0343419872224;2;True;51;1;16.011636734280017
359;359;1445945488;2.1474134922;0.7455059289929999;0.034327596426;2;True;51;1;16.011636734280017
360;360;1445945488;2.14740490913;0.745572805405;0.034359395504;2;True;51;1;16.011636734280017
361;361;1445945488;2.14735031128;0.7454398870469999;0.0344030596316;2;True;51;1;16.011636734280017
362;362;1445945488;2.14728474617;0.7455154657359999;0.0344527959824;2;True;51;1;16.011636734280017
363;363;1445945488;2.14738559723;0.7454590201379999;0.0343536771834;2;True;51;1;16.011636734280017
364;364;1445945488;2.14737963676;0.7454812526700001;0.034428719431199996;2;True;51;1;16.011636734280017
365;365;1445945488;2.14745330811;0.745485901833;0.0343208275735;2;True;51;1;16.011636734280017
366;366;1445945488;2.14742851257;0.74562048912;0.0343208312988;2;True;51;1;16.011636734280017
367;367;1445945488;2.14744400978;0.745514214039;0.0343249514699;2;True;51;1;16.011636734280017
368;368;1445945488;2.14739990234;0.7454290390009999;0.0343750566244;2;True;51;1;16.011636734280017
369;369;1445945488;2.1473786830900004;0.745531141758;0.034380137920400004;2;True;51;1;16.011636734280017
370;370;1445945488;2.1474313736000004;0.7456215023989999;0.0343256592751;2;True;51;1;16.011636734280017
371;371;1445945488;2.14742422104;0.745465934277;0.034338735044;2;True;51;1;16.011636734280017
372;372;1445945488;2.14741158485;0.745612561703;0.0343278422952;2;True;51;1;16.011636734280017
373;373;1445945488;2.14741897583;0.745453298092;0.0343159846961;2;True;51;1;16.011636734280017
374;374;1445945488;2.1473941803;0.7454594373700001;0.0343588888645;2;True;51;1;16.011636734280017
375;375;1445945488;2.14737391472;0.745485126972;0.0343825519085;2;True;51;1;16.011636734280017
376;376;1445945488;2.14739537239;0.745405375957;0.0343611836433;2;True;51;1;16.011636734280017
377;377;1445945488;2.14741659164;0.745500504971;0.0343286953866;2;True;51;1;16.011636734280017
378;378;1445945488;2.14745783806;0.745590984821;0.0343231782317;2;True;51;1;16.011636734280017
379;379;1445945488;2.14745903015;0.745584130287;0.0343146137893;2;True;51;1;16.011636734280017
380;380;1445945488;2.1474301815;0.745619058609;0.034324485808599994;2;True;51;1;16.011636734280017
381;381;1445945488;2.14742255211;0.745477974415;0.034346275031599996;2;True;51;1;16.011636734280017
382;382;1445945488;2.1474199295;0.745479464531;0.034344986081099996;2;True;51;1;16.011636734280017
383;383;1445945488;2.14744830132;0.7456423640250001;0.0343218520284;2;True;51;1;16.011636734280017
384;384;1445945488;2.1474194526700003;0.745490014553;0.034364763647300005;2;True;51;1;16.011636734280017
385;385;1445945488;2.1474316120099997;0.7455023527150001;0.0343342684209;2;True;51;1;16.011636734280017
386;386;1445945488;2.14744567871;0.745572388172;0.034328494221000004;2;True;51;1;16.011636734280017
387;387;1445945488;2.14744830132;0.7455481886859999;0.0343280024827;2;True;51;1;16.011636734280017
388;388;1445945488;2.147377491;0.7454821467399999;0.0343916378915;2;True;51;1;16.011636734280017
389;389;1445945488;2.1474545002000003;0.745546936989;0.0343168601394;2;True;51;1;16.011636734280017
390;390;1445945488;2.14736175537;0.745334744453;0.034396443516;2;True;51;1;16.011636734280017
391;391;1445945488;2.14738535881;0.745528042316;0.0343712344766;2;True;51;1;16.011636734280017
392;392;1445945488;2.14746522903;0.7456193566320001;0.034319706261200005;2;True;51;1;16.011636734280017
393;393;1445945488;2.1472632885;0.745371758938;0.0345200821757;2;True;51;1;16.011636734280017
394;394;1445945488;2.14745354652;0.745549678802;0.0343059152365;2;True;51;1;16.011636734280017
395;395;1445945488;2.14725971222;0.745438814163;0.0345116406679;2;True;51;1;16.011636734280017
396;396;1445945488;2.14745783806;0.7455185651780001;0.0343341529369;2;True;51;1;16.011636734280017
397;397;1445945488;2.1473941803;0.745448052883;0.0345006138086;2;True;51;1;16.011636734280017
398;398;1445945488;2.14722394943;0.745362818241;0.0344251580536;2;True;51;1;16.011636734280017
399;399;1445945488;2.14745783806;0.745570719242;0.0343156009912;2;True;51;1;16.011636734280017
400;400;1445945488;2.14737391472;0.74546456337;0.034387543797499996;2;True;51;1;16.011636734280017
401;401;1445945488;2.1474261283900002;0.7454866766930001;0.0343381725252;2;True;51;1;16.011636734280017
402;402;1445945488;2.14745688438;0.745630562305;0.034317031502700004;2;True;51;1;16.011636734280017
403;403;1445945488;2.14745807648;0.745610952377;0.0343435294926;2;True;51;1;16.011636734280017
404;404;1445945488;2.1474339962;0.745479643345;0.034338250756299996;2;True;51;1;16.011636734280017
405;405;1445945488;2.1474468708;0.7455175518989999;0.0343193374574;2;True;51;1;16.011636734280017
406;406;1445945488;2.1474354267099995;0.745545685291;0.0343447029591;2;True;51;1;16.011636734280017
407;407;1445945488;2.1474425792700003;0.745540142059;0.034322433173700005;2;True;51;1;16.011636734280017
408;408;1445945488;2.14742279053;0.7454842329029999;0.0343424454331;2;True;51;1;16.011636734280017
409;409;1445945488;2.1473586559299997;0.745393455029;0.034385938197400004;2;True;51;1;16.011636734280017
410;410;1445945488;2.1474466323900003;0.745565474033;0.0343251787126;2;True;51;1;16.011636734280017
411;411;1445945488;2.1474323272699998;0.74562048912;0.0343307740986;2;True;51;1;16.011636734280017
412;412;1445945488;2.14744377136;0.745541512966;0.0343254059553;2;True;51;1;16.011636734280017
413;413;1445945488;2.14744830132;0.745540261269;0.0343344248831;2;True;51;1;16.011636734280017
414;414;1445945488;2.14737534523;0.745378911495;0.0344657376409;2;True;51;1;16.011636734280017
415;415;1445945488;2.14739751816;0.74553835392;0.0343766584992;2;True;51;1;16.011636734280017
416;416;1445945488;2.14739465714;0.7453643083570001;0.0344771146774;2;True;51;1;16.011636734280017
417;417;1445945488;2.1473581790900003;0.745541572571;0.0343896150589;2;True;51;1;16.011636734280017
418;418;1445945488;2.14745640755;0.745456457138;0.0343259572983;2;True;51;1;16.011636734280017
419;419;1445945488;2.1473865509;0.745410263538;0.034369263798000003;2;True;51;1;16.011636734280017
420;420;1445945488;2.14746022224;0.7455819249150001;0.0343411490321;2;True;51;1;16.011636734280017
421;421;1445945488;2.1474511623400003;0.745549619198;0.0343480445445;2;True;51;1;16.011636734280017
422;422;1445945488;2.14742588997;0.7455263733859999;0.0343345701694;2;True;51;1;16.011636734280017
423;423;1445945488;2.14744591713;0.745575666428;0.0343467965722;2;True;51;1;16.011636734280017
424;424;1445945488;2.14740085602;0.745464086533;0.0343402065337;2;True;51;1;16.011636734280017
425;425;1445945488;2.14741754532;0.7455719709399999;0.0343845784664;2;True;51;1;16.011636734280017
426;426;1445945488;2.14742183685;0.745471715927;0.034350045025299994;2;True;51;1;16.011636734280017
427;427;1445945488;2.14740467072;0.745462298393;0.034364614635699994;2;True;51;1;16.011636734280017
428;428;1445945488;2.1474270820599997;0.74556440115;0.0343448445201;2;True;51;1;16.011636734280017
429;429;1445945488;2.1473977565799998;0.7454818487170001;0.034344043582700004;2;True;51;1;16.011636734280017
430;430;1445945488;2.14736294746;0.7455043792720001;0.0343973264098;2;True;51;1;16.011636734280017
431;431;1445945488;2.14735126495;0.745440483093;0.0344642624259;2;True;51;1;16.011636734280017
432;432;1445945488;2.14736366272;0.7454865574840001;0.034488722682;2;True;51;1;16.011636734280017
433;433;1445945488;2.1473968029;0.745405256748;0.0343615338206;2;True;51;1;16.011636734280017
434;434;1445945488;2.14743208885;0.7455157637600001;0.0343205928802;2;True;51;1;16.011636734280017
435;435;1445945488;2.14743590355;0.7455670237540001;0.0343205370009;2;True;51;1;16.011636734280017
436;436;1445945488;2.14734530449;0.7453457713130001;0.034395448863499996;2;True;51;1;16.011636734280017
437;437;1445945488;2.14743113518;0.745597243309;0.0343578085303;2;True;51;1;16.011636734280017
438;438;1445945488;2.1474475860599997;0.745580375195;0.0343370512128;2;True;51;1;16.011636734280017
439;439;1445945488;2.14739918709;0.745476782322;0.0343540757895;2;True;51;1;16.011636734280017
440;440;1445945488;2.1473526954700004;0.745465397835;0.0344222225249;2;True;51;1;16.011636734280017
441;441;1445945488;2.14744925499;0.7456172704699999;0.034306623041599996;2;True;51;1;16.011636734280017
442;442;1445945488;2.14738535881;0.745421290398;0.034351870417599996;2;True;51;1;16.011636734280017
443;443;1445945488;2.14735174179;0.745348215103;0.0343753322959;2;True;51;1;16.011636734280017
444;444;1445945488;2.1474707126599997;0.745546102524;0.0342816710472;2;True;51;1;16.011636734280017
445;445;1445945488;2.1474583149;0.7455307841300001;0.0343125909567;2;True;51;1;16.011636734280017
446;446;1445945488;2.147387743;0.745527863503;0.0343639068305;2;True;51;1;16.011636734280017
447;447;1445945488;2.14741325378;0.745569050312;0.0343160517514;2;True;51;1;16.011636734280017
448;448;1445945488;2.14745235443;0.745545685291;0.0343015566468;2;True;51;1;16.011636734280017
449;449;1445945488;2.14740824699;0.7454829216;0.0343530774117;2;True;51;1;16.011636734280017
450;450;1445945488;2.14744830132;0.745541572571;0.0342998504639;2;True;51;1;16.011636734280017
451;451;1445945488;2.14744114876;0.7455269098280001;0.0343135558069;2;True;51;1;16.011636734280017
452;452;1445945488;2.1473672390000003;0.745466828346;0.0343354530632;2;True;51;1;16.011636734280017
453;453;1445945488;2.14738297462;0.7454262971879999;0.034376230090900003;2;True;51;1;16.011636734280017
454;454;1445945488;2.14736676216;0.745396018028;0.0343487821519;2;True;51;1;16.011636734280017
455;455;1445945488;2.14745020866;0.7455319762229999;0.0342811122537;2;True;51;1;16.011636734280017
456;456;1445945488;2.14742183685;0.745544135571;0.0343018770218;2;True;51;1;16.011636734280017
457;457;1445945488;2.14736533165;0.74540412426;0.0343571677804;2;True;51;1;16.011636734280017
458;458;1445945488;2.14742541313;0.745556235313;0.0342938043177;2;True;51;1;16.011636734280017
459;459;1445945488;2.14732766151;0.7454835176469999;0.0344031751156;2;True;51;1;16.011636734280017
460;460;1445945488;2.1474153995500003;0.7455221414569999;0.0343189686537;2;True;51;1;16.011636734280017
461;461;1445945488;2.14723181725;0.745311677456;0.0344740264118;2;True;51;1;16.011636734280017
462;462;1445945488;2.14742851257;0.745513617992;0.0343097858131;2;True;51;1;16.011636734280017
463;463;1445945488;2.1474468708;0.745630085468;0.0342969819903;2;True;51;1;16.011636734280017
464;464;1445945488;2.1472349166900004;0.74532520771;0.034437764435999996;2;True;51;1;16.011636734280017
465;465;1445945488;2.14734888077;0.745468139648;0.034361764788599994;2;True;51;1;16.011636734280017
466;466;1445945488;2.14741802216;0.74553745985;0.0343222767115;2;True;51;1;16.011636734280017
467;467;1445945488;2.1473917961099995;0.745525240898;0.0343280509114;2;True;51;1;16.011636734280017
468;468;1445945488;2.1473786830900004;0.7454834580419999;0.0343526490033;2;True;51;1;16.011636734280017
469;469;1445945488;2.1473360061599998;0.745471537113;0.0343656241894;2;True;51;1;16.011636734280017
470;470;1445945488;2.1474268436400004;0.745563030243;0.034300684928900003;2;True;51;1;16.011636734280017
471;471;1445945488;2.14743638039;0.745619058609;0.034314159303900006;2;True;51;1;16.011636734280017
472;472;1445945488;2.1473705768599998;0.745510995388;0.034390006214400005;2;True;51;1;16.011636734280017
473;473;1445945488;2.14744400978;0.745506823063;0.0342947207391;2;True;51;1;16.011636734280017
474;474;1445945488;2.14743113518;0.7456424832340001;0.034307524561900005;2;True;51;1;16.011636734280017
475;475;1445945488;2.14739274979;0.7454330325130001;0.0343446061015;2;True;51;1;16.011636734280017
476;476;1445945488;2.14736676216;0.74548637867;0.0343361496925;2;True;51;1;16.011636734280017
477;477;1445945488;2.1474270820599997;0.745470881462;0.034305755049;2;True;51;1;16.011636734280017
478;478;1445945488;2.1473603248599997;0.7453678846359999;0.0343888066709;2;True;51;1;16.011636734280017
479;479;1445945488;2.1473944187200003;0.7454820275309999;0.0344150438905;2;True;51;1;16.011636734280017
480;480;1445945488;2.1473803520200003;0.745433390141;0.0343915484846;2;True;51;1;16.011636734280017
481;481;1445945488;2.14743971825;0.745533943176;0.0343164205551;2;True;51;1;16.011636734280017
482;482;1445945488;2.1474599838299997;0.745538115501;0.034320730715999996;2;True;51;1;16.011636734280017
483;483;1445945488;2.1474351882900002;0.745575845242;0.034306708723299995;2;True;51;1;16.011636734280017
484;484;1445945488;2.1473648548099997;0.7454047203059999;0.034401576966;2;True;51;1;16.011636734280017
485;485;1445945488;2.1474618911700003;0.745558738708;0.0342984236777;2;True;51;1;16.011636734280017
486;486;1445945489;2.1473839283;0.7454889416689999;0.0344078876078;3;True;51;1;16.011636734280017
487;487;1445945489;2.1474261283900002;0.745544612408;0.034334838390399997;3;True;51;1;16.011636734280017
488;488;1445945489;2.1474466323900003;0.7455233931540001;0.0343323796988;3;True;51;1;16.011636734280017
489;489;1445945489;2.14744973183;0.745540142059;0.0343159586191;3;True;51;1;16.011636734280017
490;490;1445945489;2.14736819267;0.745482444763;0.0343767702579;3;True;51;1;16.011636734280017
491;491;1445945489;2.14725470543;0.745402872562;0.0344541594386;3;True;51;1;16.011636734280017
492;492;1445945489;2.1474194526700003;0.745522022247;0.0343383513391;3;True;51;1;16.011636734280017
493;493;1445945489;2.1474328041099997;0.745478272438;0.0343355946243;3;True;51;1;16.011636734280017
494;494;1445945489;2.1474208831799997;0.745456218719;0.0343420468271;3;True;51;1;16.011636734280017
495;495;1445945489;2.14740657806;0.74537229538;0.0343689545989;3;True;51;1;16.011636734280017
496;496;1445945489;2.14745688438;0.745627641678;0.0343188643456;3;True;51;1;16.011636734280017
497;497;1445945489;2.14739561081;0.745406270027;0.034422378987099995;3;True;51;1;16.011636734280017
498;498;1445945489;2.14739608765;0.745493531227;0.0344140194356;3;True;51;1;16.011636734280017
499;499;1445945489;2.1473951339700004;0.7454153895379999;0.0343707278371;3;True;51;1;16.011636734280017
500;500;1445945489;2.14735198021;0.745364904404;0.0344217345119;3;True;51;1;16.011636734280017
501;501;1445945489;2.14747190475;0.745599925518;0.0343175716698;3;True;51;1;16.011636734280017
502;502;1445945489;2.14737033844;0.7454848289489999;0.034432716667699995;3;True;51;1;16.011636734280017
503;503;1445945489;2.14747285843;0.745636820793;0.0343164876103;3;True;51;1;16.011636734280017
504;504;1445945489;2.14743304253;0.745570540428;0.0343655645847;3;True;51;1;16.011636734280017
505;505;1445945489;2.14744877815;0.7454996705060001;0.034329004585700006;3;True;51;1;16.011636734280017
506;506;1445945489;2.1474268436400004;0.745514452457;0.0343775600195;3;True;51;1;16.011636734280017
507;507;1445945489;2.14745020866;0.745537042618;0.0343455933034;3;True;51;1;16.011636734280017
508;508;1445945489;2.1474747657799997;0.7456493377689999;0.0343361347914;3;True;51;1;16.011636734280017
509;509;1445945489;2.1473639011400003;0.745432674885;0.0344050042331;3;True;51;1;16.011636734280017
510;510;1445945489;2.14745950699;0.74564152956;0.0343294776976;3;True;51;1;16.011636734280017
511;511;1445945489;2.1474711895;0.7456486821170001;0.0343375839293;3;True;51;1;16.011636734280017
512;512;1445945489;2.14738130569;0.7454859614370001;0.034410979598800004;3;True;51;1;16.011636734280017
513;513;1445945489;2.1474647522;0.7455772161480001;0.034337662160400004;3;True;51;1;16.011636734280017
514;514;1445945489;2.14746165276;0.745655834675;0.0343352779746;3;True;51;1;16.011636734280017
515;515;1445945489;2.14736580849;0.7454746365549999;0.0344085358083;3;True;51;1;16.011636734280017
516;516;1445945489;2.1474301815;0.7455282211300001;0.0343752503395;3;True;51;1;16.011636734280017
517;517;1445945489;2.14746260643;0.7455635070800001;0.0343345664442;3;True;51;1;16.011636734280017
518;518;1445945489;2.1474454402900003;0.745563983917;0.0343383997679;3;True;51;1;16.011636734280017
519;519;1445945489;2.14740943909;0.7455781102179999;0.0343756712973;3;True;51;1;16.011636734280017
520;520;1445945489;2.1474471092200003;0.74547970295;0.0343447327614;3;True;51;1;16.011636734280017
521;521;1445945489;2.14743685722;0.7455704808239999;0.034347627311900004;3;True;51;1;16.011636734280017
522;522;1445945489;2.14741063118;0.74554926157;0.0343841351569;3;True;51;1;16.011636734280017
523;523;1445945489;2.14743685722;0.745579063892;0.034343682229499996;3;True;51;1;16.011636734280017
524;524;1445945489;2.1474428176900004;0.7455744147300001;0.0343550927937;3;True;51;1;16.011636734280017
525;525;1445945489;2.14746427536;0.745634794235;0.034335821867;3;True;51;1;16.011636734280017
526;526;1445945489;2.14744567871;0.745522856712;0.0343347080052;3;True;51;1;16.011636734280017
527;527;1445945489;2.14742922783;0.7455865144730001;0.034331150353;3;True;51;1;16.011636734280017
528;528;1445945489;2.14745187759;0.7455247640610001;0.034316316247;3;True;51;1;16.011636734280017
529;529;1445945489;2.1474545002000003;0.745619595051;0.034351248294099995;3;True;51;1;16.011636734280017
530;530;1445945489;2.1474277973199998;0.745577335358;0.0343385562301;3;True;51;1;16.011636734280017
531;531;1445945489;2.14734315872;0.7455331683159999;0.034391459077599995;3;True;51;1;16.011636734280017
532;532;1445945489;2.14745974541;0.7455620765690001;0.034317255020099996;3;True;51;1;16.011636734280017
533;533;1445945489;2.14740991592;0.745484530926;0.034432206302900004;3;True;51;1;16.011636734280017
534;534;1445945489;2.14740014076;0.745498776436;0.0343680232763;3;True;51;1;16.011636734280017
535;535;1445945489;2.14742493629;0.7454818487170001;0.0343423783779;3;True;51;1;16.011636734280017
536;536;1445945489;2.1474277973199998;0.7454360127449999;0.0343466363847;3;True;51;1;16.011636734280017
537;537;1445945489;2.14742732048;0.7454865574840001;0.0343285612762;3;True;51;1;16.011636734280017
538;538;1445945489;2.14743471146;0.745614349842;0.0343323796988;3;True;51;1;16.011636734280017
539;539;1445945489;2.14743423462;0.745563149452;0.0343299619853;3;True;51;1;16.011636734280017
540;540;1445945489;2.1473870277400002;0.745454370975;0.034340851008900004;3;True;51;1;16.011636734280017
541;541;1445945489;2.14737892151;0.745504438877;0.0343957878649;3;True;51;1;16.011636734280017
542;542;1445945489;2.14741563797;0.7454704642300001;0.0343523621559;3;True;51;1;16.011636734280017
543;543;1445945489;2.14744901657;0.745519340038;0.0343372188509;3;True;51;1;16.011636734280017
544;544;1445945489;2.14725613594;0.745262742043;0.034467484802;3;True;51;1;16.011636734280017
545;545;1445945489;2.14741706848;0.745503902435;0.034331575036;3;True;51;1;16.011636734280017
546;546;1445945489;2.14734888077;0.7454446554180001;0.0343870781362;3;True;51;1;16.011636734280017
547;547;1445945489;2.1474268436400004;0.745549499989;0.0343270301819;3;True;51;1;16.011636734280017
548;548;1445945489;2.14744639397;0.745506227016;0.0343245267868;3;True;51;1;16.011636734280017
549;549;1445945489;2.14744973183;0.745500504971;0.034303836524499996;3;True;51;1;16.011636734280017
550;550;1445945489;2.14744567871;0.7455524802210001;0.0343123339117;3;True;51;1;16.011636734280017
551;551;1445945489;2.1473977565799998;0.745402693748;0.0343464538455;3;True;51;1;16.011636734280017
552;552;1445945489;2.1473839283;0.7454078197480001;0.0343522727489;3;True;51;1;16.011636734280017
553;553;1445945489;2.14738345146;0.745507895947;0.0343933627009;3;True;51;1;16.011636734280017
554;554;1445945489;2.14745044708;0.745519936085;0.03430249542;3;True;51;1;16.011636734280017
555;555;1445945489;2.1473736763;0.745376348495;0.034374576062;3;True;51;1;16.011636734280017
556;556;1445945489;2.14732551575;0.745453774929;0.0344400629401;3;True;51;1;16.011636734280017
557;557;1445945489;2.14743757248;0.745513081551;0.0343298725784;3;True;51;1;16.011636734280017
558;558;1445945489;2.14742255211;0.745522499084;0.0343283116817;3;True;51;1;16.011636734280017
559;559;1445945489;2.14741849899;0.745536506176;0.0343252383173;3;True;51;1;16.011636734280017
560;560;1445945489;2.14742255211;0.7455620765690001;0.0343291014433;3;True;51;1;16.011636734280017
561;561;1445945489;2.1474387645700004;0.7455806136130001;0.0343082919717;3;True;51;1;16.011636734280017
562;562;1445945489;2.1474747657799997;0.745536267757;0.0342881344259;3;True;51;1;16.011636734280017
563;563;1445945489;2.14743447304;0.745462536812;0.0343308970332;3;True;51;1;16.011636734280017
564;564;1445945489;2.14743471146;0.745469510555;0.034312203526499996;3;True;51;1;16.011636734280017
565;565;1445945489;2.1474571228;0.745600759983;0.034301359206400005;3;True;51;1;16.011636734280017
566;566;1445945489;2.14743375778;0.745567858219;0.0343175083399;3;True;51;1;16.011636734280017
567;567;1445945489;2.14742183685;0.7455685138699999;0.0343228206038;3;True;51;1;16.011636734280017
568;568;1445945489;2.14746570587;0.7456332445139999;0.0342958644032;3;True;51;1;16.011636734280017
569;569;1445945489;2.1474475860599997;0.7455375790600001;0.0343013778329;3;True;51;1;16.011636734280017
570;570;1445945489;2.1474022865299998;0.7454054951669999;0.0343451574445;3;True;51;1;16.011636734280017
571;571;1445945489;2.1474006176;0.745377063751;0.0343466363847;3;True;51;1;16.011636734280017
572;572;1445945489;2.14740967751;0.7454853653910001;0.034340817481299996;3;True;51;1;16.011636734280017
573;573;1445945489;2.14743113518;0.745444476604;0.0343176238239;3;True;51;1;16.011636734280017
574;574;1445945489;2.1473977565799998;0.745428562164;0.0343314036727;3;True;51;1;16.011636734280017
575;575;1445945489;2.14737343788;0.74547290802;0.034376364201300004;3;True;51;1;16.011636734280017
576;576;1445945489;2.14745545387;0.7455642819399999;0.0342980846763;3;True;51;1;16.011636734280017
577;577;1445945489;2.14745616913;0.745539307594;0.0342905595899;3;True;51;1;16.011636734280017
578;578;1445945489;2.14740896225;0.7454549074169999;0.0343039631844;3;True;51;1;16.011636734280017
579;579;1445945489;2.1474328041099997;0.7455223798749999;0.0343153253198;3;True;51;1;16.011636734280017
580;580;1445945489;2.14744186401;0.7455906271930001;0.034292321652199996;3;True;51;1;16.011636734280017
581;581;1445945489;2.1472668647799997;0.7453521490100001;0.034418962895900004;3;True;51;1;16.011636734280017
582;582;1445945489;2.14742875099;0.7455969452860001;0.0343305803835;3;True;51;1;16.011636734280017
583;583;1445945489;2.1474409103400003;0.745553255081;0.0343113131821;3;True;51;1;16.011636734280017
584;584;1445945489;2.14741563797;0.745534658432;0.0343462154269;3;True;51;1;16.011636734280017
585;585;1445945489;2.1474306583400002;0.745472967625;0.034387614578;3;True;51;1;16.011636734280017
586;586;1445945489;2.14741492271;0.745478689671;0.0343958027661;3;True;51;1;16.011636734280017
587;587;1445945489;2.14744400978;0.745530486107;0.0342939011753;3;True;51;1;16.011636734280017
588;588;1445945489;2.14734649658;0.7453835606579999;0.0343791283667;3;True;51;1;16.011636734280017
589;589;1445945489;2.14738750458;0.745431900024;0.0343415923417;3;True;51;1;16.011636734280017
590;590;1445945489;2.14745855331;0.7455996274950001;0.0342980697751;3;True;51;1;16.011636734280017
591;591;1445945489;2.14738297462;0.745414376259;0.034390870481699996;3;True;51;1;16.011636734280017
592;592;1445945489;2.14737606049;0.7455118894580001;0.0343790985644;3;True;51;1;16.011636734280017
593;593;1445945489;2.1474108696000003;0.74556273222;0.0343192405999;3;True;51;1;16.011636734280017
594;594;1445945489;2.14734244347;0.7454311847689999;0.0343998968601;3;True;51;1;16.011636734280017
595;595;1445945489;2.14742922783;0.7455650568009999;0.0343064181507;3;True;51;1;16.011636734280017
596;596;1445945489;2.14731431007;0.745411157608;0.034401081502400004;3;True;51;1;16.011636734280017
597;597;1445945489;2.14738821983;0.745427906513;0.0343620218337;3;True;51;1;16.011636734280017
598;598;1445945489;2.14739251137;0.745462179184;0.0343548692763;3;True;51;1;16.011636734280017
599;599;1445945489;2.14724302292;0.745385825634;0.0344484560192;3;True;51;1;16.011636734280017
600;600;1445945489;2.14738726616;0.745507895947;0.034358240664;3;True;51;1;16.011636734280017
601;601;1445945489;2.14744448662;0.745545566082;0.0343081206083;3;True;51;1;16.011636734280017
602;602;1445945489;2.14743494987;0.745526731014;0.034322924912;3;True;51;1;16.011636734280017
