;Unnamed: 0;header_stamp_secs;pose_position_x;pose_position_y;pose_position_z;seconds;drop_values;flight_number;label;dtw
0;0;1449486835;2.20505356789;0.71771299839;0.0702230557799;0;True;15;1;84.98028026149026
1;1;1449486835;2.20518183708;0.7176983356479999;0.07019282877449999;0;True;15;1;84.98028026149026
2;2;1449486835;2.20494151115;0.7176729440690001;0.0703240558505;0;True;15;1;84.98028026149026
3;3;1449486835;2.20504713058;0.71773070097;0.07015593349930001;0;True;15;1;84.98028026149026
4;4;1449486835;2.2050154209099997;0.717462599277;0.0701701119542;0;True;15;1;84.98028026149026
5;5;1449486835;2.20488238335;0.717381060123;0.0702703371644;0;True;15;1;84.98028026149026
6;6;1449486835;2.20491361618;0.7173947691920001;0.07025669515130001;0;True;15;1;84.98028026149026
7;7;1449486835;2.20484399796;0.717434346676;0.0703754499555;0;True;15;1;84.98028026149026
8;8;1449486835;2.20503783226;0.717696487904;0.0702241808176;0;True;15;1;84.98028026149026
9;9;1449486835;2.2048022747;0.71749651432;0.0704170241952;0;True;15;1;84.98028026149026
10;10;1449486835;2.20505619049;0.7177331447600002;0.07022866606710002;0;True;15;1;84.98028026149026
11;11;1449486835;2.2048740387;0.7176146507260001;0.0704044625163;0;True;15;1;84.98028026149026
12;12;1449486835;2.2049715519;0.717579960823;0.07033354789020001;0;True;15;1;84.98028026149026
13;13;1449486835;2.2050807476;0.7177512049670001;0.0702025443316;0;True;15;1;84.98028026149026
14;14;1449486835;2.20497560501;0.7176131010060001;0.0702644214034;0;True;15;1;84.98028026149026
15;15;1449486835;2.20490002632;0.717435956001;0.0703048929572;0;True;15;1;84.98028026149026
16;16;1449486835;2.20484876633;0.7175989151000001;0.070407114923;0;True;15;1;84.98028026149026
17;17;1449486835;2.20504164696;0.7176961302760001;0.0702113136649;0;True;15;1;84.98028026149026
18;18;1449486835;2.2048580646500002;0.717465043068;0.07034101337189999;0;True;15;1;84.98028026149026
19;19;1449486835;2.20493984222;0.7176247239110001;0.0702940151095;0;True;15;1;84.98028026149026
20;20;1449486835;2.20482397079;0.717462658882;0.0702832266688;0;True;15;1;84.98028026149026
21;21;1449486835;2.20500135422;0.717610180378;0.0702478587627;0;True;15;1;84.98028026149026
22;22;1449486835;2.20508146286;0.7176732420919999;0.070160292089;0;True;15;1;84.98028026149026
23;23;1449486835;2.20479035378;0.717477560043;0.0704021900892;0;True;15;1;84.98028026149026
24;24;1449486835;2.20505023003;0.71762996912;0.0702002868056;0;True;15;1;84.98028026149026
25;25;1449486835;2.20507884026;0.717808246613;0.07015959918499999;0;True;15;1;84.98028026149026
26;26;1449486835;2.2048177719099997;0.7174957394600001;0.07042231410739999;0;True;15;1;84.98028026149026
27;27;1449486835;2.20489120483;0.7176281213760001;0.0703953951597;0;True;15;1;84.98028026149026
28;28;1449486835;2.20483350754;0.7174100875849999;0.0703498572111;0;True;15;1;84.98028026149026
29;29;1449486835;2.2050478458400002;0.717653989792;0.0702540576458;0;True;15;1;84.98028026149026
30;30;1449486835;2.20506906509;0.717803359032;0.070250466466;0;True;15;1;84.98028026149026
31;31;1449486835;2.2048840522799997;0.717459082603;0.0703483968973;0;True;15;1;84.98028026149026
32;32;1449486835;2.2047629356400003;0.717384517193;0.0703765451908;0;True;15;1;84.98028026149026
33;33;1449486835;2.2050960063900003;0.717684864998;0.0702052116394;0;True;15;1;84.98028026149026
34;34;1449486835;2.20497465134;0.7175195217129999;0.0702565535903;0;True;15;1;84.98028026149026
35;35;1449486835;2.20484471321;0.71741694212;0.0702916756272;0;True;15;1;84.98028026149026
36;36;1449486835;2.2048323154400005;0.717615842819;0.07032518833880001;0;True;15;1;84.98028026149026
37;37;1449486835;2.20489358902;0.717534422874;0.0702914074063;0;True;15;1;84.98028026149026
38;38;1449486835;2.20509576797;0.717708587646;0.070271089673;0;True;15;1;84.98028026149026
39;39;1449486835;2.20507192612;0.7176443338390001;0.0702167078853;0;True;15;1;84.98028026149026
40;40;1449486835;2.20507287979;0.7176878452300001;0.0702224448323;0;True;15;1;84.98028026149026
41;41;1449486835;2.20485377312;0.717585206032;0.0704570636153;0;True;15;1;84.98028026149026
42;42;1449486835;2.20494890213;0.717436254025;0.0703890994191;0;True;15;1;84.98028026149026
43;43;1449486835;2.20511388779;0.717699348927;0.0701726749539;0;True;15;1;84.98028026149026
44;44;1449486835;2.20489406586;0.717460751534;0.0703930705786;0;True;15;1;84.98028026149026
45;45;1449486835;2.2049288749700002;0.7174571156499999;0.0703231021762;0;True;15;1;84.98028026149026
46;46;1449486835;2.20511484146;0.717696726322;0.07019004970789999;0;True;15;1;84.98028026149026
47;47;1449486835;2.20507383347;0.717671990395;0.07024978846310001;0;True;15;1;84.98028026149026
48;48;1449486835;2.2050976753200002;0.717795908451;0.0701817125082;0;True;15;1;84.98028026149026
49;49;1449486835;2.20501065254;0.717638373375;0.0702494606376;0;True;15;1;84.98028026149026
50;50;1449486835;2.20486235619;0.7175908088680001;0.0704222247005;0;True;15;1;84.98028026149026
51;51;1449486835;2.205108881;0.717735469341;0.0701949298382;0;True;15;1;84.98028026149026
52;52;1449486835;2.20497298241;0.717665076256;0.07037701457739999;0;True;15;1;84.98028026149026
53;53;1449486835;2.20512390137;0.7177932858470001;0.07016585767269999;0;True;15;1;84.98028026149026
54;54;1449486835;2.20493912697;0.717505335808;0.0703371092677;0;True;15;1;84.98028026149026
55;55;1449486835;2.20510649681;0.717730820179;0.0701862648129;0;True;15;1;84.98028026149026
56;56;1449486835;2.20501685143;0.717697799206;0.070336908102;0;True;15;1;84.98028026149026
57;57;1449486835;2.20510578156;0.717805445194;0.07016899436710002;0;True;15;1;84.98028026149026
58;58;1449486835;2.20509457588;0.7177214026450001;0.070308804512;0;True;15;1;84.98028026149026
59;59;1449486835;2.20498609543;0.71748906374;0.07037261873480001;0;True;15;1;84.98028026149026
60;60;1449486835;2.20503926277;0.717681765556;0.070293545723;0;True;15;1;84.98028026149026
61;61;1449486835;2.2050919532799997;0.7177274823190001;0.0703334063292;0;True;15;1;84.98028026149026
62;62;1449486835;2.2049331665;0.7174739241600001;0.0703648477793;0;True;15;1;84.98028026149026
63;63;1449486835;2.20502972603;0.7178808450699999;0.0701883882284;0;True;15;1;84.98028026149026
64;64;1449486835;2.20494484901;0.717722475529;0.0702377706766;0;True;15;1;84.98028026149026
65;65;1449486835;2.20510268211;0.717630267143;0.0702082142234;0;True;15;1;84.98028026149026
66;66;1449486835;2.20505547523;0.717701852322;0.0702636539936;0;True;15;1;84.98028026149026
67;67;1449486835;2.2048580646500002;0.7175874710079999;0.070382758975;0;True;15;1;84.98028026149026
68;68;1449486835;2.20499205589;0.717605888844;0.07034546136860001;0;True;15;1;84.98028026149026
69;69;1449486835;2.20494437218;0.717573344707;0.07034718990330001;0;True;15;1;84.98028026149026
70;70;1449486835;2.20489907265;0.7174926400180001;0.07028459757569999;0;True;15;1;84.98028026149026
71;71;1449486835;2.20485544205;0.717563986778;0.0703828036785;0;True;15;1;84.98028026149026
72;72;1449486835;2.2050640583;0.717723488808;0.0702410638332;0;True;15;1;84.98028026149026
73;73;1449486835;2.20488023758;0.717436134815;0.07034883648160001;0;True;15;1;84.98028026149026
74;74;1449486835;2.2048945426900004;0.717455565929;0.0702180340886;0;True;15;1;84.98028026149026
75;75;1449486835;2.2049922943099998;0.717480778694;0.07024438679219999;0;True;15;1;84.98028026149026
76;76;1449486835;2.20502662659;0.7174564003939999;0.0701860710979;0;True;15;1;84.98028026149026
77;77;1449486835;2.20497918129;0.7174594998360001;0.0702381357551;0;True;15;1;84.98028026149026
78;78;1449486835;2.20503211021;0.7177221179009999;0.07023762911560001;0;True;15;1;84.98028026149026
79;79;1449486835;2.20504665375;0.7176154851909999;0.0703384578228;0;True;15;1;84.98028026149026
80;80;1449486835;2.20500278473;0.7174256443979999;0.07020362466569999;0;True;15;1;84.98028026149026
81;81;1449486835;2.20507955551;0.717715084553;0.0702473148704;0;True;15;1;84.98028026149026
82;82;1449486835;2.20505046844;0.717662453651;0.07018870860339999;0;True;15;1;84.98028026149026
83;83;1449486835;2.20514059067;0.717792451382;0.070245847106;0;True;15;1;84.98028026149026
84;84;1449486835;2.2049973011;0.7175797820090001;0.07031913846730001;0;True;15;1;84.98028026149026
85;85;1449486835;2.2049698829700004;0.717526376247;0.0703312829137;0;True;15;1;84.98028026149026
86;86;1449486835;2.2049539089200003;0.7174541354180001;0.070296831429;0;True;15;1;84.98028026149026
87;87;1449486835;2.20498752594;0.717603027821;0.07038576155899999;0;True;15;1;84.98028026149026
88;88;1449486835;2.2050716877000003;0.7177531719210001;0.07018491625789999;0;True;15;1;84.98028026149026
89;89;1449486835;2.20499801636;0.717587828636;0.0703219994903;0;True;15;1;84.98028026149026
90;90;1449486835;2.2049057483700003;0.7175342440610001;0.0703581944108;0;True;15;1;84.98028026149026
91;91;1449486835;2.20509552956;0.717690825462;0.0702712386847;0;True;15;1;84.98028026149026
92;92;1449486835;2.20506167412;0.717686057091;0.07022487372160001;0;True;15;1;84.98028026149026
93;93;1449486835;2.20486307144;0.717535972595;0.070379473269;0;True;15;1;84.98028026149026
94;94;1449486835;2.20489740372;0.717588424683;0.07040837407110001;0;True;15;1;84.98028026149026
95;95;1449486835;2.20505356789;0.717635750771;0.0702969431877;0;True;15;1;84.98028026149026
96;96;1449486835;2.2048721313499997;0.717522263527;0.0703526809812;0;True;15;1;84.98028026149026
97;97;1449486835;2.20499324799;0.7176288366320001;0.070594035089;0;True;15;1;84.98028026149026
98;98;1449486835;2.20510220528;0.717647433281;0.07017439603810001;0;True;15;1;84.98028026149026
99;99;1449486835;2.20492482185;0.7174348831180001;0.07029322534799999;0;True;15;1;84.98028026149026
100;100;1449486835;2.2049322128299997;0.717582702637;0.07043922692539999;0;True;15;1;84.98028026149026
101;101;1449486835;2.20502281189;0.717662751675;0.0702932998538;0;True;15;1;84.98028026149026
102;102;1449486835;2.2050380706799997;0.717606842518;0.0702418237925;0;True;15;1;84.98028026149026
103;103;1449486835;2.20487380028;0.717531442642;0.0704039260745;0;True;15;1;84.98028026149026
104;104;1449486835;2.20506620407;0.717723190784;0.070165887475;0;True;15;1;84.98028026149026
105;105;1449486835;2.2049856185900003;0.717578232288;0.0703575387597;0;True;15;1;84.98028026149026
106;106;1449486835;2.20500063896;0.7174473404880001;0.0702037736773;0;True;15;1;84.98028026149026
107;107;1449486835;2.2049715519;0.7176091074940001;0.0703359022737;0;True;15;1;84.98028026149026
108;108;1449486835;2.20487809181;0.7174806594850001;0.07028247416019999;0;True;15;1;84.98028026149026
109;109;1449486835;2.20500850677;0.7176874279979999;0.0702066943049;0;True;15;1;84.98028026149026
110;110;1449486835;2.2049701213799997;0.717578828335;0.07036636769770001;0;True;15;1;84.98028026149026
111;111;1449486835;2.20476412773;0.7174499034880001;0.07047973573210001;0;True;15;1;84.98028026149026
112;112;1449486835;2.2050433158900002;0.7175963521;0.0701845064759;0;True;15;1;84.98028026149026
113;113;1449486835;2.20483922958;0.717493057251;0.07040027529;0;True;15;1;84.98028026149026
114;114;1449486835;2.20474243164;0.7173684835430001;0.07043658941980001;0;True;15;1;84.98028026149026
115;115;1449486835;2.2049150466900005;0.7175114154819999;0.07027652114630001;0;True;15;1;84.98028026149026
116;116;1449486835;2.20492553711;0.71745043993;0.07030024379489999;0;True;15;1;84.98028026149026
117;117;1449486835;2.2050588131;0.717592537403;0.07020220905539999;0;True;15;1;84.98028026149026
118;118;1449486835;2.20495986938;0.7175942659379999;0.0703480169177;0;True;15;1;84.98028026149026
119;119;1449486835;2.20502758026;0.71773660183;0.0702508613467;0;True;15;1;84.98028026149026
120;120;1449486835;2.20494604111;0.7176051139830001;0.0704222545028;0;True;15;1;84.98028026149026
121;121;1449486835;2.20498943329;0.717640638351;0.0703849345446;0;True;15;1;84.98028026149026
122;122;1449486835;2.2048857212099997;0.7175411581990001;0.07026892155410001;0;True;15;1;84.98028026149026
123;123;1449486835;2.2050242424;0.7177221179009999;0.0702422782779;0;True;15;1;84.98028026149026
124;124;1449486835;2.20497965813;0.7175433635709999;0.07042915374039999;0;True;15;1;84.98028026149026
125;125;1449486835;2.20496249199;0.717613458633;0.0703837350011;0;True;15;1;84.98028026149026
126;126;1449486835;2.20499515533;0.717711508274;0.0704026967287;0;True;15;1;84.98028026149026
127;127;1449486835;2.20493602753;0.717607438564;0.0703013390303;0;True;15;1;84.98028026149026
128;128;1449486835;2.20497941971;0.71764755249;0.07040215283630001;0;True;15;1;84.98028026149026
129;129;1449486835;2.20501637459;0.717572331429;0.0702388733625;0;True;15;1;84.98028026149026
130;130;1449486835;2.2046687603;0.717315375805;0.0704380348325;0;True;15;1;84.98028026149026
131;131;1449486835;2.20484185219;0.717497050762;0.070353358984;0;True;15;1;84.98028026149026
132;132;1449486835;2.2050042152400002;0.717617750168;0.0702837631106;0;True;15;1;84.98028026149026
133;133;1449486835;2.20501804352;0.7176735401150001;0.070226252079;0;True;15;1;84.98028026149026
134;134;1449486835;2.2049889564500003;0.7175927758220001;0.0702870860696;0;True;15;1;84.98028026149026
135;135;1449486835;2.20502185822;0.717672109604;0.07026600837710001;0;True;15;1;84.98028026149026
136;136;1449486835;2.20481944084;0.7175467610359999;0.07035237550739999;0;True;15;1;84.98028026149026
137;137;1449486835;2.20489192009;0.717508554459;0.07028643786910001;0;True;15;1;84.98028026149026
138;138;1449486835;2.20486736298;0.717804670334;0.07050590962169999;0;True;15;1;84.98028026149026
139;139;1449486835;2.20489573479;0.7175405621529999;0.0703403055668;0;True;15;1;84.98028026149026
140;140;1449486835;2.20491456985;0.717563331127;0.0702420771122;0;True;15;1;84.98028026149026
141;141;1449486835;2.20498728752;0.7176369428630001;0.0703086107969;0;True;15;1;84.98028026149026
142;142;1449486835;2.2050137519799997;0.7176610231399999;0.07035426050419999;0;True;15;1;84.98028026149026
143;143;1449486835;2.20505619049;0.7176358103749999;0.07024068385360001;0;True;15;1;84.98028026149026
144;144;1449486835;2.2049453258500002;0.717546403408;0.07031816989180001;0;True;15;1;84.98028026149026
145;145;1449486835;2.20484900475;0.717522799969;0.0703874230385;0;True;15;1;84.98028026149026
146;146;1449486835;2.20478177071;0.7175031304359999;0.07039922475810001;0;True;15;1;84.98028026149026
147;147;1449486835;2.2050404548599998;0.717590332031;0.0701863393188;0;True;15;1;84.98028026149026
148;148;1449486835;2.20481443405;0.717472791672;0.07037381082769999;0;True;15;1;84.98028026149026
149;149;1449486835;2.2049765586900003;0.717583954334;0.0703088790178;0;True;15;1;84.98028026149026
150;150;1449486835;2.2050011158;0.7176989316940001;0.0701702088118;0;True;15;1;84.98028026149026
151;151;1449486835;2.2048909664200003;0.717525482178;0.0703309848905;0;True;15;1;84.98028026149026
152;152;1449486835;2.20504355431;0.71761405468;0.070167414844;0;True;15;1;84.98028026149026
153;153;1449486835;2.20501422882;0.717684328556;0.07028757780789999;0;True;15;1;84.98028026149026
154;154;1449486835;2.20492959023;0.7175601720810001;0.070350036025;0;True;15;1;84.98028026149026
155;155;1449486835;2.20502305031;0.7177901864049999;0.07015664875510001;0;True;15;1;84.98028026149026
156;156;1449486835;2.2050216198;0.717602372169;0.0702767446637;0;True;15;1;84.98028026149026
157;157;1449486835;2.20501685143;0.7176787257189999;0.0702775344253;0;True;15;1;84.98028026149026
158;158;1449486835;2.2049818038900004;0.717592835426;0.0702900514007;0;True;15;1;84.98028026149026
159;159;1449486835;2.20497369766;0.717614173889;0.0703433528543;0;True;15;1;84.98028026149026
160;160;1449486835;2.20485663414;0.7175248265270001;0.070381321013;0;True;15;1;84.98028026149026
161;161;1449486835;2.2048785686500003;0.717499256134;0.0702847987413;0;True;15;1;84.98028026149026
162;162;1449486835;2.20480918884;0.717454493046;0.07031979411839999;0;True;15;1;84.98028026149026
163;163;1449486835;2.20480012894;0.7174651026729999;0.0702989920974;0;True;15;1;84.98028026149026
164;164;1449486835;2.20497465134;0.717544078827;0.0702562183142;0;True;15;1;84.98028026149026
165;165;1449486835;2.2048020362900003;0.717396914959;0.0703706294298;0;True;15;1;84.98028026149026
166;166;1449486835;2.20501995087;0.717614412308;0.0702788159251;0;True;15;1;84.98028026149026
167;167;1449486835;2.2050101757;0.717641592026;0.0703524649143;0;True;15;1;84.98028026149026
168;168;1449486835;2.2047522068000003;0.7173433303829999;0.07036700099710001;0;True;15;1;84.98028026149026
169;169;1449486835;2.20494508743;0.717554569244;0.07028692960739999;0;True;15;1;84.98028026149026
170;170;1449486835;2.20497918129;0.7176493406300001;0.07033684849739999;0;True;15;1;84.98028026149026
171;171;1449486835;2.20498633385;0.7174466252330001;0.0701697617769;0;True;15;1;84.98028026149026
172;172;1449486835;2.20492196083;0.7174628973010001;0.07017529010769999;0;True;15;1;84.98028026149026
173;173;1449486835;2.2048072814900004;0.717487931252;0.0702618658543;0;True;15;1;84.98028026149026
174;174;1449486835;2.20484924316;0.7175739407539999;0.07025650143619999;0;True;15;1;84.98028026149026
175;175;1449486835;2.20489048958;0.717563688755;0.0704788714647;0;True;15;1;84.98028026149026
176;176;1449486835;2.20498633385;0.717482447624;0.07027354836460001;0;True;15;1;84.98028026149026
177;177;1449486835;2.20485854149;0.717515289783;0.0703773573041;0;True;15;1;84.98028026149026
178;178;1449486835;2.20488476753;0.717497169971;0.07035744190219999;0;True;15;1;84.98028026149026
179;179;1449486835;2.2050409316999997;0.717719197273;0.0701473578811;0;True;15;1;84.98028026149026
180;180;1449486835;2.2050049305;0.717449963093;0.0701727047563;0;True;15;1;84.98028026149026
181;181;1449486835;2.20501923561;0.7176976203919999;0.0702161490917;0;True;15;1;84.98028026149026
182;182;1449486835;2.2050294876099996;0.717663168907;0.07020709663630001;0;True;15;1;84.98028026149026
183;183;1449486835;2.20504641533;0.717710793018;0.0701460838318;0;True;15;1;84.98028026149026
184;184;1449486835;2.20479416847;0.7174963355060001;0.07033867388960001;0;True;15;1;84.98028026149026
185;185;1449486835;2.20491552353;0.71757131815;0.07034502178430001;0;True;15;1;84.98028026149026
186;186;1449486835;2.20494365692;0.717480182648;0.0703173577785;0;True;15;1;84.98028026149026
187;187;1449486835;2.20503425598;0.717711806297;0.070200547576;0;True;15;1;84.98028026149026
188;188;1449486835;2.20478963852;0.7174897193909999;0.07045503705739999;0;True;15;1;84.98028026149026
189;189;1449486835;2.20481753349;0.71750831604;0.0704863741994;0;True;15;1;84.98028026149026
190;190;1449486835;2.20499539375;0.717642784119;0.0703705176711;0;True;15;1;84.98028026149026
191;191;1449486835;2.20496845245;0.7176112532619999;0.0702612027526;0;True;15;1;84.98028026149026
192;192;1449486835;2.20495295525;0.717481851578;0.07038388401269999;0;True;15;1;84.98028026149026
193;193;1449486835;2.20498871803;0.717578172684;0.0703113153577;0;True;15;1;84.98028026149026
194;194;1449486835;2.20488762856;0.7175360322;0.0703090578318;0;True;15;1;84.98028026149026
195;195;1449486835;2.20508241653;0.717631161213;0.07015461474660001;0;True;15;1;84.98028026149026
196;196;1449486835;2.20501971245;0.717741191387;0.0702731385827;0;True;15;1;84.98028026149026
197;197;1449486835;2.20501804352;0.717617154121;0.0702453553677;0;True;15;1;84.98028026149026
198;198;1449486835;2.20505189896;0.717709302902;0.0702265650034;0;True;15;1;84.98028026149026
199;199;1449486835;2.20487785339;0.7175043225290001;0.07039730995889999;0;True;15;1;84.98028026149026
200;200;1449486835;2.20486283302;0.717549920082;0.07031676173210001;0;True;15;1;84.98028026149026
201;201;1449486835;2.20482206345;0.717514336109;0.07039924710989999;0;True;15;1;84.98028026149026
202;202;1449486835;2.20488286018;0.7175446748729999;0.0703859776258;0;True;15;1;84.98028026149026
203;203;1449486835;2.2049741744999998;0.717443466187;0.0701859220862;0;True;15;1;84.98028026149026
204;204;1449486835;2.2049374580400003;0.7175679802889999;0.0703441426158;0;True;15;1;84.98028026149026
205;205;1449486835;2.2048857212099997;0.717511773109;0.0703775212169;0;True;15;1;84.98028026149026
206;206;1449486835;2.20498538017;0.717642128468;0.0703876614571;0;True;15;1;84.98028026149026
207;207;1449486835;2.20496439934;0.717573046684;0.070354424417;0;True;15;1;84.98028026149026
208;208;1449486835;2.20469856262;0.717533409595;0.0703590214252;0;True;15;1;84.98028026149026
209;209;1449486835;2.20494556427;0.717486381531;0.0703876167536;0;True;15;1;84.98028026149026
210;210;1449486835;2.2050600051900004;0.717613339424;0.0702076479793;0;True;15;1;84.98028026149026
211;211;1449486835;2.20501470566;0.7176607251170001;0.0702827125788;0;True;15;1;84.98028026149026
212;212;1449486835;2.2048399448400002;0.7173404693600001;0.0703699737787;0;True;15;1;84.98028026149026
213;213;1449486835;2.20487499237;0.717468738556;0.0702899172902;0;True;15;1;84.98028026149026
214;214;1449486835;2.2050526142099995;0.7177242636679999;0.07022649794819999;0;True;15;1;84.98028026149026
215;215;1449486835;2.20485758781;0.717511475086;0.0703643709421;0;True;15;1;84.98028026149026
216;216;1449486835;2.20505332947;0.7176262140270001;0.0702084675431;0;True;15;1;84.98028026149026
217;217;1449486835;2.20497608185;0.7176288366320001;0.0703835934401;0;True;15;1;84.98028026149026
218;218;1449486835;2.20487332344;0.71760314703;0.070522479713;0;True;15;1;84.98028026149026
219;219;1449486835;2.20502758026;0.717551589012;0.0701784342527;0;True;15;1;84.98028026149026
220;220;1449486835;2.2049672603599997;0.717578232288;0.07036390900610001;0;True;15;1;84.98028026149026
221;221;1449486835;2.205057621;0.717612206936;0.0702080279589;0;True;15;1;84.98028026149026
222;222;1449486835;2.20491147041;0.7177188396449999;0.0702097564936;0;True;15;1;84.98028026149026
223;223;1449486835;2.20487356186;0.717603445053;0.0703802332282;0;True;15;1;84.98028026149026
224;224;1449486835;2.20484995842;0.71750408411;0.07037182897330001;0;True;15;1;84.98028026149026
225;225;1449486835;2.20504570007;0.717678070068;0.0702076777816;0;True;15;1;84.98028026149026
226;226;1449486835;2.20510077477;0.717590928078;0.0702104642987;0;True;15;1;84.98028026149026
227;227;1449486836;2.20487356186;0.7174848914149999;0.0703712925315;1;True;15;1;84.98028026149026
228;228;1449486836;2.20499563217;0.717635750771;0.070353269577;1;True;15;1;84.98028026149026
229;229;1449486836;2.20486903191;0.7175460457800001;0.0703205391765;1;True;15;1;84.98028026149026
230;230;1449486836;2.2049472332;0.7174963355060001;0.0703363865614;1;True;15;1;84.98028026149026
231;231;1449486836;2.2047648429900004;0.7174373865129999;0.0703892856836;1;True;15;1;84.98028026149026
232;232;1449486836;2.20498752594;0.7174522876739999;0.07019714266060001;1;True;15;1;84.98028026149026
233;233;1449486836;2.20481133461;0.717426300049;0.07039530575280001;1;True;15;1;84.98028026149026
234;234;1449486836;2.20493197441;0.71750742197;0.0703182742;1;True;15;1;84.98028026149026
235;235;1449486836;2.2049181461300003;0.7175495624539999;0.07032074779269999;1;True;15;1;84.98028026149026
236;236;1449486836;2.20498156548;0.7176004052159999;0.0703536570072;1;True;15;1;84.98028026149026
237;237;1449486836;2.20489239693;0.7174949646;0.07028301805260001;1;True;15;1;84.98028026149026
238;238;1449486836;2.20496463776;0.717542350292;0.070315092802;1;True;15;1;84.98028026149026
239;239;1449486836;2.2048869133;0.717528104782;0.0703254789114;1;True;15;1;84.98028026149026
240;240;1449486836;2.20508408546;0.7177098393440001;0.07031128555539999;1;True;15;1;84.98028026149026
241;241;1449486836;2.20506954193;0.7176392078399999;0.0701700896025;1;True;15;1;84.98028026149026
242;242;1449486836;2.2050366401700003;0.71767026186;0.0702652484179;1;True;15;1;84.98028026149026
243;243;1449486836;2.20498800278;0.717626512051;0.07037190347910001;1;True;15;1;84.98028026149026
244;244;1449486836;2.20501208305;0.7176405787469999;0.0702624246478;1;True;15;1;84.98028026149026
245;245;1449486836;2.2049701213799997;0.7176308035850001;0.07021505385639999;1;True;15;1;84.98028026149026
246;246;1449486836;2.2050325870500003;0.717610418797;0.07030750811099999;1;True;15;1;84.98028026149026
247;247;1449486836;2.20506572723;0.717667520046;0.0702314451337;1;True;15;1;84.98028026149026
248;248;1449486836;2.2050921917;0.71771633625;0.0702930390835;1;True;15;1;84.98028026149026
249;249;1449486836;2.20480060577;0.717414915562;0.0703966319561;1;True;15;1;84.98028026149026
250;250;1449486836;2.2049639225;0.717543959618;0.0703240707517;1;True;15;1;84.98028026149026
251;251;1449486836;2.20498228073;0.7174431085590001;0.0702078044415;1;True;15;1;84.98028026149026
252;252;1449486836;2.20508718491;0.717764854431;0.0702224001288;1;True;15;1;84.98028026149026
253;253;1449486836;2.2050716877000003;0.717629313469;0.0702066197991;1;True;15;1;84.98028026149026
254;254;1449486836;2.20497941971;0.717652440071;0.0702448412776;1;True;15;1;84.98028026149026
255;255;1449486836;2.2050909996;0.717665314674;0.0701646655798;1;True;15;1;84.98028026149026
256;256;1449486836;2.20499539375;0.7174596190449999;0.0702080205083;1;True;15;1;84.98028026149026
257;257;1449486836;2.20497298241;0.717575132847;0.070364035666;1;True;15;1;84.98028026149026
258;258;1449486836;2.20483469963;0.717534720898;0.07041170448060001;1;True;15;1;84.98028026149026
259;259;1449486836;2.20482373238;0.717489540577;0.0703553780913;1;True;15;1;84.98028026149026
260;260;1449486836;2.20490264893;0.717461764812;0.0703427642584;1;True;15;1;84.98028026149026
261;261;1449486836;2.2048761844599998;0.717422068119;0.0703907683492;1;True;15;1;84.98028026149026
262;262;1449486836;2.20497965813;0.717470943928;0.0702354758978;1;True;15;1;84.98028026149026
263;263;1449486836;2.20507025719;0.7176038026809999;0.070331171155;1;True;15;1;84.98028026149026
264;264;1449486836;2.20501422882;0.717740654945;0.0702876374125;1;True;15;1;84.98028026149026
265;265;1449486836;2.20505928993;0.717623531818;0.0701926574111;1;True;15;1;84.98028026149026
266;266;1449486836;2.20493531227;0.717469453812;0.0702425017953;1;True;15;1;84.98028026149026
267;267;1449486836;2.20487380028;0.717582345009;0.07054105401039999;1;True;15;1;84.98028026149026
268;268;1449486836;2.2048938274400003;0.7174931168559999;0.07025174051519999;1;True;15;1;84.98028026149026
269;269;1449486836;2.20506620407;0.717818379402;0.0702172443271;1;True;15;1;84.98028026149026
270;270;1449486836;2.2050113678;0.717784166336;0.0702697634697;1;True;15;1;84.98028026149026
271;271;1449486836;2.2047965526599995;0.717378616333;0.0703467205167;1;True;15;1;84.98028026149026
272;272;1449486836;2.2049267292;0.717596113682;0.0703306794167;1;True;15;1;84.98028026149026
273;273;1449486836;2.20508098602;0.7178165316580001;0.0701429918408;1;True;15;1;84.98028026149026
274;274;1449486836;2.20499396324;0.717611432076;0.0703156143427;1;True;15;1;84.98028026149026
275;275;1449486836;2.20497465134;0.717639684677;0.07035570591689999;1;True;15;1;84.98028026149026
276;276;1449486836;2.2049758434299997;0.7176291942599999;0.0702722594142;1;True;15;1;84.98028026149026
277;277;1449486836;2.20495986938;0.717605531216;0.0703743249178;1;True;15;1;84.98028026149026
278;278;1449486836;2.2048752307900004;0.717450559139;0.07026425004010001;1;True;15;1;84.98028026149026
279;279;1449486836;2.20480966568;0.717458605766;0.0703348442912;1;True;15;1;84.98028026149026
280;280;1449486836;2.20497894287;0.7176091074940001;0.0702661052346;1;True;15;1;84.98028026149026
281;281;1449486836;2.20491790771;0.7175092101100001;0.0702991262078;1;True;15;1;84.98028026149026
282;282;1449486836;2.20499515533;0.717629849911;0.0703084766865;1;True;15;1;84.98028026149026
283;283;1449486836;2.2049882412;0.717648148537;0.0703569054604;1;True;15;1;84.98028026149026
284;284;1449486836;2.20500707626;0.7176154851909999;0.07030441612010001;1;True;15;1;84.98028026149026
285;285;1449486836;2.2049231529199997;0.7175758481029999;0.07034685462710001;1;True;15;1;84.98028026149026
286;286;1449486836;2.204870224;0.717491686344;0.0702597796917;1;True;15;1;84.98028026149026
287;287;1449486836;2.20486927032;0.717537581921;0.07031595706939998;1;True;15;1;84.98028026149026
288;288;1449486836;2.20491957664;0.71753692627;0.0703004226089;1;True;15;1;84.98028026149026
289;289;1449486836;2.2047376632700004;0.7173821330069999;0.0704079642892;1;True;15;1;84.98028026149026
290;290;1449486836;2.20488286018;0.717451691628;0.07023818790910001;1;True;15;1;84.98028026149026
291;291;1449486836;2.20476531982;0.717428088188;0.0703546926379;1;True;15;1;84.98028026149026
292;292;1449486836;2.2050526142099995;0.717717528343;0.0701494961977;1;True;15;1;84.98028026149026
293;293;1449486836;2.2048594951599996;0.717535495758;0.07038820534939999;1;True;15;1;84.98028026149026
294;294;1449486836;2.20507407188;0.717710614204;0.0701312199235;1;True;15;1;84.98028026149026
295;295;1449486836;2.20499801636;0.717662930489;0.0703582987189;1;True;15;1;84.98028026149026
296;296;1449486836;2.20495200157;0.717597126961;0.07036157697439999;1;True;15;1;84.98028026149026
297;297;1449486836;2.20504140854;0.717698216438;0.0701910704374;1;True;15;1;84.98028026149026
298;298;1449486836;2.20491623878;0.7175644636149999;0.07034232467410001;1;True;15;1;84.98028026149026
299;299;1449486836;2.20495200157;0.717583954334;0.070342078805;1;True;15;1;84.98028026149026
300;300;1449486836;2.2049663066900003;0.717622339725;0.0703508332372;1;True;15;1;84.98028026149026
301;301;1449486836;2.2047414779700003;0.717486619949;0.0703891664743;1;True;15;1;84.98028026149026
302;302;1449486836;2.20500802994;0.7176110744480001;0.0703014135361;1;True;15;1;84.98028026149026
303;303;1449486836;2.20499849319;0.7174969911579999;0.0702236890793;1;True;15;1;84.98028026149026
304;304;1449486836;2.2048983573900003;0.717525720596;0.0705139786005;1;True;15;1;84.98028026149026
305;305;1449486836;2.2049188613900004;0.717607140541;0.0702892541885;1;True;15;1;84.98028026149026
306;306;1449486836;2.20488119125;0.717814266682;0.07043148577210001;1;True;15;1;84.98028026149026
307;307;1449486836;2.2050487995099997;0.717710018158;0.07016953080889998;1;True;15;1;84.98028026149026
308;308;1449486836;2.20485138893;0.7175090312960001;0.07035430520769999;1;True;15;1;84.98028026149026
309;309;1449486836;2.20489645004;0.7174845337870001;0.0702721253037;1;True;15;1;84.98028026149026
310;310;1449486836;2.20490121841;0.7175453305239999;0.07031869888310001;1;True;15;1;84.98028026149026
311;311;1449486836;2.20498514175;0.7176575064659999;0.0703834965825;1;True;15;1;84.98028026149026
312;312;1449486836;2.20506715775;0.717624306679;0.0702482461929;1;True;15;1;84.98028026149026
313;313;1449486836;2.2048938274400003;0.717611134052;0.0703861489892;1;True;15;1;84.98028026149026
314;314;1449486836;2.20505475998;0.717665493488;0.0702081024647;1;True;15;1;84.98028026149026
315;315;1449486836;2.20504379272;0.7176275253300001;0.0703713223338;1;True;15;1;84.98028026149026
316;316;1449486836;2.20496535301;0.7176043987270001;0.07035050541160001;1;True;15;1;84.98028026149026
317;317;1449486836;2.20498347282;0.717619121075;0.0703216418624;1;True;15;1;84.98028026149026
318;318;1449486836;2.2049922943099998;0.717635929585;0.0703693106771;1;True;15;1;84.98028026149026
319;319;1449486836;2.20508909225;0.717633366585;0.0701503530145;1;True;15;1;84.98028026149026
320;320;1449486836;2.20504164696;0.717611670494;0.0702168941498;1;True;15;1;84.98028026149026
321;321;1449486836;2.20507073402;0.7176914215090001;0.0702216625214;1;True;15;1;84.98028026149026
322;322;1449486836;2.2048830986000003;0.71735817194;0.0703909024596;1;True;15;1;84.98028026149026
323;323;1449486836;2.20483756065;0.717467367649;0.070349521935;1;True;15;1;84.98028026149026
324;324;1449486836;2.20487833023;0.717545211315;0.07029845565560001;1;True;15;1;84.98028026149026
325;325;1449486836;2.2049508094799997;0.7175140380859999;0.0703113600612;1;True;15;1;84.98028026149026
326;326;1449486836;2.20493721962;0.7178059220309999;0.07027865946289999;1;True;15;1;84.98028026149026
327;327;1449486836;2.20507383347;0.7177194356919999;0.070187702775;1;True;15;1;84.98028026149026
328;328;1449486836;2.20489525795;0.7175616621969999;0.0704090744257;1;True;15;1;84.98028026149026
329;329;1449486836;2.2050819397;0.717741429806;0.07022003084419999;1;True;15;1;84.98028026149026
330;330;1449486836;2.20501923561;0.7176584005359999;0.07038868218660001;1;True;15;1;84.98028026149026
331;331;1449486836;2.20477557182;0.7174283862109999;0.07043748348949999;1;True;15;1;84.98028026149026
332;332;1449486836;2.20501184464;0.717653214931;0.0703795403242;1;True;15;1;84.98028026149026
333;333;1449486836;2.20488214493;0.717333376408;0.07038499414919999;1;True;15;1;84.98028026149026
334;334;1449486836;2.2049832344099998;0.7175838947300001;0.070327706635;1;True;15;1;84.98028026149026
335;335;1449486836;2.20507025719;0.717679917812;0.07024976611139999;1;True;15;1;84.98028026149026
336;336;1449486836;2.20477390289;0.717431664467;0.07049188762900001;1;True;15;1;84.98028026149026
337;337;1449486836;2.2049832344099998;0.7175983786579999;0.07027821987869999;1;True;15;1;84.98028026149026
338;338;1449486836;2.2049882412;0.7174963355060001;0.07026769965889999;1;True;15;1;84.98028026149026
339;339;1449486836;2.20486283302;0.717517912388;0.0703641846776;1;True;15;1;84.98028026149026
340;340;1449486836;2.20509386063;0.717696011066;0.0701815783978;1;True;15;1;84.98028026149026
341;341;1449486836;2.20515799522;0.717620253563;0.0702049657702;1;True;15;1;84.98028026149026
342;342;1449486836;2.20483875275;0.7174167037010001;0.07035715878010002;1;True;15;1;84.98028026149026
343;343;1449486836;2.20473861694;0.7172419428829999;0.0704581141472;1;True;15;1;84.98028026149026
344;344;1449486836;2.20487499237;0.717416226864;0.070393845439;1;True;15;1;84.98028026149026
345;345;1449486836;2.20493865013;0.7175699472429999;0.0702280178666;1;True;15;1;84.98028026149026
346;346;1449486836;2.20507836342;0.7177513241769999;0.0701632201672;1;True;15;1;84.98028026149026
347;347;1449486836;2.20503497124;0.7177002429960001;0.07017482072110001;1;True;15;1;84.98028026149026
348;348;1449486836;2.20498943329;0.7176656126980001;0.070382848382;1;True;15;1;84.98028026149026
349;349;1449486836;2.20508646965;0.717796564102;0.07015317678449999;1;True;15;1;84.98028026149026
350;350;1449486836;2.2050642967200003;0.7176166176800001;0.07025080919269999;1;True;15;1;84.98028026149026
351;351;1449486836;2.2050552368200003;0.7176548838619999;0.0702099725604;1;True;15;1;84.98028026149026
352;352;1449486836;2.20509910583;0.7177226543430001;0.0702238306403;1;True;15;1;84.98028026149026
353;353;1449486836;2.20506906509;0.717623949051;0.0701759830117;1;True;15;1;84.98028026149026
354;354;1449486836;2.20489430428;0.7174860239030001;0.0703374445438;1;True;15;1;84.98028026149026
355;355;1449486836;2.20495724678;0.7175332307819999;0.07037307322030001;1;True;15;1;84.98028026149026
356;356;1449486836;2.20500445366;0.71760225296;0.07031974941489999;1;True;15;1;84.98028026149026
357;357;1449486836;2.2048892974900003;0.717513561249;0.07038776576519999;1;True;15;1;84.98028026149026
358;358;1449486836;2.20500016212;0.7175059318539999;0.070206053555;1;True;15;1;84.98028026149026
359;359;1449486836;2.20479416847;0.717535495758;0.07041769474739999;1;True;15;1;84.98028026149026
360;360;1449486836;2.20508575439;0.7177981138230001;0.0702077373862;1;True;15;1;84.98028026149026
361;361;1449486836;2.2049877643599998;0.717671573162;0.0703869089484;1;True;15;1;84.98028026149026
362;362;1449486836;2.20495176315;0.7175838947300001;0.070364035666;1;True;15;1;84.98028026149026
363;363;1449486836;2.20487880707;0.717445135117;0.0703784897923;1;True;15;1;84.98028026149026
364;364;1449486836;2.20481920242;0.717536389828;0.0703630372882;1;True;15;1;84.98028026149026
365;365;1449486836;2.20499110222;0.7174758315090001;0.0702331140637;1;True;15;1;84.98028026149026
366;366;1449486836;2.2049615383099996;0.717597901821;0.0703013315797;1;True;15;1;84.98028026149026
367;367;1449486836;2.2048835754400002;0.7174997925759999;0.07036227732900001;1;True;15;1;84.98028026149026
368;368;1449486836;2.2048518657700003;0.7174303531649999;0.0703749358654;1;True;15;1;84.98028026149026
369;369;1449486836;2.20495200157;0.7175072431559999;0.0702706202865;1;True;15;1;84.98028026149026
370;370;1449486836;2.2050683498400003;0.717659235001;0.07015605270860001;1;True;15;1;84.98028026149026
371;371;1449486836;2.20506811142;0.717627704144;0.0701417550445;1;True;15;1;84.98028026149026
372;372;1449486836;2.20480895042;0.717420816422;0.0703719779849;1;True;15;1;84.98028026149026
373;373;1449486836;2.2048680782299996;0.717555820942;0.0703753978014;1;True;15;1;84.98028026149026
374;374;1449486836;2.2048265934;0.717487752438;0.0703860595822;1;True;15;1;84.98028026149026
375;375;1449486836;2.2048561573;0.717533886433;0.0703722536564;1;True;15;1;84.98028026149026
376;376;1449486836;2.20503783226;0.717696607113;0.0701838880777;1;True;15;1;84.98028026149026
377;377;1449486836;2.2048695087400003;0.7176051139830001;0.0703530982137;1;True;15;1;84.98028026149026
378;378;1449486836;2.20504808426;0.717707514763;0.0702206417918;1;True;15;1;84.98028026149026
379;379;1449486836;2.20492386818;0.717572808266;0.07036110758780001;1;True;15;1;84.98028026149026
380;380;1449486836;2.20499396324;0.717623054981;0.0702615827322;1;True;15;1;84.98028026149026
381;381;1449486836;2.20505070686;0.717601418495;0.07017763704060001;1;True;15;1;84.98028026149026
382;382;1449486836;2.20492577553;0.717683017254;0.07023125141860001;1;True;15;1;84.98028026149026
383;383;1449486836;2.20483922958;0.717526614666;0.0703774914145;1;True;15;1;84.98028026149026
384;384;1449486836;2.2050042152400002;0.717525601387;0.0703683122993;1;True;15;1;84.98028026149026
385;385;1449486836;2.2050211429599997;0.7176405191419999;0.0701860561967;1;True;15;1;84.98028026149026
386;386;1449486836;2.20492529869;0.717434108257;0.0702931433916;1;True;15;1;84.98028026149026
387;387;1449486836;2.2049579620400004;0.717563986778;0.070324473083;1;True;15;1;84.98028026149026
388;388;1449486836;2.2048754692099997;0.717561304569;0.07028178125620001;1;True;15;1;84.98028026149026
389;389;1449486836;2.2049758434299997;0.717592835426;0.07027665525669999;1;True;15;1;84.98028026149026
390;390;1449486836;2.2049143314400004;0.717560768127;0.0703040212393;1;True;15;1;84.98028026149026
391;391;1449486836;2.2049770355200002;0.71754527092;0.0703688487411;1;True;15;1;84.98028026149026
392;392;1449486836;2.2049574852;0.717600643635;0.07036460936069999;1;True;15;1;84.98028026149026
393;393;1449486836;2.20491123199;0.717591941357;0.0702667832375;1;True;15;1;84.98028026149026
394;394;1449486836;2.20485758781;0.717577040195;0.07036083936689999;1;True;15;1;84.98028026149026
395;395;1449486836;2.20499420166;0.7176807522769999;0.07028065621849999;1;True;15;1;84.98028026149026
396;396;1449486836;2.20496177673;0.7175771594050001;0.0702855214477;1;True;15;1;84.98028026149026
397;397;1449486836;2.20478916168;0.7173757553100001;0.0703498199582;1;True;15;1;84.98028026149026
398;398;1449486836;2.2048285007499997;0.717811405659;0.0704011768103;1;True;15;1;84.98028026149026
399;399;1449486836;2.2050101757;0.7176349163060001;0.0702247321606;1;True;15;1;84.98028026149026
400;400;1449486836;2.2048959732099997;0.7173206210140001;0.0702436491847;1;True;15;1;84.98028026149026
401;401;1449486836;2.20489788055;0.71758043766;0.07027027010919999;1;True;15;1;84.98028026149026
402;402;1449486836;2.20497274399;0.7175769805910001;0.07031637430189999;1;True;15;1;84.98028026149026
403;403;1449486836;2.2048892974900003;0.717589437962;0.0703336820006;1;True;15;1;84.98028026149026
404;404;1449486836;2.20483589172;0.717500388622;0.07035068422560001;1;True;15;1;84.98028026149026
405;405;1449486836;2.2048606872599996;0.717586219311;0.0703669786453;1;True;15;1;84.98028026149026
406;406;1449486836;2.20503973961;0.717691302299;0.0701820999384;1;True;15;1;84.98028026149026
407;407;1449486836;2.20484399796;0.7174534201620001;0.07032038271430001;1;True;15;1;84.98028026149026
408;408;1449486836;2.20484852791;0.717505514622;0.0702460631728;1;True;15;1;84.98028026149026
409;409;1449486836;2.2048983573900003;0.7175840735439999;0.0702782720327;1;True;15;1;84.98028026149026
410;410;1449486836;2.20476579666;0.717367529869;0.0703505575657;1;True;15;1;84.98028026149026
411;411;1449486836;2.2050247192400003;0.7176772356029999;0.0701920315623;1;True;15;1;84.98028026149026
412;412;1449486836;2.2049612999;0.717435896397;0.07019869238139999;1;True;15;1;84.98028026149026
413;413;1449486836;2.20500540733;0.717583417892;0.0701881423593;1;True;15;1;84.98028026149026
414;414;1449486836;2.20488190651;0.717499196529;0.0703551247716;1;True;15;1;84.98028026149026
415;415;1449486836;2.20503282547;0.717694997787;0.0702232792974;1;True;15;1;84.98028026149026
416;416;1449486836;2.20497608185;0.717635571957;0.07037377357480001;1;True;15;1;84.98028026149026
417;417;1449486836;2.20486330986;0.717486977577;0.070341669023;1;True;15;1;84.98028026149026
418;418;1449486836;2.20501422882;0.7175976037980001;0.07019237428899999;1;True;15;1;84.98028026149026
419;419;1449486836;2.2048368454;0.717525482178;0.0703826025128;1;True;15;1;84.98028026149026
420;420;1449486836;2.2049739360799996;0.7175234556199999;0.07022678852080001;1;True;15;1;84.98028026149026
421;421;1449486836;2.20506238937;0.7177165746690001;0.0701337903738;1;True;15;1;84.98028026149026
422;422;1449486836;2.20500063896;0.7176077961920001;0.0702467262745;1;True;15;1;84.98028026149026
423;423;1449486836;2.2048521041900004;0.71750497818;0.07027946412560002;1;True;15;1;84.98028026149026
424;424;1449486836;2.20489430428;0.717462182045;0.0703290328383;1;True;15;1;84.98028026149026
425;425;1449486836;2.2050936222099997;0.717690289021;0.070172958076;1;True;15;1;84.98028026149026
426;426;1449486836;2.2048521041900004;0.7175518870350001;0.0703832805157;1;True;15;1;84.98028026149026
427;427;1449486836;2.20494914055;0.71756118536;0.07028108090160001;1;True;15;1;84.98028026149026
428;428;1449486836;2.20500779152;0.717594325542;0.07022482901810001;1;True;15;1;84.98028026149026
429;429;1449486836;2.2049703598;0.717612564564;0.0703329592943;1;True;15;1;84.98028026149026
430;430;1449486836;2.20506644249;0.717766404152;0.0701851025224;1;True;15;1;84.98028026149026
431;431;1449486836;2.2050652504;0.717828333378;0.07015807181599999;1;True;15;1;84.98028026149026
432;432;1449486836;2.2049226760900003;0.717472910881;0.0702816322446;1;True;15;1;84.98028026149026
433;433;1449486836;2.20479297638;0.7173901796340001;0.0703471675515;1;True;15;1;84.98028026149026
434;434;1449486836;2.20491719246;0.717553317547;0.0703271999955;1;True;15;1;84.98028026149026
435;435;1449486836;2.2050914764400003;0.717680811882;0.0701477080584;1;True;15;1;84.98028026149026
436;436;1449486836;2.20488142967;0.717649579048;0.07021923363210002;1;True;15;1;84.98028026149026
437;437;1449486836;2.20492863655;0.717567324638;0.07034299522639999;1;True;15;1;84.98028026149026
438;438;1449486836;2.20488071442;0.717535018921;0.07053399086;1;True;15;1;84.98028026149026
439;439;1449486836;2.20507121086;0.717786967754;0.07014068961139999;1;True;15;1;84.98028026149026
440;440;1449486836;2.20506572723;0.717649102211;0.0701981335878;1;True;15;1;84.98028026149026
441;441;1449486836;2.2050018310499997;0.7176471352580001;0.0702819228172;1;True;15;1;84.98028026149026
442;442;1449486836;2.20474720001;0.717491328716;0.0703292489052;1;True;15;1;84.98028026149026
443;443;1449486836;2.2047998905200004;0.717491388321;0.0703669339418;1;True;15;1;84.98028026149026
444;444;1449486836;2.2049384117099997;0.717657089233;0.070349663496;1;True;15;1;84.98028026149026
445;445;1449486836;2.2050716877000003;0.7177400588989999;0.07021498680110001;1;True;15;1;84.98028026149026
446;446;1449486836;2.20488643646;0.7174963355060001;0.0702838003635;1;True;15;1;84.98028026149026
447;447;1449486836;2.2049441337599998;0.7176024913789999;0.0702952370048;1;True;15;1;84.98028026149026
448;448;1449486836;2.20488739014;0.717510938644;0.0703779757023;1;True;15;1;84.98028026149026
449;449;1449486836;2.20500206947;0.7174692153929999;0.0702634975314;1;True;15;1;84.98028026149026
450;450;1449486836;2.20505309105;0.717713832855;0.07021556049589998;1;True;15;1;84.98028026149026
451;451;1449486836;2.20483398438;0.717565238476;0.070476219058;1;True;15;1;84.98028026149026
452;452;1449486836;2.20481085777;0.7173998355869999;0.0703636854887;1;True;15;1;84.98028026149026
453;453;1449486836;2.2050247192400003;0.71765345335;0.0703587755561;1;True;15;1;84.98028026149026
454;454;1449486836;2.20487785339;0.717496693134;0.07036901265380001;1;True;15;1;84.98028026149026
455;455;1449486836;2.2049813270599996;0.717633485794;0.0702956467867;1;True;15;1;84.98028026149026
456;456;1449486836;2.20500612259;0.717580258846;0.0702581778169;1;True;15;1;84.98028026149026
457;457;1449486836;2.20483374596;0.717543661594;0.070347353816;1;True;15;1;84.98028026149026
458;458;1449486836;2.20489406586;0.7174609899519999;0.0703259781003;1;True;15;1;84.98028026149026
459;459;1449486836;2.20505189896;0.717597544193;0.070246309042;1;True;15;1;84.98028026149026
460;460;1449486836;2.2050442695599997;0.7176188230509999;0.07025089859960001;1;True;15;1;84.98028026149026
461;461;1449486836;2.2050549984;0.717548191547;0.0702400654554;1;True;15;1;84.98028026149026
462;462;1449486836;2.20499491692;0.717635333538;0.0702494680882;1;True;15;1;84.98028026149026
463;463;1449486836;2.20496344566;0.7176331877709999;0.070294752717;1;True;15;1;84.98028026149026
464;464;1449486836;2.20481538773;0.717409491539;0.0703683272004;1;True;15;1;84.98028026149026
465;465;1449486837;2.2048766613;0.717495203018;0.0702513381839;2;True;15;1;84.98028026149026
466;466;1449486837;2.2050247192400003;0.717606008053;0.070231564343;2;True;15;1;84.98028026149026
467;467;1449486837;2.2049419879900003;0.717570602894;0.0702877864242;2;True;15;1;84.98028026149026
468;468;1449486837;2.2047522068000003;0.7174438238140001;0.0703161358833;2;True;15;1;84.98028026149026
469;469;1449486837;2.2049622535699998;0.717434346676;0.0702503323555;2;True;15;1;84.98028026149026
470;470;1449486837;2.20501708984;0.717599272728;0.0702260956168;2;True;15;1;84.98028026149026
471;471;1449486837;2.2050018310499997;0.7176128029819999;0.0702432543039;2;True;15;1;84.98028026149026
472;472;1449486837;2.2049593925499997;0.717622339725;0.0702912509441;2;True;15;1;84.98028026149026
473;473;1449486837;2.20481729507;0.71757543087;0.07037870585919999;2;True;15;1;84.98028026149026
474;474;1449486837;2.2049975395200003;0.7176452279090001;0.0703332647681;2;True;15;1;84.98028026149026
475;475;1449486837;2.20494365692;0.7175424695010001;0.0703779757023;2;True;15;1;84.98028026149026
476;476;1449486837;2.2049725055700002;0.7176254987720001;0.0703642293811;2;True;15;1;84.98028026149026
477;477;1449486837;2.2050909996;0.717682778835;0.0701209902763;2;True;15;1;84.98028026149026
478;478;1449486837;2.20478773117;0.717462003231;0.0703434869647;2;True;15;1;84.98028026149026
479;479;1449486837;2.20491075516;0.717633724213;0.0703422054648;2;True;15;1;84.98028026149026
480;480;1449486837;2.20506763458;0.717581212521;0.0702840387821;2;True;15;1;84.98028026149026
481;481;1449486837;2.20488739014;0.717619776726;0.070357568562;2;True;15;1;84.98028026149026
482;482;1449486837;2.20488214493;0.717463374138;0.0703735649586;2;True;15;1;84.98028026149026
483;483;1449486837;2.20503091812;0.7176125049590001;0.0702367275953;2;True;15;1;84.98028026149026
484;484;1449486837;2.2048740387;0.717523515224;0.0703407004476;2;True;15;1;84.98028026149026
485;485;1449486837;2.205088377;0.7176369428630001;0.0701294690371;2;True;15;1;84.98028026149026
486;486;1449486837;2.20488262177;0.7175398468970001;0.0703722164035;2;True;15;1;84.98028026149026
487;487;1449486837;2.2049045562700003;0.717445611954;0.0702562257648;2;True;15;1;84.98028026149026
488;488;1449486837;2.20490407944;0.7175608873370001;0.07024294883010002;2;True;15;1;84.98028026149026
489;489;1449486837;2.2049150466900005;0.717582643032;0.0702907517552;2;True;15;1;84.98028026149026
490;490;1449486837;2.20483708382;0.717547416687;0.0703247264028;2;True;15;1;84.98028026149026
491;491;1449486837;2.2049043178599996;0.7175360322;0.0702472105622;2;True;15;1;84.98028026149026
492;492;1449486837;2.20494365692;0.71754437685;0.0702396780252;2;True;15;1;84.98028026149026
493;493;1449486837;2.20490980148;0.717480361462;0.0702563375235;2;True;15;1;84.98028026149026
494;494;1449486837;2.2048695087400003;0.717559695244;0.0702004432678;2;True;15;1;84.98028026149026
495;495;1449486837;2.20503902435;0.7176119685169999;0.0702658221126;2;True;15;1;84.98028026149026
496;496;1449486837;2.20485043526;0.7174611091609999;0.07034237682819999;2;True;15;1;84.98028026149026
497;497;1449486837;2.20491123199;0.717463254929;0.0703233331442;2;True;15;1;84.98028026149026
498;498;1449486837;2.20502734184;0.717482686043;0.07017663866280001;2;True;15;1;84.98028026149026
499;499;1449486837;2.20485448837;0.717565834522;0.0703472569585;2;True;15;1;84.98028026149026
500;500;1449486837;2.2049322128299997;0.7176097035410001;0.070275016129;2;True;15;1;84.98028026149026
501;501;1449486837;2.2050075531;0.71760815382;0.070293135941;2;True;15;1;84.98028026149026
502;502;1449486837;2.20510530472;0.717653989792;0.0702375769615;2;True;15;1;84.98028026149026
503;503;1449486837;2.20495033264;0.717493057251;0.0703755617142;2;True;15;1;84.98028026149026
504;504;1449486837;2.20491075516;0.717559218407;0.0703765749931;2;True;15;1;84.98028026149026
505;505;1449486837;2.20506072044;0.717578947544;0.07022703439;2;True;15;1;84.98028026149026
506;506;1449486837;2.20499897003;0.7176670432089999;0.070331171155;2;True;15;1;84.98028026149026
507;507;1449486837;2.20499372482;0.7175803780560001;0.07023271173239999;2;True;15;1;84.98028026149026
508;508;1449486837;2.20505642891;0.717715680599;0.070198841393;2;True;15;1;84.98028026149026
509;509;1449486837;2.20491051674;0.717580735683;0.0702571719885;2;True;15;1;84.98028026149026
510;510;1449486837;2.20481967926;0.717483699322;0.0703312978148;2;True;15;1;84.98028026149026
511;511;1449486837;2.2048521041900004;0.71757543087;0.0703322663903;2;True;15;1;84.98028026149026
512;512;1449486837;2.20489764214;0.717490673065;0.070210494101;2;True;15;1;84.98028026149026
513;513;1449486837;2.2048170566599996;0.717480421066;0.0703757628798;2;True;15;1;84.98028026149026
514;514;1449486837;2.2049758434299997;0.717652857304;0.07037808746100001;2;True;15;1;84.98028026149026
515;515;1449486837;2.2050552368200003;0.717708110809;0.07020439952610001;2;True;15;1;84.98028026149026
516;516;1449486837;2.2050642967200003;0.717738687992;0.0702272728086;2;True;15;1;84.98028026149026
517;517;1449486837;2.20495510101;0.717572331429;0.0703829303384;2;True;15;1;84.98028026149026
518;518;1449486837;2.20482182503;0.717680513859;0.07036638259889999;2;True;15;1;84.98028026149026
519;519;1449486837;2.2048881053900002;0.717544436455;0.0704227387905;2;True;15;1;84.98028026149026
520;520;1449486837;2.2049331665;0.717532515526;0.0703240185976;2;True;15;1;84.98028026149026
521;521;1449486837;2.20506119728;0.7177385687829999;0.0701451674104;2;True;15;1;84.98028026149026
522;522;1449486837;2.20481181145;0.717558324337;0.0704637542367;2;True;15;1;84.98028026149026
523;523;1449486837;2.20503902435;0.717656075954;0.0702046975493;2;True;15;1;84.98028026149026
524;524;1449486837;2.2050340175599996;0.7177022695540001;0.0701926425099;2;True;15;1;84.98028026149026
525;525;1449486837;2.20503330231;0.7176670432089999;0.07023735344410001;2;True;15;1;84.98028026149026
526;526;1449486837;2.20484304428;0.717479109764;0.0703516677022;2;True;15;1;84.98028026149026
527;527;1449486837;2.20501923561;0.717687189579;0.07024367153639999;2;True;15;1;84.98028026149026
528;528;1449486837;2.20487308502;0.717448651791;0.07023422420020001;2;True;15;1;84.98028026149026
529;529;1449486837;2.2049698829700004;0.7176011800769999;0.0702360197902;2;True;15;1;84.98028026149026
530;530;1449486837;2.20483016968;0.717570781708;0.0703587383032;2;True;15;1;84.98028026149026
531;531;1449486837;2.20486450195;0.717493355274;0.07034312933680001;2;True;15;1;84.98028026149026
532;532;1449486837;2.20500230789;0.717657148838;0.07033707201480001;2;True;15;1;84.98028026149026
533;533;1449486837;2.20486903191;0.717545926571;0.07047421485189999;2;True;15;1;84.98028026149026
534;534;1449486837;2.2049100399;0.7175433635709999;0.07033284753560001;2;True;15;1;84.98028026149026
535;535;1449486837;2.20499682426;0.717589139938;0.07029574364419999;2;True;15;1;84.98028026149026
536;536;1449486837;2.20479011536;0.7174092531199999;0.0704070031643;2;True;15;1;84.98028026149026
537;537;1449486837;2.20482158661;0.7173072695730001;0.0704398229718;2;True;15;1;84.98028026149026
538;538;1449486837;2.2050597667700003;0.71769297123;0.0701958760619;2;True;15;1;84.98028026149026
539;539;1449486837;2.20488643646;0.717511773109;0.0703297182918;2;True;15;1;84.98028026149026
540;540;1449486837;2.20484161377;0.717523872852;0.0704015120864;2;True;15;1;84.98028026149026
541;541;1449486837;2.2049221992500003;0.7176044583319999;0.0703037902713;2;True;15;1;84.98028026149026
542;542;1449486837;2.2049996852900002;0.7176132202150001;0.07028594613080001;2;True;15;1;84.98028026149026
543;543;1449486837;2.20501422882;0.7176125049590001;0.0703518241644;2;True;15;1;84.98028026149026
544;544;1449486837;2.2048840522799997;0.71749651432;0.0703805759549;2;True;15;1;84.98028026149026
545;545;1449486837;2.2050585746799998;0.7176526188850001;0.0702523216605;2;True;15;1;84.98028026149026
546;546;1449486837;2.20503878593;0.717715382576;0.0701831281185;2;True;15;1;84.98028026149026
547;547;1449486837;2.20505356789;0.71772390604;0.0702135935426;2;True;15;1;84.98028026149026
548;548;1449486837;2.20491242409;0.7176710963249999;0.07041107118130001;2;True;15;1;84.98028026149026
549;549;1449486837;2.20512199402;0.717708945274;0.07019390165810001;2;True;15;1;84.98028026149026
550;550;1449486837;2.2049934864;0.717577517033;0.0702552944422;2;True;15;1;84.98028026149026
551;551;1449486837;2.20497989655;0.717630565166;0.0703456103802;2;True;15;1;84.98028026149026
552;552;1449486837;2.20507383347;0.7177179455760001;0.0702303424478;2;True;15;1;84.98028026149026
553;553;1449486837;2.204829216;0.7175974845890001;0.07042855024339999;2;True;15;1;84.98028026149026
554;554;1449486837;2.2050845622999997;0.717876851559;0.0702888444066;2;True;15;1;84.98028026149026
555;555;1449486837;2.20502591133;0.717571616173;0.0702405795455;2;True;15;1;84.98028026149026
556;556;1449486837;2.20511627197;0.717671275139;0.07020622491839999;2;True;15;1;84.98028026149026
557;557;1449486837;2.2050845622999997;0.717753946781;0.0702252089977;2;True;15;1;84.98028026149026
558;558;1449486837;2.2049531936599998;0.717624843121;0.0703255459666;2;True;15;1;84.98028026149026
559;559;1449486837;2.20490932465;0.7175491452220001;0.07035396993160001;2;True;15;1;84.98028026149026
560;560;1449486837;2.2050123214700004;0.7176065444949999;0.0703240856528;2;True;15;1;84.98028026149026
561;561;1449486837;2.20503616333;0.7175516486169999;0.07026857137680001;2;True;15;1;84.98028026149026
562;562;1449486837;2.2049996852900002;0.717620253563;0.0702692419291;2;True;15;1;84.98028026149026
563;563;1449486837;2.2048044204700004;0.7174147963519999;0.0704251378775;2;True;15;1;84.98028026149026
564;564;1449486837;2.20497632027;0.717530608177;0.0703184083104;2;True;15;1;84.98028026149026
565;565;1449486837;2.2048053741499998;0.7173372507100001;0.07052831351760001;2;True;15;1;84.98028026149026
566;566;1449486837;2.2049467563599996;0.7174765467640001;0.0702209547162;2;True;15;1;84.98028026149026
567;567;1449486837;2.2051122188599996;0.7177914977069999;0.07015080749989999;2;True;15;1;84.98028026149026
568;568;1449486837;2.20497608185;0.71743953228;0.0701711252332;2;True;15;1;84.98028026149026
569;569;1449486837;2.2049531936599998;0.717486977577;0.0702907443047;2;True;15;1;84.98028026149026
570;570;1449486837;2.20482134819;0.7174133062360001;0.07037732750180001;2;True;15;1;84.98028026149026
571;571;1449486837;2.2049434185;0.717620968819;0.0703103467822;2;True;15;1;84.98028026149026
572;572;1449486837;2.2049188613900004;0.717654407024;0.070224352181;2;True;15;1;84.98028026149026
573;573;1449486837;2.2050995826700004;0.717782139778;0.0701576322317;2;True;15;1;84.98028026149026
574;574;1449486837;2.20506954193;0.717638611794;0.0702502727509;2;True;15;1;84.98028026149026
575;575;1449486837;2.2049334049200002;0.717426002026;0.070313565433;2;True;15;1;84.98028026149026
576;576;1449486837;2.20490813255;0.7175996899600001;0.07039400190110001;2;True;15;1;84.98028026149026
577;577;1449486837;2.20498847961;0.717537581921;0.07028327882289999;2;True;15;1;84.98028026149026
578;578;1449486837;2.20505070686;0.7175211310390001;0.0702637508512;2;True;15;1;84.98028026149026
579;579;1449486837;2.20511460304;0.717679679394;0.0701443627477;2;True;15;1;84.98028026149026
580;580;1449486837;2.20511031151;0.717623829842;0.07016779482360001;2;True;15;1;84.98028026149026
581;581;1449486837;2.20506310463;0.717643380165;0.0702004432678;2;True;15;1;84.98028026149026
582;582;1449486837;2.20505642891;0.717708945274;0.070238225162;2;True;15;1;84.98028026149026
583;583;1449486837;2.20495915413;0.717621147633;0.070228882134;2;True;15;1;84.98028026149026
584;584;1449486837;2.2049057483700003;0.7174679040909999;0.07034791260960001;2;True;15;1;84.98028026149026
585;585;1449486837;2.2046153545400005;0.7172330021860001;0.0704943686724;2;True;15;1;84.98028026149026
586;586;1449486837;2.2050511837;0.717571437359;0.0702572464943;2;True;15;1;84.98028026149026
587;587;1449486837;2.2050447464;0.717675507069;0.0701713785529;2;True;15;1;84.98028026149026
588;588;1449486837;2.2049434185;0.717617928982;0.07029756158589999;2;True;15;1;84.98028026149026
589;589;1449486837;2.20504927635;0.7176204919820001;0.07019772380589999;2;True;15;1;84.98028026149026
590;590;1449486837;2.20496058464;0.717602968216;0.07027587294580001;2;True;15;1;84.98028026149026
591;591;1449486837;2.20496702194;0.717517077923;0.070290453732;2;True;15;1;84.98028026149026
592;592;1449486837;2.2048535347;0.7175230383869999;0.0703796371818;2;True;15;1;84.98028026149026
593;593;1449486837;2.2050149440799998;0.7175840139390001;0.0701986551285;2;True;15;1;84.98028026149026
594;594;1449486837;2.20492458344;0.717420935631;0.07031218707560001;2;True;15;1;84.98028026149026
595;595;1449486837;2.20472550392;0.717437744141;0.0703686103225;2;True;15;1;84.98028026149026
596;596;1449486837;2.20493078232;0.7173997759819999;0.07025407999750001;2;True;15;1;84.98028026149026
597;597;1449486837;2.20508265495;0.717714369297;0.07020690292119999;2;True;15;1;84.98028026149026
598;598;1449486837;2.20491623878;0.71749407053;0.07029049098489999;2;True;15;1;84.98028026149026
599;599;1449486837;2.2049481868700003;0.71744287014;0.0702197998762;2;True;15;1;84.98028026149026
600;600;1449486837;2.20509934425;0.717674672604;0.0701336637139;2;True;15;1;84.98028026149026
601;601;1449486837;2.2049343586;0.7174289822579999;0.070250146091;2;True;15;1;84.98028026149026
602;602;1449486837;2.20502543449;0.717738747597;0.0702198520303;2;True;15;1;84.98028026149026
603;603;1449486837;2.20490908623;0.717345297337;0.0703514888883;2;True;15;1;84.98028026149026
604;604;1449486837;2.20509028435;0.717676281929;0.0701401382685;2;True;15;1;84.98028026149026
605;605;1449486837;2.2049832344099998;0.7177233695980001;0.07027644664049999;2;True;15;1;84.98028026149026
606;606;1449486837;2.20487427711;0.717534661293;0.0703848823905;2;True;15;1;84.98028026149026
607;607;1449486837;2.2049303054799996;0.7174533009530001;0.0702410563827;2;True;15;1;84.98028026149026
608;608;1449486837;2.20496845245;0.717716097832;0.0702769309282;2;True;15;1;84.98028026149026
