;Unnamed: 0;header_stamp_secs;pose_position_x;pose_position_y;pose_position_z;seconds;drop_values;flight_number;label;dtw
0;0;1449486979;2.33924436569;0.66992264986;0.07225957512860001;0;True;16;1;83.57199258730121
1;1;1449486979;2.33965396881;0.66979020834;0.072194442153;0;True;16;1;83.57199258730121
2;2;1449486979;2.3390030860900004;0.66986566782;0.071795322001;0;True;16;1;83.57199258730121
3;3;1449486979;2.33956027031;0.670253515244;0.0721335560083;0;True;16;1;83.57199258730121
4;4;1449486979;2.33862042427;0.6706106066699999;0.0720687359571;0;True;16;1;83.57199258730121
5;5;1449486979;2.33972907066;0.670117735863;0.0722051337361;0;True;16;1;83.57199258730121
6;6;1449486979;2.33858799934;0.6708629727359999;0.0718480199575;0;True;16;1;83.57199258730121
7;7;1449486979;2.3395435810099996;0.6697173118590001;0.07218887656930001;0;True;16;1;83.57199258730121
8;8;1449486979;2.33938312531;0.670260608196;0.0721243917942;0;True;16;1;83.57199258730121
9;9;1449486979;2.33967494965;0.670114517212;0.0721620842814;0;True;16;1;83.57199258730121
10;10;1449486979;2.33905935287;0.670379459858;0.0721417069435;0;True;16;1;83.57199258730121
11;11;1449486979;2.33927726746;0.670105338097;0.07207802683119999;0;True;16;1;83.57199258730121
12;12;1449486979;2.33939790726;0.669943332672;0.0720532611012;0;True;16;1;83.57199258730121
13;13;1449486979;2.33875513077;0.6701804995539999;0.0726110264659;0;True;16;1;83.57199258730121
14;14;1449486979;2.3393399715400003;0.6697288155560001;0.072051808238;0;True;16;1;83.57199258730121
15;15;1449486979;2.33892846107;0.6702203154559999;0.07242647558450001;0;True;16;1;83.57199258730121
16;16;1449486979;2.33930420876;0.670075058937;0.07200630009169999;0;True;16;1;83.57199258730121
17;17;1449486979;2.33921003342;0.670561611652;0.072115778923;0;True;16;1;83.57199258730121
18;18;1449486979;2.33854079247;0.670374572277;0.0718281790614;0;True;16;1;83.57199258730121
19;19;1449486979;2.3381626606;0.670002758503;0.07215505838389999;0;True;16;1;83.57199258730121
20;20;1449486979;2.33937048912;0.670087099075;0.0720573589206;0;True;16;1;83.57199258730121
21;21;1449486979;2.33925056458;0.670153856277;0.072153352201;0;True;16;1;83.57199258730121
22;22;1449486979;2.3384215831799997;0.670409858227;0.0720365792513;0;True;16;1;83.57199258730121
23;23;1449486979;2.33936214447;0.670058906078;0.0722121819854;0;True;16;1;83.57199258730121
24;24;1449486979;2.33964204788;0.670268714428;0.0727975070477;0;True;16;1;83.57199258730121
25;25;1449486979;2.33964824677;0.670170903206;0.072156637907;0;True;16;1;83.57199258730121
26;26;1449486979;2.33971571922;0.670069694519;0.0721396505833;0;True;16;1;83.57199258730121
27;27;1449486979;2.33968520164;0.670060992241;0.0721118077636;0;True;16;1;83.57199258730121
28;28;1449486979;2.33896279335;0.669755339622;0.0724102035165;0;True;16;1;83.57199258730121
29;29;1449486979;2.33967089653;0.670091032982;0.0721109285951;0;True;16;1;83.57199258730121
30;30;1449486979;2.33902788162;0.6706702113149999;0.0716963261366;0;True;16;1;83.57199258730121
31;31;1449486979;2.3385779857599998;0.670027077198;0.0724452361465;0;True;16;1;83.57199258730121
32;32;1449486979;2.33961367607;0.6701036691669999;0.07218127697710001;0;True;16;1;83.57199258730121
33;33;1449486979;2.33927583694;0.669938445091;0.0719235166907;0;True;16;1;83.57199258730121
34;34;1449486979;2.3392512798299996;0.669765949249;0.07214451581239999;0;True;16;1;83.57199258730121
35;35;1449486979;2.33919930458;0.669805765152;0.0721259266138;0;True;16;1;83.57199258730121
36;36;1449486979;2.33967113495;0.669756293297;0.07217933237549999;0;True;16;1;83.57199258730121
37;37;1449486979;2.33929991722;0.6697407960890001;0.0721523016691;0;True;16;1;83.57199258730121
38;38;1449486979;2.3392984867099997;0.6700488924979999;0.0721780583262;0;True;16;1;83.57199258730121
39;39;1449486979;2.33958888054;0.670050501823;0.0720863938332;0;True;16;1;83.57199258730121
40;40;1449486979;2.3397123813599996;0.670060992241;0.0721253231168;0;True;16;1;83.57199258730121
41;41;1449486979;2.33960700035;0.670118510723;0.07209512591360001;0;True;16;1;83.57199258730121
42;42;1449486979;2.3396878242500003;0.670062661171;0.0720943138003;0;True;16;1;83.57199258730121
43;43;1449486979;2.33934926987;0.669964075089;0.07201569527389999;0;True;16;1;83.57199258730121
44;44;1449486979;2.33929443359;0.669738769531;0.0721431449056;0;True;16;1;83.57199258730121
45;45;1449486979;2.3395900726299996;0.670110881329;0.0721613690257;0;True;16;1;83.57199258730121
46;46;1449486979;2.33892774582;0.670515179634;0.0715063735843;0;True;16;1;83.57199258730121
47;47;1449486979;2.33934235573;0.669959247112;0.0720309317112;0;True;16;1;83.57199258730121
48;48;1449486979;2.33913755417;0.670314192772;0.0721510648727;0;True;16;1;83.57199258730121
49;49;1449486979;2.3392906189;0.669637024403;0.0727454051375;0;True;16;1;83.57199258730121
50;50;1449486979;2.33966326714;0.670115053654;0.0721587911248;0;True;16;1;83.57199258730121
51;51;1449486979;2.3393301963799997;0.669984638691;0.07235517352819999;0;True;16;1;83.57199258730121
52;52;1449486979;2.3396589756;0.6701291203499999;0.07219849526880001;0;True;16;1;83.57199258730121
53;53;1449486979;2.33874201775;0.6697942018509999;0.07237081974739999;0;True;16;1;83.57199258730121
54;54;1449486979;2.33854341507;0.670541524887;0.0716572403908;0;True;16;1;83.57199258730121
55;55;1449486979;2.3392355441999997;0.669772267342;0.0721379220486;0;True;16;1;83.57199258730121
56;56;1449486979;2.33961176872;0.670070111752;0.0721023976803;0;True;16;1;83.57199258730121
57;57;1449486979;2.33932113647;0.6702541112899999;0.072169996798;0;True;16;1;83.57199258730121
58;58;1449486979;2.3394293785099998;0.670444786549;0.07200458645819999;0;True;16;1;83.57199258730121
59;59;1449486979;2.33973503113;0.6700968742369999;0.0721687227488;0;True;16;1;83.57199258730121
60;60;1449486979;2.3388662338299997;0.670111238956;0.07240954786539999;0;True;16;1;83.57199258730121
61;61;1449486980;2.339230299;0.669753015041;0.0721376016736;1;True;16;1;83.57199258730121
62;62;1449486980;2.33965301514;0.670066654682;0.0721245706081;1;True;16;1;83.57199258730121
63;63;1449486980;2.33867001534;0.670024216175;0.0721133872867;1;True;16;1;83.57199258730121
64;64;1449486980;2.33939623833;0.66977584362;0.0721609741449;1;True;16;1;83.57199258730121
65;65;1449486980;2.3389837741900004;0.670072317123;0.0721676796675;1;True;16;1;83.57199258730121
66;66;1449486980;2.3393266201;0.6701774597169999;0.07198745757339998;1;True;16;1;83.57199258730121
67;67;1449486980;2.33909153938;0.6698548197749999;0.072102367878;1;True;16;1;83.57199258730121
68;68;1449486980;2.33965158463;0.6700729131700001;0.0721482262015;1;True;16;1;83.57199258730121
69;69;1449486980;2.3390595912900003;0.669865190983;0.07209724932910001;1;True;16;1;83.57199258730121
70;70;1449486980;2.33971738815;0.670064806938;0.0721355006099;1;True;16;1;83.57199258730121
71;71;1449486980;2.3388390541099997;0.670206308365;0.0716998130083;1;True;16;1;83.57199258730121
72;72;1449486980;2.33923816681;0.66977250576;0.0721370354295;1;True;16;1;83.57199258730121
73;73;1449486980;2.3397216796900002;0.670057833195;0.0721278786659;1;True;16;1;83.57199258730121
74;74;1449486980;2.33958983421;0.670020341873;0.0720863565803;1;True;16;1;83.57199258730121
75;75;1449486980;2.33941054344;0.6701912283899999;0.0721107199788;1;True;16;1;83.57199258730121
76;76;1449486980;2.33937644958;0.670407772064;0.0726833194494;1;True;16;1;83.57199258730121
77;77;1449486980;2.33952617645;0.669761121273;0.07219386100769999;1;True;16;1;83.57199258730121
78;78;1449486980;2.33892273903;0.67003339529;0.0721645057201;1;True;16;1;83.57199258730121
79;79;1449486980;2.33892273903;0.669836044312;0.07153505831960001;1;True;16;1;83.57199258730121
80;80;1449486980;2.3396933078799997;0.670087635517;0.0721621513367;1;True;16;1;83.57199258730121
81;81;1449486980;2.3396654129;0.669776916504;0.07217365503310001;1;True;16;1;83.57199258730121
82;82;1449486980;2.3396999836;0.670074701309;0.0721445530653;1;True;16;1;83.57199258730121
83;83;1449486980;2.33864021301;0.67060303688;0.0713080838323;1;True;16;1;83.57199258730121
84;84;1449486980;2.3394844532;0.669879257679;0.07219975441689999;1;True;16;1;83.57199258730121
85;85;1449486980;2.3391916751900004;0.6701185703279999;0.07240909338;1;True;16;1;83.57199258730121
86;86;1449486980;2.33966708183;0.670086145401;0.07214476913210001;1;True;16;1;83.57199258730121
87;87;1449486980;2.33944249153;0.670249223709;0.0721389353275;1;True;16;1;83.57199258730121
88;88;1449486980;2.3396706581099997;0.670234024525;0.0721516907215;1;True;16;1;83.57199258730121
89;89;1449486980;2.33933830261;0.670349895954;0.07212796807289999;1;True;16;1;83.57199258730121
90;90;1449486980;2.3386862278;0.670080006123;0.0713058710098;1;True;16;1;83.57199258730121
91;91;1449486980;2.33972287178;0.670085906982;0.07215853780510001;1;True;16;1;83.57199258730121
92;92;1449486980;2.33809781075;0.6693513989450001;0.0725848600268;1;True;16;1;83.57199258730121
93;93;1449486980;2.33874034882;0.670259773731;0.0719592496753;1;True;16;1;83.57199258730121
94;94;1449486980;2.33961319923;0.670278966427;0.0721044391394;1;True;16;1;83.57199258730121
95;95;1449486980;2.33899569511;0.670161724091;0.07222083956;1;True;16;1;83.57199258730121
96;96;1449486980;2.33881568909;0.6702026724819999;0.0721693336964;1;True;16;1;83.57199258730121
97;97;1449486980;2.3395013809200003;0.669882118702;0.072734311223;1;True;16;1;83.57199258730121
98;98;1449486980;2.33927536011;0.6705749034880001;0.0721457973123;1;True;16;1;83.57199258730121
99;99;1449486980;2.33970117569;0.670064747334;0.07212244719269999;1;True;16;1;83.57199258730121
100;100;1449486980;2.3389678001400003;0.670139431953;0.0719963759184;1;True;16;1;83.57199258730121
101;101;1449486980;2.33875346184;0.6701174974440001;0.0725370123982;1;True;16;1;83.57199258730121
102;102;1449486980;2.33953261375;0.670204102993;0.0720143467188;1;True;16;1;83.57199258730121
103;103;1449486980;2.33878970146;0.6702240109440001;0.07244338095189999;1;True;16;1;83.57199258730121
104;104;1449486980;2.33887767792;0.670656085014;0.0719310492277;1;True;16;1;83.57199258730121
105;105;1449486980;2.33916974068;0.669836699963;0.0722290948033;1;True;16;1;83.57199258730121
106;106;1449486980;2.33971476555;0.670147299767;0.07219468802210001;1;True;16;1;83.57199258730121
107;107;1449486980;2.3394317627000003;0.669831156731;0.0721671059728;1;True;16;1;83.57199258730121
108;108;1449486980;2.3392598629;0.6697948575020001;0.0721493810415;1;True;16;1;83.57199258730121
109;109;1449486980;2.3396987915;0.670077562332;0.0721355602145;1;True;16;1;83.57199258730121
110;110;1449486980;2.3396441936500003;0.670122921467;0.07215912640089998;1;True;16;1;83.57199258730121
111;111;1449486980;2.3393518924700003;0.670018851757;0.0720643624663;1;True;16;1;83.57199258730121
112;112;1449486980;2.33974003792;0.670087039471;0.0721569433808;1;True;16;1;83.57199258730121
113;113;1449486980;2.33927726746;0.6700590848920001;0.07217432558539999;1;True;16;1;83.57199258730121
114;114;1449486980;2.33926463127;0.6697459816929999;0.0721811875701;1;True;16;1;83.57199258730121
115;115;1449486980;2.3391644954700004;0.669831395149;0.0722353607416;1;True;16;1;83.57199258730121
116;116;1449486980;2.3388707637799997;0.669967293739;0.07228332012889999;1;True;16;1;83.57199258730121
117;117;1449486980;2.33865189552;0.670075774193;0.0721361264586;1;True;16;1;83.57199258730121
118;118;1449486980;2.33923387527;0.669980943203;0.07223073393110001;1;True;16;1;83.57199258730121
119;119;1449486980;2.33969140053;0.670087099075;0.07213788479569999;1;True;16;1;83.57199258730121
120;120;1449486980;2.3393054008500003;0.6697764396670001;0.0721791610122;1;True;16;1;83.57199258730121
121;121;1449486980;2.33927845955;0.669960916042;0.0721933990717;1;True;16;1;83.57199258730121
122;122;1449486980;2.33925414085;0.669930160046;0.07226270437239998;1;True;16;1;83.57199258730121
123;123;1449486980;2.3392560481999998;0.6699467897420001;0.0721920803189;1;True;16;1;83.57199258730121
124;124;1449486980;2.33876419067;0.670148968697;0.0721402838826;1;True;16;1;83.57199258730121
125;125;1449486980;2.3393611908;0.670055806637;0.07204461842780001;1;True;16;1;83.57199258730121
126;126;1449486980;2.3396236896500002;0.669755995274;0.07219003885980001;1;True;16;1;83.57199258730121
127;127;1449486980;2.3393564224200003;0.669932365417;0.07202547043560001;1;True;16;1;83.57199258730121
128;128;1449486980;2.33920192719;0.6696768403050001;0.07224536687139999;1;True;16;1;83.57199258730121
129;129;1449486980;2.3392329216;0.669900238514;0.0722990632057;1;True;16;1;83.57199258730121
130;130;1449486980;2.33915829659;0.6697942018509999;0.07225772738460001;1;True;16;1;83.57199258730121
131;131;1449486980;2.33918333054;0.669821202755;0.0723032355309;1;True;16;1;83.57199258730121
132;132;1449486980;2.3393177986099998;0.669691205025;0.07206439971919999;1;True;16;1;83.57199258730121
133;133;1449486980;2.33916282654;0.669756054878;0.07213285565380001;1;True;16;1;83.57199258730121
134;134;1449486980;2.3391661644;0.669778525829;0.07222177088260001;1;True;16;1;83.57199258730121
135;135;1449486980;2.33921217918;0.669793426991;0.07223550230260001;1;True;16;1;83.57199258730121
136;136;1449486980;2.33938741684;0.670082032681;0.0720865875483;1;True;16;1;83.57199258730121
137;137;1449486980;2.3393762111700003;0.669975459576;0.07202503830189999;1;True;16;1;83.57199258730121
138;138;1449486980;2.3392553329499997;0.669950008392;0.072250276804;1;True;16;1;83.57199258730121
139;139;1449486980;2.33955097198;0.669709265232;0.07219131290910001;1;True;16;1;83.57199258730121
140;140;1449486980;2.3392436504400003;0.66985476017;0.07222016900780001;1;True;16;1;83.57199258730121
141;141;1449486980;2.3392291069;0.669925749302;0.0722389370203;1;True;16;1;83.57199258730121
142;142;1449486980;2.3397476673099997;0.670093774796;0.0721748322248;1;True;16;1;83.57199258730121
143;143;1449486980;2.33926105499;0.669916689396;0.0722516924143;1;True;16;1;83.57199258730121
144;144;1449486980;2.3392894268;0.669872224331;0.072138004005;1;True;16;1;83.57199258730121
145;145;1449486980;2.3392696380599998;0.669995069504;0.07214910537000001;1;True;16;1;83.57199258730121
146;146;1449486980;2.3393740654;0.670009493828;0.0720801725984;1;True;16;1;83.57199258730121
147;147;1449486980;2.3389971256299997;0.669537007809;0.0722948759794;1;True;16;1;83.57199258730121
148;148;1449486980;2.33939671516;0.67016017437;0.0720276460052;1;True;16;1;83.57199258730121
149;149;1449486980;2.3393650054900004;0.669767081738;0.07205287367110001;1;True;16;1;83.57199258730121
150;150;1449486980;2.3393545150799997;0.669949293137;0.0720791891217;1;True;16;1;83.57199258730121
151;151;1449486980;2.33926653862;0.66991174221;0.0722419694066;1;True;16;1;83.57199258730121
152;152;1449486980;2.33920693398;0.6697880625720001;0.0722058787942;1;True;16;1;83.57199258730121
153;153;1449486980;2.33909106255;0.66971719265;0.0722477808595;1;True;16;1;83.57199258730121
154;154;1449486980;2.3392963409400003;0.669705748558;0.0720721557736;1;True;16;1;83.57199258730121
155;155;1449486980;2.3393318653099997;0.670038938522;0.07220987230539999;1;True;16;1;83.57199258730121
156;156;1449486980;2.3392882347099997;0.6699451804159999;0.0721478015184;1;True;16;1;83.57199258730121
157;157;1449486980;2.33907985687;0.669625580311;0.0722172558308;1;True;16;1;83.57199258730121
158;158;1449486980;2.33972334862;0.6700927615169999;0.0721653923392;1;True;16;1;83.57199258730121
159;159;1449486980;2.33929538727;0.6697961688040001;0.0721422359347;1;True;16;1;83.57199258730121
160;160;1449486980;2.3394525051099997;0.6705259084699999;0.0720338523388;1;True;16;1;83.57199258730121
161;161;1449486980;2.3386096954299997;0.670175135136;0.0719588026404;1;True;16;1;83.57199258730121
162;162;1449486980;2.33971691132;0.670103430748;0.07216355204580001;1;True;16;1;83.57199258730121
163;163;1449486980;2.33968234062;0.670126140118;0.07219663262369999;1;True;16;1;83.57199258730121
164;164;1449486980;2.3393259048500004;0.669929325581;0.0720248743892;1;True;16;1;83.57199258730121
165;165;1449486980;2.33936214447;0.669954121113;0.07207781821489999;1;True;16;1;83.57199258730121
166;166;1449486980;2.3392252922099996;0.669781148434;0.0721445977688;1;True;16;1;83.57199258730121
167;167;1449486980;2.33960795403;0.670121371746;0.0721707195044;1;True;16;1;83.57199258730121
168;168;1449486980;2.33855605125;0.6704848408699999;0.07221268862489999;1;True;16;1;83.57199258730121
169;169;1449486980;2.33915448189;0.670267224312;0.07215595245360001;1;True;16;1;83.57199258730121
170;170;1449486980;2.338940382;0.670269727707;0.0721060186625;1;True;16;1;83.57199258730121
171;171;1449486980;2.3393068313599996;0.670240283012;0.072165645659;1;True;16;1;83.57199258730121
172;172;1449486980;2.3396701812700003;0.670096099377;0.07216146588330001;1;True;16;1;83.57199258730121
173;173;1449486980;2.3395729064900004;0.669705867767;0.07217400521039999;1;True;16;1;83.57199258730121
174;174;1449486980;2.33972454071;0.670076370239;0.07212900370360001;1;True;16;1;83.57199258730121
175;175;1449486980;2.3386785984;0.670177519321;0.07203180342910001;1;True;16;1;83.57199258730121
176;176;1449486980;2.3392696380599998;0.6698864102359999;0.0722409188747;1;True;16;1;83.57199258730121
177;177;1449486980;2.33938264847;0.6700105071069999;0.07199630886319999;1;True;16;1;83.57199258730121
178;178;1449486980;2.33852005005;0.669685602188;0.07231612503530001;1;True;16;1;83.57199258730121
179;179;1449486980;2.3396804332700003;0.670081079006;0.0721202269197;1;True;16;1;83.57199258730121
180;180;1449486980;2.3382506370500002;0.670192122459;0.0715880692005;1;True;16;1;83.57199258730121
181;181;1449486980;2.3391916751900004;0.669797539711;0.07211981713769999;1;True;16;1;83.57199258730121
182;182;1449486980;2.33907270432;0.670395791531;0.07195567339660001;1;True;16;1;83.57199258730121
183;183;1449486980;2.33915996552;0.669792294502;0.0722071230412;1;True;16;1;83.57199258730121
184;184;1449486980;2.33912062645;0.67024987936;0.07212729752060001;1;True;16;1;83.57199258730121
185;185;1449486980;2.3392860889400002;0.669953286648;0.07213691622019999;1;True;16;1;83.57199258730121
186;186;1449486980;2.33964061737;0.670279681683;0.0727946013212;1;True;16;1;83.57199258730121
187;187;1449486980;2.33925056458;0.669769227505;0.0721447244287;1;True;16;1;83.57199258730121
188;188;1449486980;2.33935379982;0.670021355152;0.07203935086730001;1;True;16;1;83.57199258730121
189;189;1449486980;2.33925414085;0.669898986816;0.0722434744239;1;True;16;1;83.57199258730121
190;190;1449486980;2.3388810157799997;0.670204997063;0.0718951895833;1;True;16;1;83.57199258730121
191;191;1449486980;2.3395504951499997;0.670262336731;0.07206485420469999;1;True;16;1;83.57199258730121
192;192;1449486980;2.3393981456799997;0.6701086759570001;0.07201805710789999;1;True;16;1;83.57199258730121
193;193;1449486980;2.33970475197;0.670093595982;0.0721459016204;1;True;16;1;83.57199258730121
194;194;1449486980;2.33972978592;0.6701130270960001;0.0721618905663;1;True;16;1;83.57199258730121
195;195;1449486980;2.3397006988499998;0.67008638382;0.07212007045749999;1;True;16;1;83.57199258730121
196;196;1449486980;2.33864068985;0.670108795166;0.0722698047757;1;True;16;1;83.57199258730121
197;197;1449486980;2.33888697624;0.6702002286909999;0.07193776965139999;1;True;16;1;83.57199258730121
198;198;1449486980;2.3387119770099996;0.67025333643;0.0720456242561;1;True;16;1;83.57199258730121
199;199;1449486980;2.33895158768;0.670258522034;0.0720039755106;1;True;16;1;83.57199258730121
200;200;1449486980;2.33944416046;0.670266091824;0.07208872586489999;1;True;16;1;83.57199258730121
201;201;1449486980;2.33971071243;0.670082449913;0.0721390917897;1;True;16;1;83.57199258730121
202;202;1449486980;2.33962750435;0.670453071594;0.0721764191985;1;True;16;1;83.57199258730121
203;203;1449486980;2.33887839317;0.6702951192859999;0.0723924636841;1;True;16;1;83.57199258730121
204;204;1449486980;2.33961462975;0.670298576355;0.07210277765989999;1;True;16;1;83.57199258730121
205;205;1449486980;2.33904457092;0.669897019863;0.0720956400037;1;True;16;1;83.57199258730121
206;206;1449486980;2.33929491043;0.669967472553;0.0721550807357;1;True;16;1;83.57199258730121
207;207;1449486980;2.33936285973;0.670061588287;0.07203565537930001;1;True;16;1;83.57199258730121
208;208;1449486980;2.33867120743;0.670107841492;0.07227591425180001;1;True;16;1;83.57199258730121
209;209;1449486980;2.33896112442;0.6699442267419999;0.07225973904130001;1;True;16;1;83.57199258730121
210;210;1449486980;2.33968114853;0.6697328090670001;0.0721756666899;1;True;16;1;83.57199258730121
211;211;1449486980;2.33861017227;0.669916450977;0.0719479173422;1;True;16;1;83.57199258730121
212;212;1449486980;2.33969974518;0.670076429844;0.07214321196080001;1;True;16;1;83.57199258730121
213;213;1449486980;2.3394837379499998;0.670689463615;0.0721181109548;1;True;16;1;83.57199258730121
214;214;1449486980;2.33923006058;0.669779121876;0.0721371918917;1;True;16;1;83.57199258730121
215;215;1449486980;2.33935260773;0.669706285;0.0720328018069;1;True;16;1;83.57199258730121
216;216;1449486980;2.33850073814;0.6701251268389999;0.07175560295580001;1;True;16;1;83.57199258730121
217;217;1449486980;2.3389291763299997;0.669627428055;0.0724119320512;1;True;16;1;83.57199258730121
218;218;1449486980;2.33963990211;0.67013001442;0.07217400521039999;1;True;16;1;83.57199258730121
219;219;1449486980;2.33936691284;0.67008638382;0.07206642627719999;1;True;16;1;83.57199258730121
220;220;1449486980;2.33898234367;0.670098721981;0.07207192480560001;1;True;16;1;83.57199258730121
221;221;1449486980;2.33916378021;0.6698489189150001;0.0721207484603;1;True;16;1;83.57199258730121
222;222;1449486980;2.33908033371;0.6698853373529999;0.0721027180552;1;True;16;1;83.57199258730121
223;223;1449486980;2.33921718597;0.6699085235600001;0.072196111083;1;True;16;1;83.57199258730121
224;224;1449486980;2.33908867836;0.669908285141;0.0723315477371;1;True;16;1;83.57199258730121
225;225;1449486980;2.3393342495;0.669676184654;0.0720641314983;1;True;16;1;83.57199258730121
226;226;1449486980;2.3392868042;0.669895708561;0.0722146704793;1;True;16;1;83.57199258730121
227;227;1449486980;2.3394870758099997;0.6702253222469999;0.07208205759530001;1;True;16;1;83.57199258730121
228;228;1449486980;2.3392837047599997;0.669955670834;0.072196893394;1;True;16;1;83.57199258730121
229;229;1449486980;2.33939504623;0.669997632504;0.0720121860504;1;True;16;1;83.57199258730121
230;230;1449486980;2.33940935135;0.669699072838;0.072174847126;1;True;16;1;83.57199258730121
231;231;1449486980;2.33919525146;0.669778168201;0.0722232460976;1;True;16;1;83.57199258730121
232;232;1449486980;2.3393182754499997;0.669933915138;0.07204174250360001;1;True;16;1;83.57199258730121
233;233;1449486980;2.3394405841799997;0.670851707458;0.072171792388;1;True;16;1;83.57199258730121
234;234;1449486980;2.33940458298;0.669960856438;0.072134450078;1;True;16;1;83.57199258730121
235;235;1449486980;2.33895993233;0.670005738735;0.0721887350082;1;True;16;1;83.57199258730121
236;236;1449486980;2.33901429176;0.670011043549;0.07236736267810001;1;True;16;1;83.57199258730121
237;237;1449486980;2.33893847466;0.669982135296;0.072109632194;1;True;16;1;83.57199258730121
238;238;1449486980;2.33872294426;0.6707041263579999;0.07129482924939999;1;True;16;1;83.57199258730121
239;239;1449486980;2.33867096901;0.670169174671;0.07220920175310001;1;True;16;1;83.57199258730121
240;240;1449486980;2.33971714973;0.670228302479;0.0721613317728;1;True;16;1;83.57199258730121
241;241;1449486980;2.33916330338;0.669776320457;0.07225748151539998;1;True;16;1;83.57199258730121
242;242;1449486980;2.3392148017900003;0.669870197773;0.0722475647926;1;True;16;1;83.57199258730121
243;243;1449486980;2.33937811852;0.669961750507;0.07207489013669999;1;True;16;1;83.57199258730121
244;244;1449486980;2.33926534653;0.670131385326;0.0719890892506;1;True;16;1;83.57199258730121
245;245;1449486980;2.3390932083099996;0.669933438301;0.072308331728;1;True;16;1;83.57199258730121
246;246;1449486980;2.3393857479099998;0.670065045357;0.0720524638891;1;True;16;1;83.57199258730121
247;247;1449486980;2.3392703533200003;0.669954657555;0.0720838978887;1;True;16;1;83.57199258730121
248;248;1449486980;2.33928489685;0.669927418232;0.07224886864419999;1;True;16;1;83.57199258730121
249;249;1449486980;2.33937811852;0.670131325722;0.0720848664641;1;True;16;1;83.57199258730121
250;250;1449486980;2.33938384056;0.669965744019;0.0720585286617;1;True;16;1;83.57199258730121
251;251;1449486980;2.33928227425;0.669878661633;0.0722368061543;1;True;16;1;83.57199258730121
252;252;1449486980;2.33923435211;0.669789195061;0.07216534018519999;1;True;16;1;83.57199258730121
253;253;1449486980;2.33937597275;0.669972658157;0.07209675014019999;1;True;16;1;83.57199258730121
254;254;1449486980;2.3396959304799996;0.67006278038;0.0721391886473;1;True;16;1;83.57199258730121
255;255;1449486980;2.33968234062;0.670172929764;0.0721555203199;1;True;16;1;83.57199258730121
256;256;1449486980;2.3383972644799997;0.669912099838;0.0716730505228;1;True;16;1;83.57199258730121
257;257;1449486980;2.33896446228;0.669996440411;0.0718541070819;1;True;16;1;83.57199258730121
258;258;1449486980;2.33919525146;0.669873118401;0.07229369878769999;1;True;16;1;83.57199258730121
259;259;1449486980;2.33970689774;0.6697775125500001;0.07218345254660001;1;True;16;1;83.57199258730121
260;260;1449486980;2.33940720558;0.670274853706;0.0720908790827;1;True;16;1;83.57199258730121
261;261;1449486980;2.33936595917;0.6700807809830001;0.0720628276467;1;True;16;1;83.57199258730121
262;262;1449486980;2.3390955925;0.669700860977;0.07231613248589999;1;True;16;1;83.57199258730121
263;263;1449486980;2.33917713165;0.669793307781;0.0722239017487;1;True;16;1;83.57199258730121
264;264;1449486980;2.3393545150799997;0.670020878315;0.0720616132021;1;True;16;1;83.57199258730121
265;265;1449486980;2.33924603462;0.669926047325;0.0722271427512;1;True;16;1;83.57199258730121
266;266;1449486980;2.33918714523;0.669841170311;0.0721268206835;1;True;16;1;83.57199258730121
267;267;1449486980;2.33914899826;0.669816613197;0.07223184406760001;1;True;16;1;83.57199258730121
268;268;1449486980;2.33926391602;0.66988992691;0.07224305719139999;1;True;16;1;83.57199258730121
269;269;1449486980;2.33917069435;0.669969975948;0.072251483798;1;True;16;1;83.57199258730121
270;270;1449486980;2.3388330936400004;0.670203745365;0.0721656680107;1;True;16;1;83.57199258730121
271;271;1449486980;2.33900594711;0.670622706413;0.0716583952308;1;True;16;1;83.57199258730121
272;272;1449486980;2.3394000530200003;0.670267283916;0.0720978453755;1;True;16;1;83.57199258730121
273;273;1449486980;2.33952093124;0.670048594475;0.07208990305660001;1;True;16;1;83.57199258730121
274;274;1449486980;2.3397269249;0.670066535473;0.0721413567662;1;True;16;1;83.57199258730121
275;275;1449486980;2.3397431373599997;0.670091450214;0.07216800749300001;1;True;16;1;83.57199258730121
276;276;1449486980;2.33937525749;0.669753491879;0.0720321014524;1;True;16;1;83.57199258730121
277;277;1449486980;2.33807706833;0.669671118259;0.07204407453539999;1;True;16;1;83.57199258730121
278;278;1449486980;2.33923435211;0.669885396957;0.072263173759;1;True;16;1;83.57199258730121
279;279;1449486980;2.33926892281;0.669725000858;0.0721292868257;1;True;16;1;83.57199258730121
280;280;1449486980;2.33923101425;0.669786512852;0.0721403881907;1;True;16;1;83.57199258730121
281;281;1449486980;2.33831906319;0.6701832413669999;0.072117857635;1;True;16;1;83.57199258730121
282;282;1449486980;2.3392963409400003;0.669870257378;0.0722418278456;1;True;16;1;83.57199258730121
283;283;1449486980;2.33966350555;0.669772565365;0.0721746534109;1;True;16;1;83.57199258730121
284;284;1449486980;2.33967852592;0.670077264309;0.0721345320344;1;True;16;1;83.57199258730121
285;285;1449486980;2.3396718502000002;0.669790863991;0.0721805766225;1;True;16;1;83.57199258730121
286;286;1449486980;2.33957362175;0.669776022434;0.07217310369010001;1;True;16;1;83.57199258730121
287;287;1449486980;2.33967971802;0.6702953577040001;0.0728305131197;1;True;16;1;83.57199258730121
288;288;1449486980;2.33969807625;0.6700685620310001;0.0721206963062;1;True;16;1;83.57199258730121
289;289;1449486980;2.3388414382900002;0.6700738668439999;0.07201021909710001;1;True;16;1;83.57199258730121
290;290;1449486980;2.33926439285;0.669955551624;0.07220031321050001;1;True;16;1;83.57199258730121
291;291;1449486980;2.33967661858;0.670098185539;0.0721067935228;1;True;16;1;83.57199258730121
292;292;1449486980;2.33817791939;0.670182943344;0.0724970474839;1;True;16;1;83.57199258730121
293;293;1449486980;2.33933877945;0.66995126009;0.07206027954819999;1;True;16;1;83.57199258730121
294;294;1449486980;2.33932924271;0.669733166695;0.07215777039530001;1;True;16;1;83.57199258730121
295;295;1449486980;2.3396899700200002;0.6700779199600001;0.0721425488591;1;True;16;1;83.57199258730121
296;296;1449486980;2.33939051628;0.6702722311020001;0.072144061327;1;True;16;1;83.57199258730121
297;297;1449486980;2.3386549949599997;0.670211553574;0.072041913867;1;True;16;1;83.57199258730121
298;298;1449486980;2.33922123909;0.669704020023;0.0722182840109;1;True;16;1;83.57199258730121
299;299;1449486980;2.3396370410900005;0.669770717621;0.07217192649839999;1;True;16;1;83.57199258730121
300;300;1449486981;2.33925795555;0.6697108745570001;0.0721692070365;2;True;16;1;83.57199258730121
301;301;1449486981;2.33957529068;0.669738054276;0.0721855014563;2;True;16;1;83.57199258730121
302;302;1449486981;2.33959984779;0.670100986958;0.0721747800708;2;True;16;1;83.57199258730121
303;303;1449486981;2.33878779411;0.670094788074;0.0721897929907;2;True;16;1;83.57199258730121
304;304;1449486981;2.3387362957;0.670188188553;0.0721500813961;2;True;16;1;83.57199258730121
305;305;1449486981;2.3397154808000002;0.670079231262;0.0721273720264;2;True;16;1;83.57199258730121
306;306;1449486981;2.33961486816;0.6702069044110001;0.0720619410276;2;True;16;1;83.57199258730121
307;307;1449486981;2.33902001381;0.670251071453;0.0716912671924;2;True;16;1;83.57199258730121
308;308;1449486981;2.33966135979;0.670669913292;0.07212649285789999;2;True;16;1;83.57199258730121
309;309;1449486981;2.3396933078799997;0.670119404793;0.07217928767199999;2;True;16;1;83.57199258730121
310;310;1449486981;2.3396229744;0.669758498669;0.0721814706922;2;True;16;1;83.57199258730121
311;311;1449486981;2.33927559853;0.6700194478029999;0.0720906928182;2;True;16;1;83.57199258730121
312;312;1449486981;2.33904767036;0.669724583626;0.0722071751952;2;True;16;1;83.57199258730121
313;313;1449486981;2.3396718502000002;0.670071721077;0.0721269398928;2;True;16;1;83.57199258730121
314;314;1449486981;2.33915400505;0.669822633266;0.0722307190299;2;True;16;1;83.57199258730121
315;315;1449486981;2.33970570564;0.670103609562;0.07216026633980001;2;True;16;1;83.57199258730121
316;316;1449486981;2.33967161179;0.6700485348699999;0.07212341576810001;2;True;16;1;83.57199258730121
317;317;1449486981;2.33921003342;0.669856071472;0.07215017080310002;2;True;16;1;83.57199258730121
318;318;1449486981;2.33901786804;0.670628130436;0.0713588148355;2;True;16;1;83.57199258730121
319;319;1449486981;2.3395059108700003;0.6704524755479999;0.07206026464700001;2;True;16;1;83.57199258730121
320;320;1449486981;2.33966684341;0.670057713985;0.0721040740609;2;True;16;1;83.57199258730121
321;321;1449486981;2.33926081657;0.6698688864710001;0.0722618475556;2;True;16;1;83.57199258730121
322;322;1449486981;2.33839559555;0.670339167118;0.0718695819378;2;True;16;1;83.57199258730121
323;323;1449486981;2.33937430382;0.6700814962389999;0.072022087872;2;True;16;1;83.57199258730121
324;324;1449486981;2.33924221992;0.669757843018;0.0721322819591;2;True;16;1;83.57199258730121
325;325;1449486981;2.3390955925;0.669623792171;0.0722174271941;2;True;16;1;83.57199258730121
326;326;1449486981;2.33928918839;0.6701710224149999;0.0720773339272;2;True;16;1;83.57199258730121
327;327;1449486981;2.33933162689;0.669884204865;0.07214947044850001;2;True;16;1;83.57199258730121
328;328;1449486981;2.33930635452;0.669713973999;0.07204293459649999;2;True;16;1;83.57199258730121
329;329;1449486981;2.33907675743;0.669612467289;0.0722243264318;2;True;16;1;83.57199258730121
330;330;1449486981;2.33926439285;0.669886648655;0.0721195712686;2;True;16;1;83.57199258730121
331;331;1449486981;2.33923006058;0.6698918938639999;0.072234980762;2;True;16;1;83.57199258730121
332;332;1449486981;2.33933448792;0.669911563396;0.0720693916082;2;True;16;1;83.57199258730121
333;333;1449486981;2.33937072754;0.669921517372;0.07206692546610001;2;True;16;1;83.57199258730121
334;334;1449486981;2.33907485008;0.669770240784;0.0724355503917;2;True;16;1;83.57199258730121
335;335;1449486981;2.33937215805;0.669954240322;0.0720571950078;2;True;16;1;83.57199258730121
336;336;1449486981;2.33957481384;0.670064091682;0.0721369236708;2;True;16;1;83.57199258730121
337;337;1449486981;2.33970665932;0.670062601566;0.0721482783556;2;True;16;1;83.57199258730121
338;338;1449486981;2.3393955230700003;0.6703211665150001;0.07207887619730001;2;True;16;1;83.57199258730121
339;339;1449486981;2.3393034935;0.669726669788;0.0720295161009;2;True;16;1;83.57199258730121
340;340;1449486981;2.33915448189;0.669883549213;0.0722070857882;2;True;16;1;83.57199258730121
341;341;1449486981;2.3391630649599997;0.669758319855;0.0722023174167;2;True;16;1;83.57199258730121
342;342;1449486981;2.33968758583;0.6700841784480001;0.0721436142921;2;True;16;1;83.57199258730121
343;343;1449486981;2.33910298347;0.669839203358;0.0722417905927;2;True;16;1;83.57199258730121
344;344;1449486981;2.33913516998;0.66983884573;0.0721126720309;2;True;16;1;83.57199258730121
345;345;1449486981;2.3391673564900004;0.669825315475;0.0721622183919;2;True;16;1;83.57199258730121
346;346;1449486981;2.33902740479;0.669584453106;0.0722544565797;2;True;16;1;83.57199258730121
347;347;1449486981;2.3390407562299997;0.669708251953;0.0722953900695;2;True;16;1;83.57199258730121
348;348;1449486981;2.3392119407700003;0.669707655907;0.0722263231874;2;True;16;1;83.57199258730121
349;349;1449486981;2.33836388588;0.669791638851;0.07232286781069999;2;True;16;1;83.57199258730121
350;350;1449486981;2.3395388126400003;0.6701183319089999;0.07216152548789999;2;True;16;1;83.57199258730121
351;351;1449486981;2.33915543556;0.669795632362;0.0722115561366;2;True;16;1;83.57199258730121
352;352;1449486981;2.33920884132;0.669899404049;0.0722700878978;2;True;16;1;83.57199258730121
353;353;1449486981;2.33954930305;0.67010307312;0.072154738009;2;True;16;1;83.57199258730121
354;354;1449486981;2.33934402466;0.6699478626250001;0.07208267599339999;2;True;16;1;83.57199258730121
355;355;1449486981;2.3394989967299997;0.670153677464;0.07210129499439999;2;True;16;1;83.57199258730121
356;356;1449486981;2.33926033974;0.669928431511;0.0721550658345;2;True;16;1;83.57199258730121
357;357;1449486981;2.33915925026;0.669815778732;0.0722078755498;2;True;16;1;83.57199258730121
358;358;1449486981;2.33920264244;0.669832587242;0.0722000598907;2;True;16;1;83.57199258730121
359;359;1449486981;2.33931469917;0.670048356056;0.0720678642392;2;True;16;1;83.57199258730121
360;360;1449486981;2.33931994438;0.669705986977;0.0720440223813;2;True;16;1;83.57199258730121
361;361;1449486981;2.33920574188;0.669904708862;0.07222957164049999;2;True;16;1;83.57199258730121
362;362;1449486981;2.33933448792;0.66970795393;0.0720390230417;2;True;16;1;83.57199258730121
363;363;1449486981;2.33885407448;0.670001745224;0.0721708163619;2;True;16;1;83.57199258730121
364;364;1449486981;2.3392016887700002;0.6698564291;0.0721999853849;2;True;16;1;83.57199258730121
365;365;1449486981;2.33926153183;0.670023441315;0.07217860966919999;2;True;16;1;83.57199258730121
366;366;1449486981;2.3393545150799997;0.670074641705;0.0720239579678;2;True;16;1;83.57199258730121
367;367;1449486981;2.3392446041099997;0.669881820679;0.07223558425900001;2;True;16;1;83.57199258730121
368;368;1449486981;2.33913469315;0.669720411301;0.07220669090750001;2;True;16;1;83.57199258730121
369;369;1449486981;2.3392267227200003;0.669832468033;0.0721969977021;2;True;16;1;83.57199258730121
370;370;1449486981;2.3392539024400003;0.669854640961;0.072207249701;2;True;16;1;83.57199258730121
371;371;1449486981;2.3391759395599996;0.669791281223;0.0721315145493;2;True;16;1;83.57199258730121
372;372;1449486981;2.33927345276;0.6696706414220001;0.07206366956230001;2;True;16;1;83.57199258730121
373;373;1449486981;2.33914494514;0.669798493385;0.0722192078829;2;True;16;1;83.57199258730121
374;374;1449486981;2.339646101;0.670058429241;0.07211233675480001;2;True;16;1;83.57199258730121
375;375;1449486981;2.3386597633400004;0.670795440674;0.0715648457408;2;True;16;1;83.57199258730121
376;376;1449486981;2.33927726746;0.669975817204;0.0721929743886;2;True;16;1;83.57199258730121
377;377;1449486981;2.3392155170400004;0.669873595238;0.07221788913010001;2;True;16;1;83.57199258730121
378;378;1449486981;2.33932805061;0.6699116230009999;0.0720597356558;2;True;16;1;83.57199258730121
379;379;1449486981;2.33930444717;0.670007586479;0.07206771522760001;2;True;16;1;83.57199258730121
380;380;1449486981;2.33935260773;0.6700925230979999;0.07200922816989999;2;True;16;1;83.57199258730121
381;381;1449486981;2.33959507942;0.670038580894;0.07211266458030001;2;True;16;1;83.57199258730121
382;382;1449486981;2.3392252922099996;0.669954657555;0.07219719141719999;2;True;16;1;83.57199258730121
383;383;1449486981;2.33953690529;0.669699370861;0.07216099649669999;2;True;16;1;83.57199258730121
384;384;1449486981;2.33889937401;0.670501947403;0.07139678299430001;2;True;16;1;83.57199258730121
385;385;1449486981;2.3393332958200004;0.669936835766;0.0720659047365;2;True;16;1;83.57199258730121
386;386;1449486981;2.3391394615200003;0.669776618481;0.072194121778;2;True;16;1;83.57199258730121
387;387;1449486981;2.33846187592;0.669547855854;0.07240425795319999;2;True;16;1;83.57199258730121
388;388;1449486981;2.33898568153;0.670326828957;0.07171255350110001;2;True;16;1;83.57199258730121
389;389;1449486981;2.33934044838;0.6699507832530001;0.072029940784;2;True;16;1;83.57199258730121
390;390;1449486981;2.33954739571;0.66972976923;0.072168238461;2;True;16;1;83.57199258730121
391;391;1449486981;2.3384642601;0.670610487461;0.0717600360513;2;True;16;1;83.57199258730121
392;392;1449486981;2.33878803253;0.670241057873;0.07196626067160002;2;True;16;1;83.57199258730121
393;393;1449486981;2.33967041969;0.670062541962;0.0721199810505;2;True;16;1;83.57199258730121
394;394;1449486981;2.33969163895;0.6700829267499999;0.0721304044127;2;True;16;1;83.57199258730121
395;395;1449486981;2.33908295631;0.669839262962;0.0723613128066;2;True;16;1;83.57199258730121
396;396;1449486981;2.33912658691;0.670086801052;0.07223899662489999;2;True;16;1;83.57199258730121
397;397;1449486981;2.33875203133;0.67032200098;0.0718945339322;2;True;16;1;83.57199258730121
398;398;1449486981;2.33950352669;0.669707536697;0.0721653699875;2;True;16;1;83.57199258730121
399;399;1449486981;2.33937716484;0.670064806938;0.0720462575555;2;True;16;1;83.57199258730121
400;400;1449486981;2.3391003608700003;0.669899225235;0.0724438205361;2;True;16;1;83.57199258730121
401;401;1449486981;2.3393359184299998;0.669953644276;0.0719879940152;2;True;16;1;83.57199258730121
402;402;1449486981;2.33921909332;0.669785559177;0.0721128210425;2;True;16;1;83.57199258730121
403;403;1449486981;2.3387799263;0.67071723938;0.0715553537011;2;True;16;1;83.57199258730121
404;404;1449486981;2.33961081505;0.6700546145440001;0.0720994845033;2;True;16;1;83.57199258730121
405;405;1449486981;2.3394951820400003;0.670071125031;0.0719873160124;2;True;16;1;83.57199258730121
406;406;1449486981;2.3391518592800002;0.669778645039;0.0722027868032;2;True;16;1;83.57199258730121
407;407;1449486981;2.3384816646599997;0.670311272144;0.07188965380189999;2;True;16;1;83.57199258730121
408;408;1449486981;2.33913183212;0.669835805893;0.072103895247;2;True;16;1;83.57199258730121
409;409;1449486981;2.33949327469;0.669783353806;0.0721713379025;2;True;16;1;83.57199258730121
410;410;1449486981;2.33918619156;0.669835865498;0.0723788961768;2;True;16;1;83.57199258730121
411;411;1449486981;2.33889389038;0.6699886918069999;0.0721606463194;2;True;16;1;83.57199258730121
412;412;1449486981;2.3393375873599997;0.669950604439;0.0720154866576;2;True;16;1;83.57199258730121
413;413;1449486981;2.3389608859999997;0.670244574547;0.0714189484715;2;True;16;1;83.57199258730121
414;414;1449486981;2.3394596576700004;0.669715225697;0.072177067399;2;True;16;1;83.57199258730121
415;415;1449486981;2.33944702148;0.6697807908060001;0.0721806138754;2;True;16;1;83.57199258730121
416;416;1449486981;2.3392124175999998;0.670289754868;0.0720480307937;2;True;16;1;83.57199258730121
417;417;1449486981;2.33958959579;0.670062243938;0.0720872431993;2;True;16;1;83.57199258730121
418;418;1449486981;2.33932209015;0.6699814200399999;0.07205685973170001;2;True;16;1;83.57199258730121
419;419;1449486981;2.3391008377099998;0.669861912727;0.0722969993949;2;True;16;1;83.57199258730121
420;420;1449486981;2.33973789215;0.670412540436;0.07210230827330001;2;True;16;1;83.57199258730121
421;421;1449486981;2.33929920197;0.6701140999790001;0.07140442728999999;2;True;16;1;83.57199258730121
422;422;1449486981;2.33933877945;0.669972002506;0.07200433313849999;2;True;16;1;83.57199258730121
423;423;1449486981;2.33916163445;0.669586181641;0.0722261443734;2;True;16;1;83.57199258730121
424;424;1449486981;2.33900904655;0.66985553503;0.07229308784010001;2;True;16;1;83.57199258730121
425;425;1449486981;2.33904123306;0.670114517212;0.0723386481404;2;True;16;1;83.57199258730121
426;426;1449486981;2.33923721313;0.669931769371;0.07217685133219999;2;True;16;1;83.57199258730121
427;427;1449486981;2.3388085365299998;0.670036256313;0.0721071213484;2;True;16;1;83.57199258730121
428;428;1449486981;2.3396813869499997;0.670071423054;0.0720979347825;2;True;16;1;83.57199258730121
429;429;1449486981;2.3391764164;0.670466125011;0.0721333101392;2;True;16;1;83.57199258730121
430;430;1449486981;2.33932757378;0.6701318025590001;0.0720589831471;2;True;16;1;83.57199258730121
431;431;1449486981;2.33930587769;0.669684588909;0.0720468685031;2;True;16;1;83.57199258730121
432;432;1449486981;2.3388385772699998;0.6703900098800001;0.07195724546910001;2;True;16;1;83.57199258730121
433;433;1449486981;2.33915996552;0.669782936573;0.0722134336829;2;True;16;1;83.57199258730121
434;434;1449486981;2.3393065929400003;0.669698417187;0.0720404908061;2;True;16;1;83.57199258730121
435;435;1449486981;2.33979654312;0.670083165169;0.0721023455262;2;True;16;1;83.57199258730121
436;436;1449486981;2.3389775753;0.6702861785890001;0.0712034627795;2;True;16;1;83.57199258730121
437;437;1449486981;2.33937191963;0.669988632202;0.0720041319728;2;True;16;1;83.57199258730121
438;438;1449486981;2.33920478821;0.669644773006;0.0722303837538;2;True;16;1;83.57199258730121
439;439;1449486981;2.33948779106;0.6697288155560001;0.07218369841580001;2;True;16;1;83.57199258730121
440;440;1449486981;2.33936405182;0.6699804663660001;0.0720446780324;2;True;16;1;83.57199258730121
441;441;1449486981;2.33962655067;0.670039832592;0.07211828231810001;2;True;16;1;83.57199258730121
442;442;1449486981;2.3392472267200004;0.669902563095;0.07213494181630001;2;True;16;1;83.57199258730121
443;443;1449486981;2.3393783569299997;0.670154094696;0.0721069797873;2;True;16;1;83.57199258730121
444;444;1449486981;2.3393642902400003;0.669932305813;0.07203680276869999;2;True;16;1;83.57199258730121
445;445;1449486981;2.3393778801;0.670107245445;0.0720157548785;2;True;16;1;83.57199258730121
446;446;1449486981;2.33920812607;0.6695983409880001;0.0722408741713;2;True;16;1;83.57199258730121
447;447;1449486981;2.3392882347099997;0.669803202152;0.0721195787191;2;True;16;1;83.57199258730121
448;448;1449486981;2.33936309814;0.670078516006;0.07206653803589999;2;True;16;1;83.57199258730121
449;449;1449486981;2.3393433094;0.669942855835;0.07202300429339999;2;True;16;1;83.57199258730121
450;450;1449486981;2.33876252174;0.670147716999;0.0719894468784;2;True;16;1;83.57199258730121
451;451;1449486981;2.33960008621;0.670082867146;0.0721754655242;2;True;16;1;83.57199258730121
452;452;1449486981;2.3394536972;0.670404851437;0.0720141008496;2;True;16;1;83.57199258730121
453;453;1449486981;2.33923768997;0.669893980026;0.072166711092;2;True;16;1;83.57199258730121
454;454;1449486981;2.33935928345;0.669942438602;0.07208032161;2;True;16;1;83.57199258730121
455;455;1449486981;2.33920669556;0.6698373556139999;0.0722627341747;2;True;16;1;83.57199258730121
456;456;1449486981;2.3393688201900003;0.6697282195090001;0.07218393683430001;2;True;16;1;83.57199258730121
457;457;1449486981;2.33926153183;0.6699757575990001;0.0721352621913;2;True;16;1;83.57199258730121
458;458;1449486981;2.3393549919099996;0.67006278038;0.07204577326770001;2;True;16;1;83.57199258730121
459;459;1449486981;2.33935809135;0.670089304447;0.07206235080960001;2;True;16;1;83.57199258730121
460;460;1449486981;2.33924603462;0.669906139374;0.0722503960133;2;True;16;1;83.57199258730121
461;461;1449486981;2.33940124512;0.670388817787;0.0722446143627;2;True;16;1;83.57199258730121
462;462;1449486981;2.3392863273599995;0.669879674911;0.0722693651915;2;True;16;1;83.57199258730121
463;463;1449486981;2.33944606781;0.670541465282;0.07212073355910001;2;True;16;1;83.57199258730121
464;464;1449486981;2.3394768238099997;0.670120418072;0.0721353217959;2;True;16;1;83.57199258730121
465;465;1449486981;2.3393692970299997;0.67003339529;0.07204551249739999;2;True;16;1;83.57199258730121
466;466;1449486981;2.33821201324;0.669961869717;0.07234762609;2;True;16;1;83.57199258730121
467;467;1449486981;2.33924293518;0.6699112653729999;0.0722453519702;2;True;16;1;83.57199258730121
468;468;1449486981;2.33938241005;0.670008301735;0.07204677909610001;2;True;16;1;83.57199258730121
469;469;1449486981;2.3392453193700002;0.669936478138;0.07219200581310001;2;True;16;1;83.57199258730121
470;470;1449486981;2.3393445015;0.669695079327;0.0720520690084;2;True;16;1;83.57199258730121
471;471;1449486981;2.33927464485;0.669741690159;0.07215277105569999;2;True;16;1;83.57199258730121
472;472;1449486981;2.33947825432;0.669683277607;0.0721853077412;2;True;16;1;83.57199258730121
473;473;1449486981;2.33930253983;0.669729948044;0.0721595585346;2;True;16;1;83.57199258730121
474;474;1449486981;2.33937287331;0.669948220253;0.0720720887184;2;True;16;1;83.57199258730121
475;475;1449486981;2.33936548233;0.6699932813639999;0.072055824101;2;True;16;1;83.57199258730121
476;476;1449486981;2.33929371834;0.669871926308;0.07225706428289999;2;True;16;1;83.57199258730121
477;477;1449486981;2.33927726746;0.6698169112210001;0.0721188560128;2;True;16;1;83.57199258730121
478;478;1449486981;2.3394491672499997;0.670430719852;0.07202329486610001;2;True;16;1;83.57199258730121
479;479;1449486981;2.33924055099;0.669903635979;0.07223933935169999;2;True;16;1;83.57199258730121
480;480;1449486981;2.33875799179;0.670198380947;0.0721327513456;2;True;16;1;83.57199258730121
481;481;1449486981;2.3393433094;0.669960260391;0.0720614939928;2;True;16;1;83.57199258730121
482;482;1449486981;2.33928871155;0.670072555542;0.072167776525;2;True;16;1;83.57199258730121
483;483;1449486981;2.33922028542;0.669906795025;0.07224719971419999;2;True;16;1;83.57199258730121
484;484;1449486981;2.33915400505;0.670149087906;0.07231698930260001;2;True;16;1;83.57199258730121
485;485;1449486981;2.33923077583;0.669909656048;0.0721580013633;2;True;16;1;83.57199258730121
486;486;1449486981;2.3396542072299997;0.6701658368110001;0.0721997916698;2;True;16;1;83.57199258730121
487;487;1449486981;2.3392825126599996;0.669921994209;0.07214871793989999;2;True;16;1;83.57199258730121
488;488;1449486981;2.3390109539;0.6699529290199999;0.0725467950106;2;True;16;1;83.57199258730121
489;489;1449486981;2.3393304348;0.669708132744;0.0720571801066;2;True;16;1;83.57199258730121
490;490;1449486981;2.3393738269799997;0.669968724251;0.07203654199839998;2;True;16;1;83.57199258730121
491;491;1449486981;2.33928537369;0.6699863076210001;0.07223311811689999;2;True;16;1;83.57199258730121
492;492;1449486981;2.33928847313;0.669874072075;0.07228397578;2;True;16;1;83.57199258730121
493;493;1449486981;2.33916068077;0.669795572758;0.0722202211618;2;True;16;1;83.57199258730121
494;494;1449486981;2.33934283257;0.670037925243;0.0720597356558;2;True;16;1;83.57199258730121
495;495;1449486981;2.33924412727;0.669887423515;0.0722002908587;2;True;16;1;83.57199258730121
496;496;1449486981;2.33916783333;0.669796943665;0.0722176581621;2;True;16;1;83.57199258730121
497;497;1449486981;2.3396320343;0.6702505350110001;0.0721535459161;2;True;16;1;83.57199258730121
498;498;1449486981;2.3392188549;0.669785678387;0.0721577778459;2;True;16;1;83.57199258730121
499;499;1449486981;2.33934020996;0.669737696648;0.0720411464572;2;True;16;1;83.57199258730121
500;500;1449486981;2.33917951584;0.669878721237;0.0722778961062;2;True;16;1;83.57199258730121
501;501;1449486981;2.3392453193700002;0.669932067394;0.07225533574819999;2;True;16;1;83.57199258730121
502;502;1449486981;2.3391623497;0.670401036739;0.0719771236181;2;True;16;1;83.57199258730121
503;503;1449486981;2.33918738365;0.669871449471;0.072200126946;2;True;16;1;83.57199258730121
504;504;1449486981;2.33915877342;0.66989171505;0.07228430360560001;2;True;16;1;83.57199258730121
505;505;1449486981;2.3391053676599998;0.669826745987;0.07230949401860001;2;True;16;1;83.57199258730121
506;506;1449486981;2.33944749832;0.6697927713390001;0.0721725896001;2;True;16;1;83.57199258730121
507;507;1449486981;2.33932781219;0.669980704784;0.07204497605560001;2;True;16;1;83.57199258730121
508;508;1449486981;2.33898949623;0.670063257217;0.07244389504189999;2;True;16;1;83.57199258730121
509;509;1449486981;2.3392906189;0.669866859913;0.0722592920065;2;True;16;1;83.57199258730121
510;510;1449486981;2.33933901787;0.669937908649;0.0720232799649;2;True;16;1;83.57199258730121
511;511;1449486981;2.3397109508500002;0.669808864594;0.0721869915724;2;True;16;1;83.57199258730121
512;512;1449486981;2.33916759491;0.669817209244;0.0722210556269;2;True;16;1;83.57199258730121
513;513;1449486981;2.33924436569;0.669954836369;0.07219534367319999;2;True;16;1;83.57199258730121
514;514;1449486981;2.33864784241;0.670090138912;0.07225830852989999;2;True;16;1;83.57199258730121
515;515;1449486981;2.33921599388;0.6698737144470001;0.0721994414926;2;True;16;1;83.57199258730121
516;516;1449486981;2.33968663216;0.670130372047;0.072187922895;2;True;16;1;83.57199258730121
517;517;1449486981;2.33922624588;0.6699322462080001;0.0722089633346;2;True;16;1;83.57199258730121
518;518;1449486981;2.33932352066;0.669750869274;0.07204867899419999;2;True;16;1;83.57199258730121
519;519;1449486981;2.33964276314;0.669757246971;0.072176784277;2;True;16;1;83.57199258730121
520;520;1449486981;2.33924603462;0.66999155283;0.0722020044923;2;True;16;1;83.57199258730121
521;521;1449486981;2.33964037895;0.670066297054;0.072115778923;2;True;16;1;83.57199258730121
522;522;1449486981;2.33915328979;0.669889569283;0.0722927972674;2;True;16;1;83.57199258730121
523;523;1449486981;2.33964133263;0.67015182972;0.0721906498075;2;True;16;1;83.57199258730121
524;524;1449486981;2.3386299610099996;0.6702005863189999;0.0720196887851;2;True;16;1;83.57199258730121
525;525;1449486981;2.33900046349;0.669899225235;0.0721017867327;2;True;16;1;83.57199258730121
526;526;1449486981;2.33968496323;0.670122981071;0.0721670240164;2;True;16;1;83.57199258730121
527;527;1449486981;2.3393611908;0.669969022274;0.0720242857933;2;True;16;1;83.57199258730121
528;528;1449486981;2.3392829895;0.669803738594;0.0727021247149;2;True;16;1;83.57199258730121
529;529;1449486981;2.33925580978;0.669953405857;0.0721843019128;2;True;16;1;83.57199258730121
530;530;1449486981;2.33939003944;0.670497834682;0.0720760151744;2;True;16;1;83.57199258730121
531;531;1449486981;2.33946943283;0.670167386532;0.0721084848046;2;True;16;1;83.57199258730121
532;532;1449486981;2.3392090797400003;0.669897735119;0.0721926093102;2;True;16;1;83.57199258730121
533;533;1449486981;2.33959460258;0.669749557972;0.0721718892455;2;True;16;1;83.57199258730121
534;534;1449486981;2.33906936646;0.669916749001;0.0722537189722;2;True;16;1;83.57199258730121
535;535;1449486981;2.3385307788799996;0.669975697994;0.0723104923964;2;True;16;1;83.57199258730121
536;536;1449486981;2.3392388820599996;0.669934749603;0.07219838351010001;2;True;16;1;83.57199258730121
537;537;1449486982;2.3397102356;0.670079648495;0.07213226705789999;3;True;16;1;83.57199258730121
538;538;1449486982;2.33958244324;0.6697404384610001;0.0721732974052;3;True;16;1;83.57199258730121
539;539;1449486982;2.33915376663;0.670289754868;0.0720880031586;3;True;16;1;83.57199258730121
540;540;1449486982;2.3393330574;0.669954419136;0.0720619559288;3;True;16;1;83.57199258730121
541;541;1449486982;2.33970737457;0.670080125332;0.07214395701889999;3;True;16;1;83.57199258730121
542;542;1449486982;2.33970594406;0.67010384798;0.07216390222310001;3;True;16;1;83.57199258730121
543;543;1449486982;2.33859062195;0.670378386974;0.0719613805413;3;True;16;1;83.57199258730121
544;544;1449486982;2.3389632701900003;0.669708430767;0.0723321437836;3;True;16;1;83.57199258730121
545;545;1449486982;2.33833813667;0.670021355152;0.0712803378701;3;True;16;1;83.57199258730121
546;546;1449486982;2.33926701546;0.669965624809;0.0722037404776;3;True;16;1;83.57199258730121
547;547;1449486982;2.33943796158;0.670434772968;0.0719968751073;3;True;16;1;83.57199258730121
548;548;1449486982;2.33908677101;0.670308470726;0.07195356488230001;3;True;16;1;83.57199258730121
549;549;1449486982;2.33970475197;0.6700943708420001;0.0721370354295;3;True;16;1;83.57199258730121
550;550;1449486982;2.3391432762099997;0.6702657938000001;0.07195142656560001;3;True;16;1;83.57199258730121
551;551;1449486982;2.3393697738599997;0.669967651367;0.0720063596964;3;True;16;1;83.57199258730121
552;552;1449486982;2.3393497467;0.6701912283899999;0.0721217319369;3;True;16;1;83.57199258730121
553;553;1449486982;2.3394742012000003;0.669715106487;0.07217924296860001;3;True;16;1;83.57199258730121
554;554;1449486982;2.3396565914200003;0.67012411356;0.072183355689;3;True;16;1;83.57199258730121
555;555;1449486982;2.3387167453799997;0.670017719269;0.0723832771182;3;True;16;1;83.57199258730121
556;556;1449486982;2.3393754959099997;0.670114636421;0.0720114558935;3;True;16;1;83.57199258730121
557;557;1449486982;2.33965158463;0.6700610518460001;0.07208534330130001;3;True;16;1;83.57199258730121
558;558;1449486982;2.3388285636900004;0.670231044292;0.0719317942858;3;True;16;1;83.57199258730121
559;559;1449486982;2.33920860291;0.669993758202;0.07235192507510001;3;True;16;1;83.57199258730121
560;560;1449486982;2.3396537303900002;0.670122504234;0.0721566453576;3;True;16;1;83.57199258730121
561;561;1449486982;2.33923649788;0.669948279858;0.07215322554110001;3;True;16;1;83.57199258730121
562;562;1449486982;2.33968734741;0.670083403587;0.07212346047160001;3;True;16;1;83.57199258730121
563;563;1449486982;2.33904600143;0.6701226830479999;0.0722553431988;3;True;16;1;83.57199258730121
564;564;1449486982;2.33933973312;0.670561373234;0.07212986052039999;3;True;16;1;83.57199258730121
565;565;1449486982;2.3393509388;0.670080184937;0.0720627903938;3;True;16;1;83.57199258730121
566;566;1449486982;2.33906769753;0.6698061227800001;0.0722592771053;3;True;16;1;83.57199258730121
567;567;1449486982;2.3392777442900003;0.669813334942;0.07211336493489999;3;True;16;1;83.57199258730121
568;568;1449486982;2.33919453621;0.670168578625;0.07218076288700001;3;True;16;1;83.57199258730121
569;569;1449486982;2.33956503868;0.670243620872;0.0720578283072;3;True;16;1;83.57199258730121
570;570;1449486982;2.3391432762099997;0.669874727726;0.07220606505869999;3;True;16;1;83.57199258730121
571;571;1449486982;2.33889722824;0.669686973095;0.0723653659225;3;True;16;1;83.57199258730121
572;572;1449486982;2.33970046043;0.670088112354;0.0721559226513;3;True;16;1;83.57199258730121
573;573;1449486982;2.33907747269;0.669869482517;0.0720980614424;3;True;16;1;83.57199258730121
574;574;1449486982;2.33930015564;0.669948399067;0.0720817744732;3;True;16;1;83.57199258730121
575;575;1449486982;2.33904719353;0.669882953167;0.0722803324461;3;True;16;1;83.57199258730121
576;576;1449486982;2.33855295181;0.670427203178;0.0721906945109;3;True;16;1;83.57199258730121
577;577;1449486982;2.33872556686;0.670420467854;0.0717766657472;3;True;16;1;83.57199258730121
578;578;1449486982;2.3396937847099997;0.6700763106350001;0.0721399188042;3;True;16;1;83.57199258730121
579;579;1449486982;2.33872056007;0.67019456625;0.0721692815423;3;True;16;1;83.57199258730121
580;580;1449486982;2.3391208648700004;0.670022785664;0.0722239911556;3;True;16;1;83.57199258730121
581;581;1449486982;2.3386805057499997;0.67001926899;0.0722195506096;3;True;16;1;83.57199258730121
582;582;1449486982;2.3396730423;0.670381426811;0.0720925182104;3;True;16;1;83.57199258730121
583;583;1449486982;2.33905267715;0.669876992702;0.07209674268960001;3;True;16;1;83.57199258730121
584;584;1449486982;2.33936333656;0.67009472847;0.0720062628388;3;True;16;1;83.57199258730121
585;585;1449486982;2.33966350555;0.670124232769;0.07218604534860001;3;True;16;1;83.57199258730121
586;586;1449486982;2.33971261978;0.670081198215;0.0721487924457;3;True;16;1;83.57199258730121
587;587;1449486982;2.33933877945;0.66993021965;0.0720671787858;3;True;16;1;83.57199258730121
588;588;1449486982;2.33970880508;0.670073270798;0.0721524655819;3;True;16;1;83.57199258730121
589;589;1449486982;2.33935022354;0.6699813008309999;0.0720757618546;3;True;16;1;83.57199258730121
590;590;1449486982;2.33900356293;0.6698683500289999;0.0726059526205;3;True;16;1;83.57199258730121
591;591;1449486982;2.3395030498500002;0.669702172279;0.0721886381507;3;True;16;1;83.57199258730121
592;592;1449486982;2.33919143677;0.6698747873309999;0.07220344990489999;3;True;16;1;83.57199258730121
593;593;1449486982;2.3389389514900003;0.670557439327;0.0721129328012;3;True;16;1;83.57199258730121
594;594;1449486982;2.3394663333900003;0.670433521271;0.07207620888949999;3;True;16;1;83.57199258730121
595;595;1449486982;2.33936810493;0.670143604279;0.0720652714372;3;True;16;1;83.57199258730121
596;596;1449486982;2.33966326714;0.670067071915;0.0721294283867;3;True;16;1;83.57199258730121
597;597;1449486982;2.3389608859999997;0.669921040535;0.07210141420360001;3;True;16;1;83.57199258730121
598;598;1449486982;2.3394246101400005;0.67040348053;0.0720205903053;3;True;16;1;83.57199258730121
599;599;1449486982;2.33877301216;0.6699944138530001;0.07215645164250001;3;True;16;1;83.57199258730121
600;600;1449486982;2.33963489532;0.670122146606;0.0721955820918;3;True;16;1;83.57199258730121
601;601;1449486982;2.33935213089;0.669949889183;0.0720614865422;3;True;16;1;83.57199258730121
602;602;1449486982;2.33948802948;0.670094966888;0.0721407681704;3;True;16;1;83.57199258730121
603;603;1449486982;2.33918786049;0.669879734516;0.0725901797414;3;True;16;1;83.57199258730121
604;604;1449486982;2.33944940567;0.670561015606;0.072126083076;3;True;16;1;83.57199258730121
605;605;1449486982;2.3388998508500003;0.670268774033;0.07189612090589999;3;True;16;1;83.57199258730121
606;606;1449486982;2.33934378624;0.669964909554;0.07203563302760001;3;True;16;1;83.57199258730121
607;607;1449486982;2.3396449089099995;0.670277059078;0.07281657308339999;3;True;16;1;83.57199258730121
608;608;1449486982;2.3392305374099998;0.669881522655;0.0722433999181;3;True;16;1;83.57199258730121
609;609;1449486982;2.3396527767200004;0.670275747776;0.07280959933999999;3;True;16;1;83.57199258730121
610;610;1449486982;2.3393933773;0.669691562653;0.072172768414;3;True;16;1;83.57199258730121
611;611;1449486982;2.33926606178;0.6697456240649999;0.0721502304077;3;True;16;1;83.57199258730121
