;Unnamed: 0;header_stamp_secs;pose_position_x;pose_position_y;pose_position_z;seconds;drop_values;flight_number;label;dtw
0;0;1449482908;2.14247775078;0.7184005379680001;0.0354936830699;1;True;2;1;2.0458772256983044
1;1;1449482908;2.1430575847599997;0.718627512455;0.035816408693800005;1;True;2;1;2.0458772256983044
2;2;1449482908;2.14238667488;0.718488752842;0.0359014719725;1;True;2;1;2.0458772256983044
3;3;1449482908;2.14191913605;0.718365073204;0.0358414240181;1;True;2;1;2.0458772256983044
4;4;1449482908;2.14254903793;0.7182698845859999;0.0359313040972;1;True;2;1;2.0458772256983044
5;5;1449482908;2.14201664925;0.7183098793029999;0.035889752209199995;1;True;2;1;2.0458772256983044
6;6;1449482908;2.14228630066;0.718522489071;0.0355365499854;1;True;2;1;2.0458772256983044
7;7;1449482908;2.1426179409;0.718552708626;0.0354879312217;1;True;2;1;2.0458772256983044
8;8;1449482908;2.1424057483700003;0.7183496356010001;0.0350989550352;1;True;2;1;2.0458772256983044
9;9;1449482908;2.14217877388;0.718641161919;0.035065952688500004;1;True;2;1;2.0458772256983044
10;10;1449482908;2.14213061333;0.718917906284;0.0352958329022;1;True;2;1;2.0458772256983044
11;11;1449482908;2.14253473282;0.7185031175609999;0.035533323884000004;1;True;2;1;2.0458772256983044
12;12;1449482908;2.1423983573900003;0.7184613943100001;0.0354946777225;1;True;2;1;2.0458772256983044
13;13;1449482908;2.14208912849;0.718599200249;0.0353350862861;1;True;2;1;2.0458772256983044
14;14;1449482908;2.14164376259;0.718433499336;0.035739004612;1;True;2;1;2.0458772256983044
15;15;1449482908;2.14157152176;0.718411266804;0.0358520783484;1;True;2;1;2.0458772256983044
16;16;1449482908;2.14255023003;0.718447506428;0.035543765872699994;1;True;2;1;2.0458772256983044
17;17;1449482908;2.14180994034;0.7181698083879999;0.0359655208886;1;True;2;1;2.0458772256983044
18;18;1449482908;2.14187073708;0.7179948091509999;0.03600608184930001;1;True;2;1;2.0458772256983044
19;19;1449482908;2.14194107056;0.7181040644650001;0.035243507474699995;1;True;2;1;2.0458772256983044
20;20;1449482908;2.14246082306;0.718434989452;0.035261090844900006;1;True;2;1;2.0458772256983044
21;21;1449482908;2.1421847343400002;0.7185868620870001;0.0356669314206;1;True;2;1;2.0458772256983044
22;22;1449482908;2.14244270325;0.718639910221;0.0355861708522;1;True;2;1;2.0458772256983044
23;23;1449482908;2.14153122902;0.7180889844889999;0.0357552990317;1;True;2;1;2.0458772256983044
24;24;1449482908;2.14201664925;0.7183620333670001;0.0356626026332;1;True;2;1;2.0458772256983044
25;25;1449482908;2.14218449593;0.719023227692;0.0359880067408;1;True;2;1;2.0458772256983044
26;26;1449482908;2.14310002327;0.7186165452;0.0358888320625;1;True;2;1;2.0458772256983044
27;27;1449482908;2.142578125;0.71852427721;0.0355515629053;1;True;2;1;2.0458772256983044
28;28;1449482908;2.1431250572200002;0.718625307083;0.0359006673098;1;True;2;1;2.0458772256983044
29;29;1449482908;2.14253163338;0.718547224998;0.0354352854192;1;True;2;1;2.0458772256983044
30;30;1449482908;2.1418228149400003;0.718657612801;0.03562960401180001;1;True;2;1;2.0458772256983044
31;31;1449482908;2.14237380028;0.718619465828;0.0355715528131;1;True;2;1;2.0458772256983044
32;32;1449482908;2.1424229145099996;0.718429327011;0.0352787040174;1;True;2;1;2.0458772256983044
33;33;1449482908;2.14156699181;0.718945622444;0.0354132093489;1;True;2;1;2.0458772256983044
34;34;1449482908;2.14247775078;0.718641936779;0.0355550609529;1;True;2;1;2.0458772256983044
35;35;1449482908;2.14169692993;0.7177527546879999;0.0354905202985;1;True;2;1;2.0458772256983044
36;36;1449482908;2.14248728752;0.718726038933;0.0355618856847;1;True;2;1;2.0458772256983044
37;37;1449482908;2.14211630821;0.718728482723;0.0356168672442;1;True;2;1;2.0458772256983044
38;38;1449482908;2.14246535301;0.718503892422;0.0355087332428;1;True;2;1;2.0458772256983044
39;39;1449482908;2.1416780948599996;0.718093216419;0.035377219319300005;1;True;2;1;2.0458772256983044
40;40;1449482908;2.14234638214;0.718408286572;0.035500083118699996;1;True;2;1;2.0458772256983044
41;41;1449482908;2.14234375954;0.7186577916150001;0.035559266805599996;1;True;2;1;2.0458772256983044
42;42;1449482908;2.1412651538799996;0.718278169632;0.0349355153739;1;True;2;1;2.0458772256983044
43;43;1449482908;2.14171671867;0.718123018742;0.0348164364696;1;True;2;1;2.0458772256983044
44;44;1449482908;2.14223027229;0.718539476395;0.0355045236647;1;True;2;1;2.0458772256983044
45;45;1449482908;2.14171552658;0.718176782131;0.0359811745584;1;True;2;1;2.0458772256983044
46;46;1449482908;2.1423265934;0.71854698658;0.0360825173557;1;True;2;1;2.0458772256983044
47;47;1449482908;2.14213514328;0.7183908224109999;0.0355275720358;1;True;2;1;2.0458772256983044
48;48;1449482908;2.1424329280900003;0.718643009663;0.03553211689;1;True;2;1;2.0458772256983044
49;49;1449482908;2.14239645004;0.7186471819879999;0.0356188118458;1;True;2;1;2.0458772256983044
50;50;1449482908;2.1420762538900004;0.7179030776019999;0.0359064340591;1;True;2;1;2.0458772256983044
51;51;1449482908;2.14189839363;0.71850836277;0.0354000926018;1;True;2;1;2.0458772256983044
52;52;1449482908;2.1420249939;0.7185892462729999;0.035860478878;1;True;2;1;2.0458772256983044
53;53;1449482908;2.14194869995;0.718295276165;0.0352992378175;1;True;2;1;2.0458772256983044
54;54;1449482908;2.14228177071;0.718513846397;0.035483147949;1;True;2;1;2.0458772256983044
55;55;1449482908;2.14246821404;0.7184473872179999;0.035509839654;1;True;2;1;2.0458772256983044
56;56;1449482908;2.1421289444;0.7183529138570001;0.035320285707699996;1;True;2;1;2.0458772256983044
57;57;1449482908;2.14256048203;0.718546926975;0.035467810928800005;1;True;2;1;2.0458772256983044
58;58;1449482908;2.14184451103;0.7182552814480001;0.0355840437114;1;True;2;1;2.0458772256983044
59;59;1449482908;2.14227390289;0.7186760902399999;0.0360510200262;1;True;2;1;2.0458772256983044
60;60;1449482908;2.14234542847;0.718662798405;0.034646898508099995;1;True;2;1;2.0458772256983044
61;61;1449482908;2.1424531936599998;0.718720376492;0.0354831293225;1;True;2;1;2.0458772256983044
62;62;1449482908;2.1413509845700003;0.718390226364;0.0359822176397;1;True;2;1;2.0458772256983044
63;63;1449482908;2.1421868801099997;0.718988835812;0.0349615365267;1;True;2;1;2.0458772256983044
64;64;1449482908;2.14218878746;0.718377292156;0.0354179888964;1;True;2;1;2.0458772256983044
65;65;1449482908;2.14256978035;0.71885484457;0.035485010594099996;1;True;2;1;2.0458772256983044
66;66;1449482908;2.14188146591;0.7183558344840001;0.0355760455132;1;True;2;1;2.0458772256983044
67;67;1449482908;2.1425087451900002;0.7183765172959999;0.035454433411400005;1;True;2;1;2.0458772256983044
68;68;1449482908;2.14193105698;0.718465805054;0.035580996424;1;True;2;1;2.0458772256983044
69;69;1449482908;2.1422560215;0.718462228775;0.035446383059;1;True;2;1;2.0458772256983044
70;70;1449482908;2.14228057861;0.718429684639;0.0354657955468;1;True;2;1;2.0458772256983044
71;71;1449482908;2.14160609245;0.718371391296;0.035736154764900004;1;True;2;1;2.0458772256983044
72;72;1449482908;2.14252185822;0.718535959721;0.0354422442615;1;True;2;1;2.0458772256983044
73;73;1449482908;2.14238166809;0.718398690224;0.0354229174554;1;True;2;1;2.0458772256983044
74;74;1449482908;2.14218497276;0.71855199337;0.0356564447284;1;True;2;1;2.0458772256983044
75;75;1449482908;2.14163851738;0.71858972311;0.0355191901326;1;True;2;1;2.0458772256983044
76;76;1449482908;2.1422436237299998;0.7187972068790001;0.0356127955019;1;True;2;1;2.0458772256983044
77;77;1449482908;2.14187932014;0.718289732933;0.035414744168500004;1;True;2;1;2.0458772256983044
78;78;1449482908;2.14244031906;0.718619942665;0.035660028457599996;1;True;2;1;2.0458772256983044
79;79;1449482908;2.14193415642;0.717954456806;0.0352431721985;1;True;2;1;2.0458772256983044
80;80;1449482908;2.14224839211;0.7186281681059999;0.0355346389115;1;True;2;1;2.0458772256983044
81;81;1449482908;2.14172196388;0.718686461449;0.03489718213680001;1;True;2;1;2.0458772256983044
82;82;1449482908;2.14228534698;0.718663692474;0.0359687246382;1;True;2;1;2.0458772256983044
83;83;1449482908;2.1419830322299998;0.7184877991680001;0.035750646144199996;1;True;2;1;2.0458772256983044
84;84;1449482908;2.14248490334;0.718456029892;0.0354653634131;1;True;2;1;2.0458772256983044
85;85;1449482908;2.14198112488;0.7185086011890001;0.035506475716800004;1;True;2;1;2.0458772256983044
86;86;1449482908;2.14300823212;0.718649744987;0.0357723645866;1;True;2;1;2.0458772256983044
87;87;1449482908;2.14116692543;0.718533813953;0.035471554845599995;1;True;2;1;2.0458772256983044
88;88;1449482908;2.14263629913;0.71869635582;0.0354552194476;1;True;2;1;2.0458772256983044
89;89;1449482908;2.14210486412;0.718560099602;0.035484571009900004;1;True;2;1;2.0458772256983044
90;90;1449482908;2.14258480072;0.71887087822;0.035468935966500005;1;True;2;1;2.0458772256983044
91;91;1449482908;2.14171934128;0.7189602851870001;0.0358792059124;1;True;2;1;2.0458772256983044
92;92;1449482908;2.14170598984;0.71826428175;0.0356905162334;1;True;2;1;2.0458772256983044
93;93;1449482908;2.14248490334;0.718453526497;0.035484906286;1;True;2;1;2.0458772256983044
94;94;1449482908;2.1414105892200004;0.718276500702;0.03556246683;1;True;2;1;2.0458772256983044
95;95;1449482908;2.14234471321;0.718545675278;0.035471573472;1;True;2;1;2.0458772256983044
96;96;1449482908;2.14208507538;0.718356609344;0.0351405292749;1;True;2;1;2.0458772256983044
97;97;1449482908;2.14199018478;0.718645334244;0.035049021244;1;True;2;1;2.0458772256983044
98;98;1449482908;2.1418216228499998;0.71838414669;0.035523645579800006;1;True;2;1;2.0458772256983044
99;99;1449482908;2.1419162750200003;0.7182539105419999;0.0351636596024;1;True;2;1;2.0458772256983044
100;100;1449482908;2.1422498226199997;0.7186601758;0.0357448123395;1;True;2;1;2.0458772256983044
101;101;1449482908;2.1420948505400004;0.7186389565469999;0.0357440337539;1;True;2;1;2.0458772256983044
102;102;1449482908;2.14224696159;0.718607068062;0.035513930022699994;1;True;2;1;2.0458772256983044
103;103;1449482908;2.14228153229;0.718510687351;0.035502858459900005;1;True;2;1;2.0458772256983044
104;104;1449482908;2.14225006104;0.718326032162;0.035494908690499996;1;True;2;1;2.0458772256983044
105;105;1449482908;2.1424117088299997;0.71883136034;0.0354969054461;1;True;2;1;2.0458772256983044
106;106;1449482908;2.1423680782299996;0.717950046062;0.0361876152456;1;True;2;1;2.0458772256983044
107;107;1449482908;2.1423034668;0.718094170094;0.036397408694;1;True;2;1;2.0458772256983044
108;108;1449482908;2.1413464546200003;0.718460440636;0.035813041031400004;1;True;2;1;2.0458772256983044
109;109;1449482908;2.14258575439;0.7188794612880001;0.0355596654117;1;True;2;1;2.0458772256983044
110;110;1449482908;2.14246869087;0.718535065651;0.03547715768219999;1;True;2;1;2.0458772256983044
111;111;1449482908;2.1423947811099997;0.7184858918189999;0.035488191992;1;True;2;1;2.0458772256983044
112;112;1449482908;2.14160585403;0.718338429928;0.0353371500969;1;True;2;1;2.0458772256983044
113;113;1449482908;2.14193558693;0.718274652958;0.0357073694468;1;True;2;1;2.0458772256983044
114;114;1449482908;2.1423947811099997;0.718648731709;0.0355667471886;1;True;2;1;2.0458772256983044
115;115;1449482908;2.142131567;0.7182118296619999;0.0363049060106;1;True;2;1;2.0458772256983044
116;116;1449482908;2.14149689674;0.719121456146;0.035712786018800007;1;True;2;1;2.0458772256983044
117;117;1449482908;2.1421239376099996;0.718318283558;0.035230934619900005;1;True;2;1;2.0458772256983044
118;118;1449482908;2.1420133113900004;0.718445539474;0.0357055179775;1;True;2;1;2.0458772256983044
119;119;1449482908;2.14239025116;0.7188910245899999;0.0359379611909;1;True;2;1;2.0458772256983044
120;120;1449482908;2.14240002632;0.7186484932899999;0.0355768278241;1;True;2;1;2.0458772256983044
121;121;1449482908;2.14236545563;0.718500673771;0.0353765450418;1;True;2;1;2.0458772256983044
122;122;1449482908;2.14216566086;0.718212723732;0.0365588851273;1;True;2;1;2.0458772256983044
123;123;1449482908;2.14216518402;0.718867599964;0.035213757306300005;1;True;2;1;2.0458772256983044
124;124;1449482908;2.1418967247;0.718744397163;0.0363832712173;1;True;2;1;2.0458772256983044
125;125;1449482908;2.14236235619;0.7185626626010001;0.0355115570128;1;True;2;1;2.0458772256983044
126;126;1449482908;2.1420674324;0.7184000611310001;0.0353744849563;1;True;2;1;2.0458772256983044
127;127;1449482908;2.14240860939;0.71838003397;0.035266578197499995;1;True;2;1;2.0458772256983044
128;128;1449482908;2.1421961784400003;0.7185566425319999;0.0355916284025;1;True;2;1;2.0458772256983044
129;129;1449482908;2.1421484947200002;0.7186995148659999;0.0353218913078;1;True;2;1;2.0458772256983044
130;130;1449482908;2.1423420906099997;0.7179187536239999;0.035414211452;1;True;2;1;2.0458772256983044
131;131;1449482908;2.14196443558;0.718453407288;0.035896692425;1;True;2;1;2.0458772256983044
132;132;1449482908;2.14184570312;0.71856367588;0.0356867797673;1;True;2;1;2.0458772256983044
133;133;1449482908;2.1418442726099998;0.718485534191;0.0352051593363;1;True;2;1;2.0458772256983044
134;134;1449482908;2.14229464531;0.718556165695;0.035590406507300006;1;True;2;1;2.0458772256983044
135;135;1449482908;2.1424305438999998;0.718420803547;0.035274468362300006;1;True;2;1;2.0458772256983044
136;136;1449482908;2.14194846153;0.7182101607320001;0.035167392343300005;1;True;2;1;2.0458772256983044
137;137;1449482908;2.1419219970700003;0.7172822952269999;0.0363986715674;1;True;2;1;2.0458772256983044
138;138;1449482908;2.1424005031599997;0.7185803651809999;0.035585463047;1;True;2;1;2.0458772256983044
139;139;1449482908;2.14191174507;0.7179418802259999;0.0354911610484;1;True;2;1;2.0458772256983044
140;140;1449482908;2.14233374596;0.7185510396960001;0.035342674702400004;1;True;2;1;2.0458772256983044
141;141;1449482908;2.14218044281;0.71838259697;0.03563771396880001;1;True;2;1;2.0458772256983044
142;142;1449482908;2.14226150513;0.718549966812;0.035584554076199995;1;True;2;1;2.0458772256983044
143;143;1449482908;2.14229488373;0.71855276823;0.0354731194675;1;True;2;1;2.0458772256983044
144;144;1449482908;2.14243555069;0.718634545803;0.035581272095400004;1;True;2;1;2.0458772256983044
145;145;1449482908;2.14270472527;0.718707501888;0.0355354584754;1;True;2;1;2.0458772256983044
146;146;1449482908;2.14157652855;0.717507600784;0.0362604856491;1;True;2;1;2.0458772256983044
147;147;1449482908;2.14244055748;0.718854367733;0.0355649366975;1;True;2;1;2.0458772256983044
148;148;1449482908;2.14220190048;0.718606114388;0.0356449112296;1;True;2;1;2.0458772256983044
149;149;1449482908;2.1417911052700003;0.718374729156;0.035789616406;1;True;2;1;2.0458772256983044
150;150;1449482908;2.1417965888999997;0.717886805534;0.0350884236395;1;True;2;1;2.0458772256983044
151;151;1449482908;2.14225673676;0.718869626522;0.0351213403046;1;True;2;1;2.0458772256983044
152;152;1449482908;2.1418375968900003;0.7178480029109999;0.035916429013000004;1;True;2;1;2.0458772256983044
153;153;1449482908;2.1421082019799997;0.718720078468;0.0356257297099;1;True;2;1;2.0458772256983044
154;154;1449482908;2.1421735286700003;0.7184129953380001;0.0353860482574;1;True;2;1;2.0458772256983044
155;155;1449482908;2.14209842682;0.7182646989820001;0.0355189293623;1;True;2;1;2.0458772256983044
156;156;1449482908;2.1424164772;0.7184621691699999;0.035218622535500003;1;True;2;1;2.0458772256983044
157;157;1449482908;2.1418724060099996;0.718627750874;0.0355236940086;1;True;2;1;2.0458772256983044
158;158;1449482908;2.1424407959000002;0.7184857130050001;0.035228535533;1;True;2;1;2.0458772256983044
159;159;1449482908;2.1425499916099997;0.718442738056;0.0355226099491;1;True;2;1;2.0458772256983044
160;160;1449482908;2.14266371727;0.718715786934;0.0366638153791;1;True;2;1;2.0458772256983044
161;161;1449482908;2.14228773117;0.718414843082;0.0355535075068;1;True;2;1;2.0458772256983044
162;162;1449482908;2.14225912094;0.7184931039810001;0.035513013601300006;1;True;2;1;2.0458772256983044
163;163;1449482908;2.1425340175599996;0.718595206738;0.0355324223638;1;True;2;1;2.0458772256983044
164;164;1449482908;2.14251327515;0.718630969524;0.035319685935999996;1;True;2;1;2.0458772256983044
165;165;1449482908;2.1419506073;0.718171656132;0.035588927566999995;1;True;2;1;2.0458772256983044
166;166;1449482908;2.142359972;0.717807233334;0.0363426841795;1;True;2;1;2.0458772256983044
167;167;1449482908;2.14235639572;0.718556761742;0.035581480711699996;1;True;2;1;2.0458772256983044
168;168;1449482908;2.1425647735599997;0.7188808321950001;0.035734344273800005;1;True;2;1;2.0458772256983044
169;169;1449482908;2.14248728752;0.7181690335269999;0.036130916327199995;1;True;2;1;2.0458772256983044
170;170;1449482908;2.14186000824;0.718704760075;0.0352032221854;1;True;2;1;2.0458772256983044
171;171;1449482908;2.1415615081799997;0.718205869198;0.03598574176430001;1;True;2;1;2.0458772256983044
172;172;1449482908;2.14233350754;0.7185220122339999;0.035076651722199995;1;True;2;1;2.0458772256983044
173;173;1449482908;2.14196133614;0.7189767956730001;0.035182166844599995;1;True;2;1;2.0458772256983044
174;174;1449482908;2.14245915413;0.718652844429;0.035529121756599995;1;True;2;1;2.0458772256983044
175;175;1449482908;2.1421701908099995;0.718499779701;0.0353654958308;1;True;2;1;2.0458772256983044
176;176;1449482908;2.14253783226;0.718478739262;0.0354938618839;1;True;2;1;2.0458772256983044
177;177;1449482908;2.1424057483700003;0.718522787094;0.0351518951356;1;True;2;1;2.0458772256983044
178;178;1449482908;2.1423478126499997;0.7185012102130001;0.035316310823;1;True;2;1;2.0458772256983044
179;179;1449482908;2.1422548294099997;0.7184735536579999;0.0355453938246;1;True;2;1;2.0458772256983044
180;180;1449482908;2.14232110977;0.7183880209919999;0.035447426140300005;1;True;2;1;2.0458772256983044
181;181;1449482908;2.14253783226;0.718482971191;0.0354706943035;1;True;2;1;2.0458772256983044
182;182;1449482908;2.14153981209;0.7182950973510001;0.0357380434871;1;True;2;1;2.0458772256983044
183;183;1449482908;2.1423330307;0.7186251878740001;0.0353842489421;1;True;2;1;2.0458772256983044
184;184;1449482908;2.14208316803;0.718504428864;0.0355161651969;1;True;2;1;2.0458772256983044
185;185;1449482908;2.1424407959000002;0.718636095524;0.0354586988688;1;True;2;1;2.0458772256983044
186;186;1449482908;2.1418879032099998;0.718041956425;0.0351570248604;1;True;2;1;2.0458772256983044
187;187;1449482908;2.1419298648800003;0.7181028723720001;0.0359755940735;1;True;2;1;2.0458772256983044
188;188;1449482908;2.14201641083;0.7188292145730001;0.035695519298300005;1;True;2;1;2.0458772256983044
189;189;1449482908;2.1422917842900002;0.718434274197;0.0354574099183;1;True;2;1;2.0458772256983044
190;190;1449482908;2.14221286774;0.718474328518;0.0354149192572;1;True;2;1;2.0458772256983044
191;191;1449482908;2.1416695118;0.718367815018;0.0355810262263;1;True;2;1;2.0458772256983044
192;192;1449482908;2.1416709423099998;0.7185230255130001;0.035611219704199996;1;True;2;1;2.0458772256983044
193;193;1449482908;2.14249539375;0.718617498875;0.035506419837500004;1;True;2;1;2.0458772256983044
194;194;1449482908;2.1417214870500003;0.7185049057009999;0.03549396991730001;1;True;2;1;2.0458772256983044
195;195;1449482908;2.1425101757;0.7180663347239999;0.035935100168;1;True;2;1;2.0458772256983044
196;196;1449482908;2.14197421074;0.718313395977;0.0355763621628;1;True;2;1;2.0458772256983044
197;197;1449482908;2.14194440842;0.7187394499779999;0.0357453115284;1;True;2;1;2.0458772256983044
198;198;1449482908;2.14199829102;0.718723118305;0.0350544676185;1;True;2;1;2.0458772256983044
199;199;1449482908;2.14235258102;0.718664586544;0.0355308130383;1;True;2;1;2.0458772256983044
200;200;1449482908;2.1421940326700004;0.71839761734;0.035469386726599994;1;True;2;1;2.0458772256983044
201;201;1449482908;2.14250969887;0.718481838703;0.0355159714818;1;True;2;1;2.0458772256983044
202;202;1449482908;2.14252400398;0.718492627144;0.0355231650174;1;True;2;1;2.0458772256983044
203;203;1449482908;2.14262294769;0.718424499035;0.0356895290315;1;True;2;1;2.0458772256983044
204;204;1449482908;2.14140319824;0.7186169028280001;0.0346386805177;1;True;2;1;2.0458772256983044
205;205;1449482908;2.1421236991900003;0.718575119972;0.035758905112699996;1;True;2;1;2.0458772256983044
206;206;1449482908;2.14172339439;0.71856713295;0.0358069427311;1;True;2;1;2.0458772256983044
207;207;1449482908;2.14176177979;0.7183839082719999;0.0353767573833;1;True;2;1;2.0458772256983044
208;208;1449482908;2.1425087451900002;0.718499362469;0.0354993566871;1;True;2;1;2.0458772256983044
209;209;1449482908;2.14258265495;0.718266904354;0.0359095819294;1;True;2;1;2.0458772256983044
210;210;1449482908;2.14255023003;0.7180613875390001;0.036265719682;1;True;2;1;2.0458772256983044
211;211;1449482908;2.14217662811;0.7183411121369999;0.0358347147703;1;True;2;1;2.0458772256983044
212;212;1449482908;2.1426544189500003;0.71884816885;0.0355002172291;1;True;2;1;2.0458772256983044
213;213;1449482908;2.14242553711;0.718132555485;0.0362932570279;1;True;2;1;2.0458772256983044
214;214;1449482908;2.14262247086;0.718352735043;0.0357578061521;1;True;2;1;2.0458772256983044
215;215;1449482908;2.14236164093;0.7187689542769999;0.035567920655;1;True;2;1;2.0458772256983044
216;216;1449482908;2.14178919792;0.718369483948;0.0358179062605;1;True;2;1;2.0458772256983044
217;217;1449482908;2.14151716232;0.718270301819;0.0360445529222;1;True;2;1;2.0458772256983044
218;218;1449482908;2.14168143272;0.718466103077;0.036013130098599994;1;True;2;1;2.0458772256983044
219;219;1449482908;2.14237380028;0.718955397606;0.0353727303445;1;True;2;1;2.0458772256983044
220;220;1449482909;2.14220786095;0.718456327915;0.0359680168331;2;True;2;1;2.0458772256983044
221;221;1449482909;2.1424539089200003;0.71800917387;0.0359538681805;2;True;2;1;2.0458772256983044
222;222;1449482909;2.14246416092;0.7179139852519999;0.0360175259411;2;True;2;1;2.0458772256983044
223;223;1449482909;2.14222931862;0.717481911182;0.0363178066909;2;True;2;1;2.0458772256983044
224;224;1449482909;2.1424157619499997;0.718329250813;0.0355359241366;2;True;2;1;2.0458772256983044
225;225;1449482909;2.1422452926599997;0.718825519085;0.035597190260900004;2;True;2;1;2.0458772256983044
226;226;1449482909;2.1417615413699997;0.7184906005859999;0.0349338501692;2;True;2;1;2.0458772256983044
227;227;1449482909;2.1425216198;0.717949569225;0.0358847267926;2;True;2;1;2.0458772256983044
228;228;1449482909;2.14195561409;0.7181320786480001;0.0352587066591;2;True;2;1;2.0458772256983044
229;229;1449482909;2.14231228828;0.718541681767;0.0349668748677;2;True;2;1;2.0458772256983044
230;230;1449482909;2.1424715519;0.7180044054989999;0.0359188877046;2;True;2;1;2.0458772256983044
231;231;1449482909;2.14240813255;0.717972159386;0.036073125898800004;2;True;2;1;2.0458772256983044
232;232;1449482909;2.14236569405;0.718452751637;0.0354944095016;2;True;2;1;2.0458772256983044
233;233;1449482909;2.14240860939;0.718529820442;0.0355585068464;2;True;2;1;2.0458772256983044
234;234;1449482909;2.14306664467;0.7186182737350001;0.035859700292300005;2;True;2;1;2.0458772256983044
235;235;1449482909;2.14241957664;0.71845382452;0.035207763314199995;2;True;2;1;2.0458772256983044
236;236;1449482909;2.14173388481;0.718811929226;0.03538853675130001;2;True;2;1;2.0458772256983044
237;237;1449482909;2.14245486259;0.71807539463;0.0360714606941;2;True;2;1;2.0458772256983044
238;238;1449482909;2.14211702347;0.718804419041;0.034950278699400004;2;True;2;1;2.0458772256983044
239;239;1449482909;2.14242076874;0.718309342861;0.0355263277888;2;True;2;1;2.0458772256983044
240;240;1449482909;2.14263248444;0.7183523178100001;0.0356817133725;2;True;2;1;2.0458772256983044
241;241;1449482909;2.14251589775;0.7185430526729999;0.03550661355259999;2;True;2;1;2.0458772256983044
242;242;1449482909;2.14217376709;0.718705177307;0.0354949720204;2;True;2;1;2.0458772256983044
243;243;1449482909;2.1417388915999998;0.7183775305750001;0.036166854202699994;2;True;2;1;2.0458772256983044
244;244;1449482909;2.1422576904299997;0.718443274498;0.035122048109800005;2;True;2;1;2.0458772256983044
245;245;1449482909;2.1426038742099998;0.718274950981;0.036126233637300005;2;True;2;1;2.0458772256983044
246;246;1449482909;2.1424908638;0.7186314463619999;0.0355526693165;2;True;2;1;2.0458772256983044
247;247;1449482909;2.1419904231999998;0.718479156494;0.0351929701865;2;True;2;1;2.0458772256983044
248;248;1449482909;2.14222335815;0.718420028687;0.0354065708816;2;True;2;1;2.0458772256983044
249;249;1449482909;2.14219284058;0.718420684338;0.035684525966599996;2;True;2;1;2.0458772256983044
250;250;1449482909;2.14221906662;0.7183666229250001;0.035471606999599996;2;True;2;1;2.0458772256983044
251;251;1449482909;2.1418838500999997;0.718402981758;0.0354143716395;2;True;2;1;2.0458772256983044
252;252;1449482909;2.14130592346;0.7185143232350001;0.035024382174;2;True;2;1;2.0458772256983044
253;253;1449482909;2.14221644402;0.7184030413629999;0.0353956855834;2;True;2;1;2.0458772256983044
254;254;1449482909;2.14225721359;0.7184946537019999;0.035514190793;2;True;2;1;2.0458772256983044
255;255;1449482909;2.14229774475;0.7185827493670001;0.0351866446435;2;True;2;1;2.0458772256983044
256;256;1449482909;2.14263343811;0.7183300852779999;0.036627259105400004;2;True;2;1;2.0458772256983044
257;257;1449482909;2.14163804054;0.718460023403;0.0353488214314;2;True;2;1;2.0458772256983044
258;258;1449482909;2.14236497879;0.718610107899;0.035510599613199995;2;True;2;1;2.0458772256983044
259;259;1449482909;2.14229226112;0.718561112881;0.035499196499600004;2;True;2;1;2.0458772256983044
260;260;1449482909;2.14252734184;0.717924535275;0.0362693443894;2;True;2;1;2.0458772256983044
261;261;1449482909;2.14205431938;0.7184288501739999;0.0356203317642;2;True;2;1;2.0458772256983044
262;262;1449482909;2.14307832718;0.718613088131;0.035852830857;2;True;2;1;2.0458772256983044
263;263;1449482909;2.14261007309;0.7188361883159999;0.0355619452894;2;True;2;1;2.0458772256983044
264;264;1449482909;2.14243865013;0.717939972878;0.036302216351;2;True;2;1;2.0458772256983044
265;265;1449482909;2.14181208611;0.7187279462809999;0.0350813157856;2;True;2;1;2.0458772256983044
266;266;1449482909;2.1421477794599997;0.7185370326039999;0.0358276851475;2;True;2;1;2.0458772256983044
267;267;1449482909;2.14256238937;0.7178661227230001;0.0358755253255;2;True;2;1;2.0458772256983044
268;268;1449482909;2.14171123505;0.718011498451;0.03572285920380001;2;True;2;1;2.0458772256983044
269;269;1449482909;2.14229512215;0.7185143232350001;0.0355092585087;2;True;2;1;2.0458772256983044
270;270;1449482909;2.14212322235;0.718334972858;0.0353350415826;2;True;2;1;2.0458772256983044
271;271;1449482909;2.1416199207299997;0.71838748455;0.0361239500344;2;True;2;1;2.0458772256983044
272;272;1449482909;2.1423244476299996;0.717989623547;0.0362121500075;2;True;2;1;2.0458772256983044
273;273;1449482909;2.14214968681;0.7185401320460001;0.0361750535667;2;True;2;1;2.0458772256983044
274;274;1449482909;2.14242458344;0.71841019392;0.0354951322079;2;True;2;1;2.0458772256983044
275;275;1449482909;2.14160299301;0.7187259197239999;0.0353287383914;2;True;2;1;2.0458772256983044
276;276;1449482909;2.14257001877;0.718204975128;0.036017976701300004;2;True;2;1;2.0458772256983044
277;277;1449482909;2.14160704613;0.7184163331990001;0.0350532084703;2;True;2;1;2.0458772256983044
278;278;1449482909;2.1430714130400004;0.718639194965;0.0358541794121;2;True;2;1;2.0458772256983044
279;279;1449482909;2.14198660851;0.718672215939;0.034963503480000005;2;True;2;1;2.0458772256983044
280;280;1449482909;2.14227366447;0.718495428562;0.035456128418400006;2;True;2;1;2.0458772256983044
281;281;1449482909;2.1416363716099998;0.718764424324;0.0354794226587;2;True;2;1;2.0458772256983044
282;282;1449482909;2.1423766613;0.718655526638;0.0355118848383;2;True;2;1;2.0458772256983044
283;283;1449482909;2.14175820351;0.718149781227;0.035715661943;2;True;2;1;2.0458772256983044
284;284;1449482909;2.1425580978400003;0.718626737595;0.0354734174907;2;True;2;1;2.0458772256983044
285;285;1449482909;2.14214038849;0.718415796757;0.0355672650039;2;True;2;1;2.0458772256983044
286;286;1449482909;2.14189720154;0.7182973623280001;0.0355934537947;2;True;2;1;2.0458772256983044
287;287;1449482909;2.14210486412;0.7184619903560001;0.0358319953084;2;True;2;1;2.0458772256983044
288;288;1449482909;2.14215278625;0.7179852128030001;0.0363275781274;2;True;2;1;2.0458772256983044
289;289;1449482909;2.14226031303;0.718552052975;0.0354971475899;2;True;2;1;2.0458772256983044
290;290;1449482909;2.14231014252;0.718128442764;0.036457836628;2;True;2;1;2.0458772256983044
291;291;1449482909;2.1420040130599998;0.718348383904;0.0351852625608;2;True;2;1;2.0458772256983044
292;292;1449482909;2.14186429977;0.718549311161;0.0357163287699;2;True;2;1;2.0458772256983044
293;293;1449482909;2.14251041412;0.7181162834170001;0.0359358265996;2;True;2;1;2.0458772256983044
294;294;1449482909;2.14219236374;0.718395888805;0.035436060279599994;2;True;2;1;2.0458772256983044
295;295;1449482909;2.14215278625;0.718504488468;0.0357742421329;2;True;2;1;2.0458772256983044
296;296;1449482909;2.14267158508;0.7187440991399999;0.0354825407267;2;True;2;1;2.0458772256983044
297;297;1449482909;2.14250278473;0.7185143232350001;0.0354854427278;2;True;2;1;2.0458772256983044
298;298;1449482909;2.14201426506;0.718372285366;0.0359328314662;2;True;2;1;2.0458772256983044
299;299;1449482909;2.14149308205;0.71814084053;0.035278718918599995;2;True;2;1;2.0458772256983044
300;300;1449482909;2.1415529251099996;0.718419194221;0.0353743247688;2;True;2;1;2.0458772256983044
301;301;1449482909;2.14205980301;0.718028008938;0.0353735648096;2;True;2;1;2.0458772256983044
302;302;1449482909;2.1423871517200004;0.7185747623440001;0.0352099612355;2;True;2;1;2.0458772256983044
303;303;1449482909;2.1422886848400005;0.718543469906;0.0354559458792;2;True;2;1;2.0458772256983044
304;304;1449482909;2.14209651947;0.7184599041940001;0.0360084958375;2;True;2;1;2.0458772256983044
305;305;1449482909;2.1420640945400002;0.718537688255;0.035498108714800004;2;True;2;1;2.0458772256983044
306;306;1449482909;2.14250707626;0.7185357213019999;0.035479329526400004;2;True;2;1;2.0458772256983044
307;307;1449482909;2.14234638214;0.7188258171080001;0.0356102958322;2;True;2;1;2.0458772256983044
308;308;1449482909;2.141258955;0.7185563445090001;0.035385068506;2;True;2;1;2.0458772256983044
309;309;1449482909;2.1423170566599996;0.718710184097;0.035542510449900006;2;True;2;1;2.0458772256983044
310;310;1449482909;2.1410474777200004;0.718259572983;0.0357887968421;2;True;2;1;2.0458772256983044
311;311;1449482909;2.14248657227;0.718485832214;0.0354872457683;2;True;2;1;2.0458772256983044
312;312;1449482909;2.1425962448099996;0.718766391277;0.035535916686100004;2;True;2;1;2.0458772256983044
313;313;1449482909;2.14196825027;0.718394339085;0.035286784172099996;2;True;2;1;2.0458772256983044
314;314;1449482909;2.14202880859;0.718623220921;0.0358166955411;2;True;2;1;2.0458772256983044
315;315;1449482909;2.1423938274400003;0.717902839184;0.0362389199436;2;True;2;1;2.0458772256983044
316;316;1449482909;2.1419095993;0.718740284443;0.0349663831294;2;True;2;1;2.0458772256983044
317;317;1449482909;2.14228820801;0.7185380458830001;0.0353293828666;2;True;2;1;2.0458772256983044
318;318;1449482909;2.1430292129499997;0.718615114689;0.0358172059059;2;True;2;1;2.0458772256983044
319;319;1449482909;2.14193415642;0.718339323997;0.0354213640094;2;True;2;1;2.0458772256983044
320;320;1449482909;2.14229202271;0.718443393707;0.03551628440619999;2;True;2;1;2.0458772256983044
321;321;1449482909;2.14201712608;0.718369305134;0.035290531814099996;2;True;2;1;2.0458772256983044
322;322;1449482909;2.14233517647;0.7185479402539999;0.035488281398999996;2;True;2;1;2.0458772256983044
323;323;1449482909;2.14172530174;0.719028830528;0.0352498479187;2;True;2;1;2.0458772256983044
324;324;1449482909;2.1417095661200003;0.7184503674510001;0.0352706536651;2;True;2;1;2.0458772256983044
325;325;1449482909;2.14232873917;0.7184176445010001;0.0350609570742;2;True;2;1;2.0458772256983044
326;326;1449482909;2.1422622203799997;0.718520760536;0.0353222638369;2;True;2;1;2.0458772256983044
327;327;1449482909;2.1417620182;0.717968583107;0.035076703876300006;2;True;2;1;2.0458772256983044
328;328;1449482909;2.14203500748;0.718301177025;0.035229135304699996;2;True;2;1;2.0458772256983044
329;329;1449482909;2.14196419716;0.718571782112;0.035547748207999996;2;True;2;1;2.0458772256983044
330;330;1449482909;2.1423835754400002;0.718367397785;0.03553477674719999;2;True;2;1;2.0458772256983044
331;331;1449482909;2.14233326912;0.718309342861;0.035043876618099996;2;True;2;1;2.0458772256983044
332;332;1449482909;2.1419818401299997;0.7185729146;0.0354508683085;2;True;2;1;2.0458772256983044
333;333;1449482909;2.14227080345;0.7185754776000001;0.035541459918;2;True;2;1;2.0458772256983044
334;334;1449482909;2.14186549187;0.7186959385870001;0.0357283093035;2;True;2;1;2.0458772256983044
335;335;1449482909;2.14125728607;0.71776664257;0.0357472002506;2;True;2;1;2.0458772256983044
336;336;1449482909;2.14233493805;0.7185009121889999;0.035356748849199995;2;True;2;1;2.0458772256983044
337;337;1449482909;2.14222741127;0.718465805054;0.035502851009400004;2;True;2;1;2.0458772256983044
338;338;1449482909;2.1418442726099998;0.7179017662999999;0.035556260496400004;2;True;2;1;2.0458772256983044
339;339;1449482909;2.14191699028;0.717712521553;0.0362911224365;2;True;2;1;2.0458772256983044
340;340;1449482909;2.14190506935;0.718282282352;0.0364192910492;2;True;2;1;2.0458772256983044
341;341;1449482909;2.14251875877;0.718534946442;0.0355248562992;2;True;2;1;2.0458772256983044
342;342;1449482909;2.14189791679;0.7183123230930001;0.035304199904199994;2;True;2;1;2.0458772256983044
343;343;1449482909;2.14201998711;0.718222379684;0.035257488489199997;2;True;2;1;2.0458772256983044
344;344;1449482909;2.14192390442;0.7181239724160001;0.0351289659739;2;True;2;1;2.0458772256983044
345;345;1449482909;2.14249873161;0.7186388969419999;0.0366678647697;2;True;2;1;2.0458772256983044
346;346;1449482909;2.14264678955;0.718110978603;0.0357365757227;2;True;2;1;2.0458772256983044
347;347;1449482909;2.14251971245;0.718472719193;0.0355352237821;2;True;2;1;2.0458772256983044
348;348;1449482909;2.1422290802;0.718452513218;0.035300921648699995;2;True;2;1;2.0458772256983044
349;349;1449482909;2.1420397758500003;0.718063831329;0.0358474031091;2;True;2;1;2.0458772256983044
350;350;1449482909;2.1421122551;0.7183111906049999;0.0354803726077;2;True;2;1;2.0458772256983044
351;351;1449482909;2.1420559883099997;0.718574881554;0.0349574387074;2;True;2;1;2.0458772256983044
352;352;1449482909;2.14268422127;0.718758583069;0.0355417877436;2;True;2;1;2.0458772256983044
353;353;1449482909;2.14194297791;0.717530786991;0.0363637916744;2;True;2;1;2.0458772256983044
354;354;1449482909;2.14250826836;0.718586683273;0.0353710763156;2;True;2;1;2.0458772256983044
355;355;1449482909;2.14138865471;0.718780219555;0.035121381282800006;2;True;2;1;2.0458772256983044
356;356;1449482909;2.14224600792;0.7184917926790001;0.035206057131300005;2;True;2;1;2.0458772256983044
357;357;1449482909;2.14246821404;0.7180275321009999;0.0360755883157;2;True;2;1;2.0458772256983044
358;358;1449482909;2.1419360637700002;0.7181360125540001;0.0358815938234;2;True;2;1;2.0458772256983044
359;359;1449482909;2.14266562462;0.718844354153;0.036314439028500005;2;True;2;1;2.0458772256983044
360;360;1449482909;2.14251732826;0.718673169613;0.0355614386499;2;True;2;1;2.0458772256983044
361;361;1449482909;2.1425015926400004;0.7186184525489999;0.035594049841199994;2;True;2;1;2.0458772256983044
362;362;1449482909;2.14258623123;0.718554079533;0.035389743745300004;2;True;2;1;2.0458772256983044
363;363;1449482909;2.1414296627000002;0.71851426363;0.035503510385800005;2;True;2;1;2.0458772256983044
364;364;1449482909;2.14262628555;0.718787431717;0.03552998974919999;2;True;2;1;2.0458772256983044
365;365;1449482909;2.1423304081;0.718713521957;0.035109963268;2;True;2;1;2.0458772256983044
366;366;1449482909;2.14179730415;0.7179939150810001;0.036223512142900004;2;True;2;1;2.0458772256983044
367;367;1449482909;2.14312887192;0.718648016453;0.035910505801400004;2;True;2;1;2.0458772256983044
368;368;1449482909;2.14220142365;0.718488335609;0.035382311791199994;2;True;2;1;2.0458772256983044
369;369;1449482909;2.14202356339;0.718242049217;0.0352350212634;2;True;2;1;2.0458772256983044
370;370;1449482909;2.1420714855200003;0.718278408051;0.035325191915000005;2;True;2;1;2.0458772256983044
371;371;1449482909;2.1424510479;0.718035876751;0.0363365672529;2;True;2;1;2.0458772256983044
372;372;1449482909;2.14228916168;0.7184810042380001;0.0356123521924;2;True;2;1;2.0458772256983044
373;373;1449482909;2.14237570763;0.718597590923;0.035606391727900005;2;True;2;1;2.0458772256983044
374;374;1449482909;2.14151597023;0.7184782028200001;0.035567611455900004;2;True;2;1;2.0458772256983044
375;375;1449482909;2.1425919532799997;0.718814074993;0.0355812385678;2;True;2;1;2.0458772256983044
376;376;1449482909;2.14153003693;0.7183905839920001;0.0354801043868;2;True;2;1;2.0458772256983044
377;377;1449482909;2.1430919170400005;0.7186416983600001;0.0358838476241;2;True;2;1;2.0458772256983044
378;378;1449482909;2.14163899422;0.7186368703839999;0.0353828370571;2;True;2;1;2.0458772256983044
379;379;1449482909;2.1420674324;0.718358278275;0.035641867667400004;2;True;2;1;2.0458772256983044
380;380;1449482909;2.14258360863;0.718668878078;0.0355233289301;2;True;2;1;2.0458772256983044
381;381;1449482909;2.14218378067;0.7184020876880001;0.035513106733599996;2;True;2;1;2.0458772256983044
382;382;1449482909;2.14205145836;0.718555629253;0.035163614898900006;2;True;2;1;2.0458772256983044
383;383;1449482909;2.14169049263;0.7182254195209999;0.0359922274947;2;True;2;1;2.0458772256983044
384;384;1449482909;2.14307260513;0.7186558246610001;0.0358442589641;2;True;2;1;2.0458772256983044
385;385;1449482909;2.1423473358200003;0.718453466892;0.0354834608734;2;True;2;1;2.0458772256983044
386;386;1449482909;2.14239573479;0.7185844779009999;0.0354941785336;2;True;2;1;2.0458772256983044
387;387;1449482909;2.1424973011;0.718511462212;0.03548678755759999;2;True;2;1;2.0458772256983044
388;388;1449482909;2.14306044579;0.718647539616;0.0358446501195;2;True;2;1;2.0458772256983044
389;389;1449482909;2.14228034019;0.7186155915260001;0.0355271883309;2;True;2;1;2.0458772256983044
390;390;1449482909;2.14222478867;0.717704176903;0.0363085493445;2;True;2;1;2.0458772256983044
391;391;1449482909;2.1420207023599995;0.7183035612109999;0.0360061526299;2;True;2;1;2.0458772256983044
392;392;1449482909;2.1419789791099997;0.718225359917;0.034815363585900004;2;True;2;1;2.0458772256983044
393;393;1449482909;2.14227628708;0.718620955944;0.0355411842465;2;True;2;1;2.0458772256983044
394;394;1449482909;2.14198517799;0.71824246645;0.035177450627099996;2;True;2;1;2.0458772256983044
395;395;1449482909;2.14307665825;0.718655347824;0.035837136208999996;2;True;2;1;2.0458772256983044
396;396;1449482909;2.14204931259;0.718684196472;0.0355054885149;2;True;2;1;2.0458772256983044
397;397;1449482909;2.1422345638299998;0.7189740538600001;0.0357256792486;2;True;2;1;2.0458772256983044
398;398;1449482909;2.14205026627;0.718470036983;0.035309009254000004;2;True;2;1;2.0458772256983044
399;399;1449482909;2.1415483951599996;0.718651354313;0.0354691855609;2;True;2;1;2.0458772256983044
400;400;1449482909;2.14192175865;0.718293249607;0.0356171578169;2;True;2;1;2.0458772256983044
401;401;1449482909;2.1420364379900003;0.7182840704919999;0.0352523550391;2;True;2;1;2.0458772256983044
402;402;1449482909;2.14240241051;0.718452215195;0.0354494638741;2;True;2;1;2.0458772256983044
403;403;1449482909;2.14192938805;0.71857047081;0.0359411276877;2;True;2;1;2.0458772256983044
404;404;1449482909;2.1424930095700003;0.718441307545;0.0354852862656;2;True;2;1;2.0458772256983044
405;405;1449482909;2.1424446106;0.7186219692229999;0.0355054438114;2;True;2;1;2.0458772256983044
406;406;1449482909;2.1421775817900004;0.7183668017389999;0.0351622849703;2;True;2;1;2.0458772256983044
407;407;1449482909;2.1430237293200003;0.718626916409;0.035799019038699996;2;True;2;1;2.0458772256983044
408;408;1449482909;2.14232993126;0.7183687686920001;0.0351030267775;2;True;2;1;2.0458772256983044
409;409;1449482909;2.1425645351400004;0.718337059021;0.0355832390487;2;True;2;1;2.0458772256983044
410;410;1449482909;2.14265060425;0.7187542915340001;0.0354623496532;2;True;2;1;2.0458772256983044
411;411;1449482909;2.14200139046;0.718026995659;0.0355374887586;2;True;2;1;2.0458772256983044
412;412;1449482909;2.1425988674200003;0.7188498973849999;0.0354454480112;2;True;2;1;2.0458772256983044
413;413;1449482909;2.1422097683000003;0.718388259411;0.0354112572968;2;True;2;1;2.0458772256983044
414;414;1449482909;2.14227604866;0.7185171246529999;0.0354655832052;2;True;2;1;2.0458772256983044
415;415;1449482909;2.1423799991599997;0.718102037907;0.0362042784691;2;True;2;1;2.0458772256983044
416;416;1449482909;2.14172410965;0.718236804008;0.0357648283243;2;True;2;1;2.0458772256983044
417;417;1449482909;2.14251756668;0.718300223351;0.03584501147269999;2;True;2;1;2.0458772256983044
418;418;1449482909;2.14163947105;0.718344628811;0.0358928516507;2;True;2;1;2.0458772256983044
419;419;1449482909;2.1418006420099998;0.7184022068979999;0.0359740033746;2;True;2;1;2.0458772256983044
420;420;1449482909;2.1421954631799998;0.718507766724;0.0362235233188;2;True;2;1;2.0458772256983044
421;421;1449482909;2.14218139648;0.718705892563;0.035625923425;2;True;2;1;2.0458772256983044
422;422;1449482909;2.14122819901;0.717458546162;0.0358675643802;2;True;2;1;2.0458772256983044
423;423;1449482909;2.14152693748;0.718424499035;0.035145502537500005;2;True;2;1;2.0458772256983044
424;424;1449482909;2.14253115654;0.718232870102;0.0357180349529;2;True;2;1;2.0458772256983044
425;425;1449482909;2.1419496536300002;0.7183389067649999;0.036052364855999997;2;True;2;1;2.0458772256983044
426;426;1449482909;2.14128780365;0.717871308327;0.035135246813300006;2;True;2;1;2.0458772256983044
427;427;1449482909;2.14217233658;0.7183728218080001;0.0354163311422;2;True;2;1;2.0458772256983044
428;428;1449482909;2.14242911339;0.718500077724;0.0354858450592;2;True;2;1;2.0458772256983044
429;429;1449482909;2.14258980751;0.7183857560160001;0.03563432022930001;2;True;2;1;2.0458772256983044
430;430;1449482909;2.14242911339;0.718187987804;0.0361736826599;2;True;2;1;2.0458772256983044
431;431;1449482909;2.1425566673299996;0.7184027433399999;0.035579495132;2;True;2;1;2.0458772256983044
432;432;1449482909;2.1426112651800002;0.718754053116;0.0354702994227;2;True;2;1;2.0458772256983044
433;433;1449482909;2.14142465591;0.718778908253;0.0351855680346;2;True;2;1;2.0458772256983044
434;434;1449482909;2.1421153545400005;0.7184625864030001;0.035946521908;2;True;2;1;2.0458772256983044
435;435;1449482909;2.14169740677;0.7184737920759999;0.035463701933599996;2;True;2;1;2.0458772256983044
436;436;1449482909;2.1426157951400002;0.7185407280920001;0.03537968173619999;2;True;2;1;2.0458772256983044
437;437;1449482909;2.1422793865200003;0.718491613865;0.0354811549187;2;True;2;1;2.0458772256983044
438;438;1449482909;2.1414399147;0.718818545341;0.035096231848;2;True;2;1;2.0458772256983044
439;439;1449482909;2.14252781868;0.718473017216;0.035479027777900005;2;True;2;1;2.0458772256983044
440;440;1449482909;2.14183330536;0.718279898167;0.0361803881824;2;True;2;1;2.0458772256983044
441;441;1449482909;2.14209151268;0.718294143677;0.035358276218199994;2;True;2;1;2.0458772256983044
442;442;1449482909;2.14209127426;0.71849745512;0.035047031938999995;2;True;2;1;2.0458772256983044
443;443;1449482909;2.1423435211200004;0.718504965305;0.0354920253158;2;True;2;1;2.0458772256983044
444;444;1449482909;2.14188814163;0.7182648777959999;0.0353160537779;2;True;2;1;2.0458772256983044
445;445;1449482909;2.14169025421;0.718321502209;0.0353211574256;2;True;2;1;2.0458772256983044
446;446;1449482909;2.14239811897;0.7186314463619999;0.035550143569699995;2;True;2;1;2.0458772256983044
447;447;1449482909;2.14251923561;0.718955218792;0.0355923101306;2;True;2;1;2.0458772256983044
448;448;1449482909;2.14246606827;0.7185158133509999;0.035255998372999996;2;True;2;1;2.0458772256983044
449;449;1449482909;2.14226198196;0.718427419662;0.0354125052691;2;True;2;1;2.0458772256983044
450;450;1449482909;2.14151835442;0.718950152397;0.0348418094218;2;True;2;1;2.0458772256983044
451;451;1449482909;2.14258980751;0.718093752861;0.035933081060599996;2;True;2;1;2.0458772256983044
452;452;1449482909;2.1416647434200002;0.717744410038;0.0345912277699;2;True;2;1;2.0458772256983044
453;453;1449482909;2.14186573029;0.7181416153910001;0.0353578068316;2;True;2;1;2.0458772256983044
454;454;1449482909;2.14252710342;0.718108355999;0.036062862724099996;2;True;2;1;2.0458772256983044
455;455;1449482909;2.14199590683;0.7186137437819999;0.035354729741800005;2;True;2;1;2.0458772256983044
456;456;1449482909;2.14222240448;0.718653976917;0.0356282144785;2;True;2;1;2.0458772256983044
457;457;1449482910;2.14259839058;0.7179031372069999;0.035783845931300004;3;True;2;1;2.0458772256983044
458;458;1449482910;2.14254212379;0.718121826649;0.0360543988645;3;True;2;1;2.0458772256983044
459;459;1449482910;2.14267373085;0.7182880640029999;0.035817891359300004;3;True;2;1;2.0458772256983044
460;460;1449482910;2.1416223049200003;0.718893289566;0.0355284251273;3;True;2;1;2.0458772256983044
461;461;1449482910;2.14203691483;0.718545258045;0.0363133363426;3;True;2;1;2.0458772256983044
462;462;1449482910;2.1426243782;0.718074023724;0.0358936302364;3;True;2;1;2.0458772256983044
463;463;1449482910;2.1419813633;0.7189913988109999;0.035181064158699996;3;True;2;1;2.0458772256983044
464;464;1449482910;2.14202642441;0.7190210819239999;0.036073282361;3;True;2;1;2.0458772256983044
465;465;1449482910;2.14266824722;0.7184470891949999;0.0354212746024;3;True;2;1;2.0458772256983044
466;466;1449482910;2.14162898064;0.7178880572319999;0.035706140101;3;True;2;1;2.0458772256983044
467;467;1449482910;2.14160776138;0.719006955624;0.0355383940041;3;True;2;1;2.0458772256983044
468;468;1449482910;2.14187455177;0.718440294266;0.035634342581000004;3;True;2;1;2.0458772256983044
469;469;1449482910;2.1419162750200003;0.7182701826100001;0.035657919943300004;3;True;2;1;2.0458772256983044
470;470;1449482910;2.14253115654;0.7185028195379999;0.035505153238800005;3;True;2;1;2.0458772256983044
471;471;1449482910;2.14248681068;0.718629539013;0.035582862794400004;3;True;2;1;2.0458772256983044
472;472;1449482910;2.14239549637;0.7185170650480001;0.0359674580395;3;True;2;1;2.0458772256983044
473;473;1449482910;2.14224553108;0.718784630299;0.0356354676187;3;True;2;1;2.0458772256983044
474;474;1449482910;2.1425015926400004;0.718470036983;0.0355692617595;3;True;2;1;2.0458772256983044
475;475;1449482910;2.1424665451;0.7185530662540001;0.0354186296463;3;True;2;1;2.0458772256983044
476;476;1449482910;2.14272713661;0.718789041042;0.0355368554592;3;True;2;1;2.0458772256983044
477;477;1449482910;2.14161014557;0.7188116908069999;0.0352704897523;3;True;2;1;2.0458772256983044
478;478;1449482910;2.1424615383099996;0.7186293601989999;0.035572230815900004;3;True;2;1;2.0458772256983044
479;479;1449482910;2.1423053741499998;0.718569397926;0.0355350896716;3;True;2;1;2.0458772256983044
480;480;1449482910;2.14186906815;0.71839761734;0.03581409156319999;3;True;2;1;2.0458772256983044
481;481;1449482910;2.14247488976;0.718649923801;0.0355557464063;3;True;2;1;2.0458772256983044
482;482;1449482910;2.14216852188;0.71851927042;0.0352850519121;3;True;2;1;2.0458772256983044
483;483;1449482910;2.14210891724;0.718339323997;0.0361405387521;3;True;2;1;2.0458772256983044
484;484;1449482910;2.14187908173;0.7184354662899999;0.0357001461089;3;True;2;1;2.0458772256983044
485;485;1449482910;2.1416585445400003;0.7181628346439999;0.0359944850206;3;True;2;1;2.0458772256983044
486;486;1449482910;2.14241957664;0.7186464071269999;0.0355357639492;3;True;2;1;2.0458772256983044
487;487;1449482910;2.14149403572;0.7183021903039999;0.0363049693406;3;True;2;1;2.0458772256983044
488;488;1449482910;2.14223599434;0.718357503414;0.036242369562400005;3;True;2;1;2.0458772256983044
489;489;1449482910;2.14220190048;0.7187170982359999;0.0356152877212;3;True;2;1;2.0458772256983044
490;490;1449482910;2.14111447334;0.7182062864300001;0.0352334603667;3;True;2;1;2.0458772256983044
491;491;1449482910;2.14230942726;0.7186571955679999;0.035773023963;3;True;2;1;2.0458772256983044
492;492;1449482910;2.14169502258;0.718511462212;0.035673167556500004;3;True;2;1;2.0458772256983044
493;493;1449482910;2.1425545215599997;0.717995166779;0.0359477847815;3;True;2;1;2.0458772256983044
494;494;1449482910;2.14226531982;0.718400597572;0.0355381891131;3;True;2;1;2.0458772256983044
495;495;1449482910;2.14210128784;0.718350231647;0.0353379286826;3;True;2;1;2.0458772256983044
496;496;1449482910;2.14246487617;0.7184709906579999;0.0354688838124;3;True;2;1;2.0458772256983044
497;497;1449482910;2.14226031303;0.718511939049;0.0354874618351;3;True;2;1;2.0458772256983044
498;498;1449482910;2.14163041115;0.718493878841;0.0358359143138;3;True;2;1;2.0458772256983044
499;499;1449482910;2.1417288780200003;0.718023180962;0.0355816073716;3;True;2;1;2.0458772256983044
500;500;1449482910;2.14224338531;0.71848154068;0.0354329645634;3;True;2;1;2.0458772256983044
501;501;1449482910;2.1422965526599995;0.7178848385809999;0.036629829555699996;3;True;2;1;2.0458772256983044
502;502;1449482910;2.1423184871700003;0.718509197235;0.0354495160282;3;True;2;1;2.0458772256983044
503;503;1449482910;2.14144468307;0.7178180217739999;0.0356718078256;3;True;2;1;2.0458772256983044
504;504;1449482910;2.14149022102;0.7186210751530001;0.0350817814469;3;True;2;1;2.0458772256983044
505;505;1449482910;2.14164972305;0.7184883952140001;0.035140648484199996;3;True;2;1;2.0458772256983044
506;506;1449482910;2.1424820423099997;0.718918025494;0.0355203151703;3;True;2;1;2.0458772256983044
507;507;1449482910;2.1420717239400004;0.718819916248;0.0359119586647;3;True;2;1;2.0458772256983044
508;508;1449482910;2.14262628555;0.7187414765360001;0.0354360081255;3;True;2;1;2.0458772256983044
509;509;1449482910;2.14133048058;0.718835413456;0.0353872664273;3;True;2;1;2.0458772256983044
510;510;1449482910;2.1422791481;0.718566596508;0.035484418273;3;True;2;1;2.0458772256983044
511;511;1449482910;2.14254832268;0.7183985710140001;0.0354403629899;3;True;2;1;2.0458772256983044
512;512;1449482910;2.14136743546;0.7177107334139999;0.035417653620199996;3;True;2;1;2.0458772256983044
513;513;1449482910;2.14225888252;0.718429625034;0.0353256948292;3;True;2;1;2.0458772256983044
514;514;1449482910;2.14173126221;0.718201816082;0.035367522388699994;3;True;2;1;2.0458772256983044
515;515;1449482910;2.14237880707;0.718429148197;0.0354889295995;3;True;2;1;2.0458772256983044
516;516;1449482910;2.14251351357;0.718803584576;0.0354656204581;3;True;2;1;2.0458772256983044
517;517;1449482910;2.14242172241;0.718463361263;0.03542328625919999;3;True;2;1;2.0458772256983044
518;518;1449482910;2.1421649456;0.718608319759;0.0349754840136;3;True;2;1;2.0458772256983044
519;519;1449482910;2.14243578911;0.7183083891869999;0.0354517064989;3;True;2;1;2.0458772256983044
520;520;1449482910;2.1420848369599996;0.718647360802;0.035285189747800004;3;True;2;1;2.0458772256983044
521;521;1449482910;2.14197993279;0.718341171741;0.03524772450330001;3;True;2;1;2.0458772256983044
522;522;1449482910;2.14198470116;0.7184471487999999;0.03537716344;3;True;2;1;2.0458772256983044
523;523;1449482910;2.1418824195900004;0.718627333641;0.0351248681545;3;True;2;1;2.0458772256983044
524;524;1449482910;2.14222788811;0.718208312988;0.0353128574789;3;True;2;1;2.0458772256983044
525;525;1449482910;2.142121315;0.71836745739;0.0353096835315;3;True;2;1;2.0458772256983044
526;526;1449482910;2.14129948616;0.7186521887780001;0.035260297358;3;True;2;1;2.0458772256983044
527;527;1449482910;2.1423082351700002;0.718414604664;0.0355099365115;3;True;2;1;2.0458772256983044
528;528;1449482910;2.14243078232;0.718662142754;0.0355035327375;3;True;2;1;2.0458772256983044
529;529;1449482910;2.14212799072;0.718354940414;0.035264730453499996;3;True;2;1;2.0458772256983044
530;530;1449482910;2.1430628299700003;0.7186332941060001;0.035818118602;3;True;2;1;2.0458772256983044
531;531;1449482910;2.1412293911;0.718610286713;0.035802014172099994;3;True;2;1;2.0458772256983044
532;532;1449482910;2.14146375656;0.718467235565;0.035671018064;3;True;2;1;2.0458772256983044
533;533;1449482910;2.1423435211200004;0.7186154723170001;0.0355070717633;3;True;2;1;2.0458772256983044
534;534;1449482910;2.14173007011;0.71864002943;0.0354881584644;3;True;2;1;2.0458772256983044
535;535;1449482910;2.14263391495;0.7185741662980001;0.0362760946155;3;True;2;1;2.0458772256983044
536;536;1449482910;2.1417400836900002;0.718535542488;0.035628829151400004;3;True;2;1;2.0458772256983044
537;537;1449482910;2.1422393322;0.718763709068;0.0355583429337;3;True;2;1;2.0458772256983044
538;538;1449482910;2.14258718491;0.7185136079790001;0.0355022251606;3;True;2;1;2.0458772256983044
539;539;1449482910;2.14248418808;0.718251287937;0.0362856090069;3;True;2;1;2.0458772256983044
540;540;1449482910;2.1419513225599998;0.718170762062;0.0358175821602;3;True;2;1;2.0458772256983044
541;541;1449482910;2.14241552353;0.718650758266;0.0355376899242;3;True;2;1;2.0458772256983044
542;542;1449482910;2.1424419879900003;0.7186524868009999;0.0354742147028;3;True;2;1;2.0458772256983044
543;543;1449482910;2.14237427711;0.718498170376;0.0353169292212;3;True;2;1;2.0458772256983044
544;544;1449482910;2.1423580646500002;0.7190666198729999;0.0348176173866;3;True;2;1;2.0458772256983044
545;545;1449482910;2.1423711776700003;0.718000054359;0.0366295948625;3;True;2;1;2.0458772256983044
546;546;1449482910;2.14167642593;0.7179371714589999;0.0356007702649;3;True;2;1;2.0458772256983044
547;547;1449482910;2.14118647575;0.718597829342;0.0352900139987;3;True;2;1;2.0458772256983044
548;548;1449482910;2.1425549984;0.718533039093;0.0353325940669;3;True;2;1;2.0458772256983044
549;549;1449482910;2.14243626595;0.7177521586419999;0.0362542048097;3;True;2;1;2.0458772256983044
550;550;1449482910;2.14244008064;0.718607902527;0.0354824624956;3;True;2;1;2.0458772256983044
551;551;1449482910;2.1424062252000002;0.718534946442;0.035571612417699995;3;True;2;1;2.0458772256983044
552;552;1449482910;2.1418159008;0.719088613987;0.035851851105699994;3;True;2;1;2.0458772256983044
553;553;1449482910;2.1422696113599997;0.718046009541;0.0365665405989;3;True;2;1;2.0458772256983044
554;554;1449482910;2.1421854496;0.718360364437;0.0360475890338;3;True;2;1;2.0458772256983044
555;555;1449482910;2.1424889564500003;0.7183822393420001;0.0352488681674;3;True;2;1;2.0458772256983044
556;556;1449482910;2.1423325538599998;0.7185299396510001;0.0354193523526;3;True;2;1;2.0458772256983044
557;557;1449482910;2.14187955856;0.7184064388279999;0.035652957856699995;3;True;2;1;2.0458772256983044
558;558;1449482910;2.1414330005599997;0.717654407024;0.035808548331300004;3;True;2;1;2.0458772256983044
559;559;1449482910;2.14210486412;0.7182054519650001;0.0361473150551;3;True;2;1;2.0458772256983044
560;560;1449482910;2.14161229134;0.7187082171439999;0.0348843894899;3;True;2;1;2.0458772256983044
561;561;1449482910;2.1424818038900004;0.718517959118;0.0355187132955;3;True;2;1;2.0458772256983044
562;562;1449482910;2.1427025795;0.7187298536300001;0.036586634814699995;3;True;2;1;2.0458772256983044
563;563;1449482910;2.14247107506;0.71865016222;0.0355794914067;3;True;2;1;2.0458772256983044
564;564;1449482910;2.1425454616499997;0.7184364795679999;0.035569000989199996;3;True;2;1;2.0458772256983044
565;565;1449482910;2.1425449848199998;0.7185308337209999;0.0355241931975;3;True;2;1;2.0458772256983044
566;566;1449482910;2.1418170928999998;0.7189772725110001;0.0350502990186;3;True;2;1;2.0458772256983044
567;567;1449482910;2.14260935783;0.718789041042;0.0355983488262;3;True;2;1;2.0458772256983044
568;568;1449482910;2.14235067368;0.7182465195659999;0.034931365400600004;3;True;2;1;2.0458772256983044
569;569;1449482910;2.14217710495;0.718374073505;0.0354173667729;3;True;2;1;2.0458772256983044
570;570;1449482910;2.14240384102;0.719102084637;0.035917729139300004;3;True;2;1;2.0458772256983044
571;571;1449482910;2.14204931259;0.7186543941500001;0.035523638129199994;3;True;2;1;2.0458772256983044
572;572;1449482910;2.14247822762;0.71865516901;0.0355794839561;3;True;2;1;2.0458772256983044
573;573;1449482910;2.1420373916599997;0.718789458275;0.035454321652699995;3;True;2;1;2.0458772256983044
574;574;1449482910;2.14163708687;0.718572437763;0.0353847295046;3;True;2;1;2.0458772256983044
575;575;1449482910;2.14239907265;0.718858897686;0.0350624583662;3;True;2;1;2.0458772256983044
576;576;1449482910;2.1423568725599997;0.7187041044239999;0.0353028215468;3;True;2;1;2.0458772256983044
577;577;1449482910;2.1424856185900003;0.7186220884319999;0.036084998399;3;True;2;1;2.0458772256983044
578;578;1449482910;2.14207386971;0.718519091606;0.035871848464;3;True;2;1;2.0458772256983044
579;579;1449482910;2.14222335815;0.718418002129;0.0353962592781;3;True;2;1;2.0458772256983044
580;580;1449482910;2.14216780663;0.718488931656;0.0353331752121;3;True;2;1;2.0458772256983044
581;581;1449482910;2.1415009498599997;0.717806220055;0.035927362739999996;3;True;2;1;2.0458772256983044
582;582;1449482910;2.14178276062;0.7187297344210001;0.0351623147726;3;True;2;1;2.0458772256983044
583;583;1449482910;2.14206576347;0.7188659310340001;0.035254977643499996;3;True;2;1;2.0458772256983044
584;584;1449482910;2.1420094966900005;0.718091666698;0.0354607254267;3;True;2;1;2.0458772256983044
585;585;1449482910;2.14202904701;0.718332290649;0.0355995595455;3;True;2;1;2.0458772256983044
586;586;1449482910;2.1426270008099997;0.7178967595100001;0.0358445495367;3;True;2;1;2.0458772256983044
587;587;1449482910;2.14233469963;0.718607127666;0.0356271415949;3;True;2;1;2.0458772256983044
588;588;1449482910;2.14196133614;0.7186498641969999;0.0354205369949;3;True;2;1;2.0458772256983044
589;589;1449482910;2.14214205742;0.718591272831;0.0358452945948;3;True;2;1;2.0458772256983044
590;590;1449482910;2.14246869087;0.718528747559;0.035882435739000004;3;True;2;1;2.0458772256983044
591;591;1449482910;2.14256048203;0.718607246876;0.0355079844594;3;True;2;1;2.0458772256983044
592;592;1449482910;2.14237976074;0.7186328768729999;0.0355454348028;3;True;2;1;2.0458772256983044
593;593;1449482910;2.14192533493;0.71808463335;0.0352188088;3;True;2;1;2.0458772256983044
594;594;1449482910;2.14246416092;0.7184627056119999;0.0355212725699;3;True;2;1;2.0458772256983044
595;595;1449482910;2.1424236297599997;0.7183983922;0.03521457687019999;3;True;2;1;2.0458772256983044
596;596;1449482910;2.1421098709099997;0.718742609024;0.034859862178599994;3;True;2;1;2.0458772256983044
597;597;1449482910;2.14139914513;0.718323647976;0.035979680717;3;True;2;1;2.0458772256983044
598;598;1449482910;2.1422390937799998;0.7185609340670001;0.035739187151199996;3;True;2;1;2.0458772256983044
599;599;1449482910;2.1423711776700003;0.718537211418;0.0355298966169;3;True;2;1;2.0458772256983044
600;600;1449482910;2.14177703857;0.718406200409;0.035206861794;3;True;2;1;2.0458772256983044
601;601;1449482910;2.14218378067;0.718361437321;0.0354716442525;3;True;2;1;2.0458772256983044
602;602;1449482910;2.14189553261;0.718218922615;0.0359214171767;3;True;2;1;2.0458772256983044
603;603;1449482910;2.14207053185;0.718403160572;0.035243101418;3;True;2;1;2.0458772256983044
604;604;1449482910;2.14167881012;0.7179347872730001;0.035367898643;3;True;2;1;2.0458772256983044
605;605;1449482910;2.14236521721;0.7189252972600001;0.034858394414199995;3;True;2;1;2.0458772256983044
606;606;1449482910;2.14243984222;0.717963457108;0.036088835448;3;True;2;1;2.0458772256983044
