;Unnamed: 0;header_stamp_secs;pose_position_x;pose_position_y;pose_position_z;seconds;drop_values;flight_number;label;dtw
0;0;1449488530;2.13665699959;0.7898903489110001;0.0683755725622;0;True;22;1;75.38483280316251
1;1;1449488530;2.1365885734599996;0.789612650871;0.0683718919754;0;True;22;1;75.38483280316251
2;2;1449488530;2.1372654438;0.789921700954;0.0684861391783;0;True;22;1;75.38483280316251
3;3;1449488530;2.1370849609400002;0.7897817492489999;0.06859157234430001;0;True;22;1;75.38483280316251
4;4;1449488530;2.13708662987;0.7900471091269999;0.06842914223669999;0;True;22;1;75.38483280316251
5;5;1449488530;2.13675761223;0.789841353893;0.0684497877955;0;True;22;1;75.38483280316251
6;6;1449488530;2.1369643211400002;0.78962290287;0.068596303463;0;True;22;1;75.38483280316251
7;7;1449488530;2.13684988022;0.7897638678550001;0.068450242281;0;True;22;1;75.38483280316251
8;8;1449488530;2.13694620132;0.789930999279;0.0684304833412;0;True;22;1;75.38483280316251
9;9;1449488530;2.13677954674;0.789710640907;0.0684411302209;0;True;22;1;75.38483280316251
10;10;1449488530;2.13707852364;0.7897344231610001;0.0685339123011;0;True;22;1;75.38483280316251
11;11;1449488530;2.13704442978;0.789775013924;0.0688275769353;0;True;22;1;75.38483280316251
12;12;1449488530;2.13636994362;0.7897503376010001;0.0684407278895;0;True;22;1;75.38483280316251
13;13;1449488530;2.13623714447;0.789699971676;0.0684461370111;0;True;22;1;75.38483280316251
14;14;1449488530;2.13645505905;0.7901949882510001;0.06853102147580001;0;True;22;1;75.38483280316251
15;15;1449488530;2.1365506649;0.789717555046;0.06839475035670001;0;True;22;1;75.38483280316251
16;16;1449488530;2.13680362701;0.789739131927;0.0684892088175;0;True;22;1;75.38483280316251
17;17;1449488530;2.1370711326599996;0.7891199588779999;0.0692864134908;0;True;22;1;75.38483280316251
18;18;1449488530;2.13681292534;0.79004663229;0.0684542730451;0;True;22;1;75.38483280316251
19;19;1449488530;2.13695287704;0.78993678093;0.0684844553471;0;True;22;1;75.38483280316251
20;20;1449488530;2.1372973918900002;0.7898393869399999;0.0683777704835;0;True;22;1;75.38483280316251
21;21;1449488530;2.13699436188;0.7899198532100001;0.0684907436371;0;True;22;1;75.38483280316251
22;22;1449488530;2.1369111537900003;0.789917469025;0.0684876814485;0;True;22;1;75.38483280316251
23;23;1449488530;2.13679456711;0.789637327194;0.06858038157219999;0;True;22;1;75.38483280316251
24;24;1449488530;2.1367838382700004;0.789443016052;0.0689737796783;0;True;22;1;75.38483280316251
25;25;1449488530;2.13724780083;0.7899205088619999;0.0685103237629;0;True;22;1;75.38483280316251
26;26;1449488530;2.1367931366;0.789862751961;0.06847769767049999;0;True;22;1;75.38483280316251
27;27;1449488530;2.13673520088;0.789851844311;0.06847063452010001;0;True;22;1;75.38483280316251
28;28;1449488530;2.1370477676400004;0.78990226984;0.0683961361647;0;True;22;1;75.38483280316251
29;29;1449488530;2.13684487343;0.7900344133380001;0.0682936161757;0;True;22;1;75.38483280316251
30;30;1449488530;2.13721036911;0.789218485355;0.0693686753511;0;True;22;1;75.38483280316251
31;31;1449488530;2.1369466781599997;0.7894019484520001;0.0686247497797;0;True;22;1;75.38483280316251
32;32;1449488530;2.13697481155;0.789945304394;0.068475432694;0;True;22;1;75.38483280316251
33;33;1449488530;2.1367518901800002;0.789405286312;0.06885602325199999;0;True;22;1;75.38483280316251
34;34;1449488530;2.13694310188;0.7898897528650001;0.06848928332330001;0;True;22;1;75.38483280316251
35;35;1449488530;2.13695287704;0.789948523045;0.0684777498245;0;True;22;1;75.38483280316251
36;36;1449488530;2.13690900803;0.789747595787;0.0685535520315;0;True;22;1;75.38483280316251
37;37;1449488530;2.13644218445;0.789471328259;0.0684937387705;0;True;22;1;75.38483280316251
38;38;1449488530;2.136698246;0.7899402379989999;0.0681954473257;0;True;22;1;75.38483280316251
39;39;1449488530;2.13690328598;0.789934456348;0.06851654499769999;0;True;22;1;75.38483280316251
40;40;1449488530;2.13706445694;0.7899463176729999;0.06847817450759999;0;True;22;1;75.38483280316251
41;41;1449488530;2.13683629036;0.789936065674;0.06851363927130001;0;True;22;1;75.38483280316251
42;42;1449488530;2.1368079185499997;0.789923727512;0.068447701633;0;True;22;1;75.38483280316251
43;43;1449488530;2.13678979874;0.790158033371;0.06837294995780001;0;True;22;1;75.38483280316251
44;44;1449488530;2.13709306717;0.789854288101;0.0684742927551;0;True;22;1;75.38483280316251
45;45;1449488531;2.1368646621700003;0.7896845936779999;0.0685403645039;1;True;22;1;75.38483280316251
46;46;1449488531;2.13663196564;0.790035426617;0.0682393833995;1;True;22;1;75.38483280316251
47;47;1449488531;2.13706541061;0.7899386286740001;0.0684592500329;1;True;22;1;75.38483280316251
48;48;1449488531;2.13694763184;0.789880096912;0.06846449524159999;1;True;22;1;75.38483280316251
49;49;1449488531;2.13695955276;0.7897655367849999;0.0684762746096;1;True;22;1;75.38483280316251
50;50;1449488531;2.1369509697;0.789866507053;0.0684601590037;1;True;22;1;75.38483280316251
51;51;1449488531;2.1367058754;0.7898595929150001;0.06850586831569999;1;True;22;1;75.38483280316251
52;52;1449488531;2.13666296005;0.789484143257;0.068476781249;1;True;22;1;75.38483280316251
53;53;1449488531;2.13685107231;0.789868474007;0.0688712149858;1;True;22;1;75.38483280316251
54;54;1449488531;2.13716578484;0.790123403072;0.0684858858585;1;True;22;1;75.38483280316251
55;55;1449488531;2.1365694999700002;0.79006499052;0.06829550862309999;1;True;22;1;75.38483280316251
56;56;1449488531;2.1369173526800003;0.789929926395;0.0684441253543;1;True;22;1;75.38483280316251
57;57;1449488531;2.13680768013;0.789863884449;0.06844627112150001;1;True;22;1;75.38483280316251
58;58;1449488531;2.13692641258;0.7899236679080001;0.06844179332259999;1;True;22;1;75.38483280316251
59;59;1449488531;2.13659834862;0.789545178413;0.0686786323786;1;True;22;1;75.38483280316251
60;60;1449488531;2.13691067696;0.7899253368379999;0.0684395059943;1;True;22;1;75.38483280316251
61;61;1449488531;2.13686537743;0.7899257540700001;0.0685349479318;1;True;22;1;75.38483280316251
62;62;1449488531;2.13699126244;0.78987377882;0.0684554576874;1;True;22;1;75.38483280316251
63;63;1449488531;2.1367905139900003;0.789300024509;0.06883986294269999;1;True;22;1;75.38483280316251
64;64;1449488531;2.13623857498;0.789991796017;0.0682761073112;1;True;22;1;75.38483280316251
65;65;1449488531;2.13667392731;0.7896035313609999;0.068581469357;1;True;22;1;75.38483280316251
66;66;1449488531;2.13689541817;0.789844572544;0.0685608237982;1;True;22;1;75.38483280316251
67;67;1449488531;2.1368496418;0.789769470692;0.0685507804155;1;True;22;1;75.38483280316251
68;68;1449488531;2.1367971897099998;0.789899587631;0.068476781249;1;True;22;1;75.38483280316251
69;69;1449488531;2.13686680794;0.790036678314;0.0683734938502;1;True;22;1;75.38483280316251
70;70;1449488531;2.13727498055;0.790045559406;0.0683554932475;1;True;22;1;75.38483280316251
71;71;1449488531;2.1367480754900003;0.789800047874;0.0684279128909;1;True;22;1;75.38483280316251
72;72;1449488531;2.1358833313;0.7898269891740001;0.0682409629226;1;True;22;1;75.38483280316251
73;73;1449488531;2.13690495491;0.7898930311200001;0.0684426873922;1;True;22;1;75.38483280316251
74;74;1449488531;2.13632392883;0.789895474911;0.06828857958319999;1;True;22;1;75.38483280316251
75;75;1449488531;2.13667201996;0.789981126785;0.0683436840773;1;True;22;1;75.38483280316251
76;76;1449488531;2.1367409229299996;0.790014564991;0.0682999268174;1;True;22;1;75.38483280316251
77;77;1449488531;2.13722610474;0.7899426817890001;0.0684536248446;1;True;22;1;75.38483280316251
78;78;1449488531;2.1370220184299997;0.7899063229559999;0.0685202106833;1;True;22;1;75.38483280316251
79;79;1449488531;2.13676691055;0.789535105228;0.0684884265065;1;True;22;1;75.38483280316251
80;80;1449488531;2.1372961997999997;0.790043771267;0.0684549063444;1;True;22;1;75.38483280316251
81;81;1449488531;2.1366131305700002;0.7900849580760001;0.0685143470764;1;True;22;1;75.38483280316251
82;82;1449488531;2.13677096367;0.789932072163;0.0684229433537;1;True;22;1;75.38483280316251
83;83;1449488531;2.13677287102;0.789879143238;0.0685072541237;1;True;22;1;75.38483280316251
84;84;1449488531;2.13721776009;0.789921700954;0.0684558227658;1;True;22;1;75.38483280316251
85;85;1449488531;2.13686561584;0.7899559736249999;0.0684241056442;1;True;22;1;75.38483280316251
86;86;1449488531;2.1366264820099996;0.790143787861;0.0681573003531;1;True;22;1;75.38483280316251
87;87;1449488531;2.13687586784;0.7898613214489999;0.0683210939169;1;True;22;1;75.38483280316251
88;88;1449488531;2.1367387771599997;0.789735078812;0.0684521645308;1;True;22;1;75.38483280316251
89;89;1449488531;2.13724374771;0.7899399399760001;0.06846556812520001;1;True;22;1;75.38483280316251
90;90;1449488531;2.13683605194;0.789867162704;0.0684299618006;1;True;22;1;75.38483280316251
91;91;1449488531;2.1371042728400003;0.7899062037469999;0.0684545636177;1;True;22;1;75.38483280316251
92;92;1449488531;2.1368792057;0.7899774909020001;0.06842403858900001;1;True;22;1;75.38483280316251
93;93;1449488531;2.13689160347;0.789848685265;0.0685448870063;1;True;22;1;75.38483280316251
94;94;1449488531;2.13708972931;0.7899748682979999;0.0684365481138;1;True;22;1;75.38483280316251
95;95;1449488531;2.13673567772;0.790132343769;0.06844346970319999;1;True;22;1;75.38483280316251
96;96;1449488531;2.1367661953;0.7898843288420001;0.0684822052717;1;True;22;1;75.38483280316251
97;97;1449488531;2.1365740299200002;0.7901032567020001;0.0687870904803;1;True;22;1;75.38483280316251
98;98;1449488531;2.1366932392099995;0.790001451969;0.0683210268617;1;True;22;1;75.38483280316251
99;99;1449488531;2.13708949089;0.789959549904;0.06845971941949999;1;True;22;1;75.38483280316251
100;100;1449488531;2.13690567017;0.7899512648579999;0.0684348270297;1;True;22;1;75.38483280316251
101;101;1449488531;2.1368939876599997;0.789966821671;0.0684346482158;1;True;22;1;75.38483280316251
102;102;1449488531;2.13666391373;0.7898877263070001;0.06841391325;1;True;22;1;75.38483280316251
103;103;1449488531;2.13677167892;0.789882063866;0.0684308186173;1;True;22;1;75.38483280316251
104;104;1449488531;2.1372721195200004;0.79004240036;0.0684692561626;1;True;22;1;75.38483280316251
105;105;1449488531;2.13687181473;0.7899488806720001;0.06829901784659999;1;True;22;1;75.38483280316251
106;106;1449488531;2.13702464104;0.7898988127709999;0.0684325546026;1;True;22;1;75.38483280316251
107;107;1449488531;2.1367633342700003;0.790084481239;0.068151563406;1;True;22;1;75.38483280316251
108;108;1449488531;2.13715672493;0.789499282837;0.06901176273819999;1;True;22;1;75.38483280316251
109;109;1449488531;2.13695788383;0.789916038513;0.0684704259038;1;True;22;1;75.38483280316251
110;110;1449488531;2.13622260094;0.790284633636;0.0680532306433;1;True;22;1;75.38483280316251
111;111;1449488531;2.13696241379;0.789796411991;0.0684523433447;1;True;22;1;75.38483280316251
112;112;1449488531;2.13664460182;0.789801776409;0.0684739500284;1;True;22;1;75.38483280316251
113;113;1449488531;2.13657069206;0.789765119553;0.06845876574519999;1;True;22;1;75.38483280316251
114;114;1449488531;2.1371061801900004;0.789844930172;0.0685412362218;1;True;22;1;75.38483280316251
115;115;1449488531;2.13722586632;0.790098965168;0.0684332773089;1;True;22;1;75.38483280316251
116;116;1449488531;2.1368181705500002;0.7898305654530001;0.0684390962124;1;True;22;1;75.38483280316251
117;117;1449488531;2.13698911667;0.789874076843;0.06845770776269999;1;True;22;1;75.38483280316251
118;118;1449488531;2.1369767188999997;0.7897902727130001;0.068575039506;1;True;22;1;75.38483280316251
119;119;1449488531;2.13690471649;0.7899101376530001;0.0684534311295;1;True;22;1;75.38483280316251
120;120;1449488531;2.1369421482099997;0.789660155773;0.0686760917306;1;True;22;1;75.38483280316251
121;121;1449488531;2.13678836823;0.78984606266;0.0684457197785;1;True;22;1;75.38483280316251
122;122;1449488531;2.13654708862;0.789982557297;0.0684084072709;1;True;22;1;75.38483280316251
123;123;1449488531;2.1369607448599997;0.7898693680760001;0.06846886873250001;1;True;22;1;75.38483280316251
124;124;1449488531;2.13713145256;0.7898625135420001;0.0684743076563;1;True;22;1;75.38483280316251
125;125;1449488531;2.13701081276;0.789897859097;0.0684372633696;1;True;22;1;75.38483280316251
126;126;1449488531;2.13696575165;0.789664745331;0.0686129629612;1;True;22;1;75.38483280316251
127;127;1449488531;2.1366424560499997;0.7899987697600002;0.06848833709959999;1;True;22;1;75.38483280316251
128;128;1449488531;2.1368737220800003;0.789644300938;0.0687566846609;1;True;22;1;75.38483280316251
129;129;1449488531;2.13692378998;0.7897155284880001;0.0684793740511;1;True;22;1;75.38483280316251
130;130;1449488531;2.13705301285;0.789927601814;0.068496696651;1;True;22;1;75.38483280316251
131;131;1449488531;2.1370480060599997;0.7898102402689999;0.0684700235724;1;True;22;1;75.38483280316251
132;132;1449488531;2.13677859306;0.789634525776;0.0686179697514;1;True;22;1;75.38483280316251
133;133;1449488531;2.13669395447;0.789823532104;0.0684463232756;1;True;22;1;75.38483280316251
134;134;1449488531;2.13725972176;0.7886943221089999;0.0693702250719;1;True;22;1;75.38483280316251
135;135;1449488531;2.1367852687799997;0.789660274982;0.0684754401445;1;True;22;1;75.38483280316251
136;136;1449488531;2.13704109192;0.789901375771;0.0685065984726;1;True;22;1;75.38483280316251
137;137;1449488531;2.13675689697;0.789829552174;0.0684652552009;1;True;22;1;75.38483280316251
138;138;1449488531;2.13690638542;0.789887070656;0.0684849321842;1;True;22;1;75.38483280316251
139;139;1449488531;2.1372356414800002;0.7900872230529999;0.06851107627150001;1;True;22;1;75.38483280316251
140;140;1449488531;2.13709211349;0.7898075580600001;0.0686216503382;1;True;22;1;75.38483280316251
141;141;1449488531;2.13702082634;0.789870321751;0.0685142576694;1;True;22;1;75.38483280316251
142;142;1449488531;2.1369037628200003;0.789631128311;0.068548515439;1;True;22;1;75.38483280316251
143;143;1449488531;2.13704276085;0.789626836777;0.0687579810619;1;True;22;1;75.38483280316251
144;144;1449488531;2.13699293137;0.789888381958;0.0685185715556;1;True;22;1;75.38483280316251
145;145;1449488531;2.1371061801900004;0.789934813976;0.0684929266572;1;True;22;1;75.38483280316251
146;146;1449488531;2.1371068954499997;0.789578795433;0.0689157322049;1;True;22;1;75.38483280316251
147;147;1449488531;2.1368701458;0.789992034435;0.0682847946882;1;True;22;1;75.38483280316251
148;148;1449488531;2.1371121406599998;0.7900490164759999;0.068446546793;1;True;22;1;75.38483280316251
149;149;1449488531;2.13731575012;0.7897326946259999;0.06916772574189999;1;True;22;1;75.38483280316251
150;150;1449488531;2.1371166706099998;0.790026366711;0.06850416958330001;1;True;22;1;75.38483280316251
151;151;1449488531;2.13685297966;0.789842188358;0.0684862360358;1;True;22;1;75.38483280316251
152;152;1449488531;2.13653087616;0.789820611477;0.0686181634665;1;True;22;1;75.38483280316251
153;153;1449488531;2.13714170456;0.78987377882;0.0685013085604;1;True;22;1;75.38483280316251
154;154;1449488531;2.13662719727;0.7897736430169999;0.06845290213819999;1;True;22;1;75.38483280316251
155;155;1449488531;2.13640618324;0.7897566556929999;0.0685479491949;1;True;22;1;75.38483280316251
156;156;1449488531;2.13624644279;0.789501786232;0.0686184242368;1;True;22;1;75.38483280316251
157;157;1449488531;2.1366891861000004;0.789753437042;0.0687858611345;1;True;22;1;75.38483280316251
158;158;1449488531;2.13701033592;0.7898943424220001;0.0684903636575;1;True;22;1;75.38483280316251
159;159;1449488531;2.13665342331;0.789951980114;0.06850173324350001;1;True;22;1;75.38483280316251
160;160;1449488531;2.13712000847;0.789951622486;0.0684826001525;1;True;22;1;75.38483280316251
161;161;1449488531;2.13693523407;0.789867639542;0.06847756356000001;1;True;22;1;75.38483280316251
162;162;1449488531;2.13676118851;0.7900379300120001;0.0683981031179;1;True;22;1;75.38483280316251
163;163;1449488531;2.13680934906;0.790100336075;0.0685390233994;1;True;22;1;75.38483280316251
164;164;1449488531;2.13670873642;0.789681315422;0.0690330639482;1;True;22;1;75.38483280316251
165;165;1449488531;2.1368618011500002;0.7892130613330001;0.0686945617199;1;True;22;1;75.38483280316251
166;166;1449488531;2.13650846481;0.789718687534;0.0683749467134;1;True;22;1;75.38483280316251
167;167;1449488531;2.13683795929;0.789826929569;0.068465270102;1;True;22;1;75.38483280316251
168;168;1449488531;2.13638520241;0.789757013321;0.06861469149590001;1;True;22;1;75.38483280316251
169;169;1449488531;2.1372351646400003;0.7900693416600001;0.06848622113469999;1;True;22;1;75.38483280316251
170;170;1449488531;2.13663458824;0.789695680141;0.0685083791614;1;True;22;1;75.38483280316251
171;171;1449488531;2.13680672646;0.789782762527;0.0684129372239;1;True;22;1;75.38483280316251
172;172;1449488531;2.1360938549;0.789757370949;0.0683833882213;1;True;22;1;75.38483280316251
173;173;1449488531;2.13639879227;0.790061593056;0.0682942047715;1;True;22;1;75.38483280316251
174;174;1449488531;2.1370480060599997;0.7898600101469999;0.0684037655592;1;True;22;1;75.38483280316251
175;175;1449488531;2.13692355156;0.7900189757350001;0.0685426294804;1;True;22;1;75.38483280316251
176;176;1449488531;2.1370124816900002;0.7899569869040001;0.0685046836734;1;True;22;1;75.38483280316251
177;177;1449488531;2.13667583466;0.789954483509;0.068327665329;1;True;22;1;75.38483280316251
178;178;1449488531;2.1370651722;0.789925456047;0.0685084238648;1;True;22;1;75.38483280316251
179;179;1449488531;2.13699603081;0.7898551225660001;0.06843945384030001;1;True;22;1;75.38483280316251
180;180;1449488531;2.13678264618;0.7898102998729999;0.0684278383851;1;True;22;1;75.38483280316251
181;181;1449488531;2.13675713539;0.789678871632;0.0685794055462;1;True;22;1;75.38483280316251
182;182;1449488531;2.13674473763;0.7899135351180001;0.0683231279254;1;True;22;1;75.38483280316251
183;183;1449488531;2.13671898842;0.78983694315;0.0684151872993;1;True;22;1;75.38483280316251
184;184;1449488531;2.13688611984;0.789888322353;0.0684652850032;1;True;22;1;75.38483280316251
185;185;1449488531;2.13695073128;0.789946913719;0.0683760046959;1;True;22;1;75.38483280316251
186;186;1449488531;2.13687157631;0.789959430695;0.06841187924150001;1;True;22;1;75.38483280316251
187;187;1449488531;2.13694047928;0.7899087667470001;0.068412296474;1;True;22;1;75.38483280316251
188;188;1449488531;2.1370100975;0.789921700954;0.06844712048769999;1;True;22;1;75.38483280316251
189;189;1449488531;2.13722801208;0.7899109125139999;0.0684381425381;1;True;22;1;75.38483280316251
190;190;1449488531;2.13705468178;0.789869070053;0.0684278681874;1;True;22;1;75.38483280316251
191;191;1449488531;2.13709950447;0.7899875044820001;0.0684402734041;1;True;22;1;75.38483280316251
192;192;1449488531;2.1369326114700002;0.789869010448;0.068429633975;1;True;22;1;75.38483280316251
193;193;1449488531;2.13643550873;0.789839982986;0.0682739242911;1;True;22;1;75.38483280316251
194;194;1449488531;2.1366856098199998;0.789564907551;0.0684594884515;1;True;22;1;75.38483280316251
195;195;1449488531;2.1369473934200003;0.789963126183;0.0683938115835;1;True;22;1;75.38483280316251
196;196;1449488531;2.13692927361;0.7898916602130001;0.0684277117252;1;True;22;1;75.38483280316251
197;197;1449488531;2.13688707352;0.7897042632100001;0.0684511587024;1;True;22;1;75.38483280316251
198;198;1449488531;2.13690710068;0.7896940112109999;0.0683219954371;1;True;22;1;75.38483280316251
199;199;1449488531;2.13650298119;0.7897795438770001;0.06842688471080001;1;True;22;1;75.38483280316251
200;200;1449488531;2.13673377037;0.790032148361;0.068359464407;1;True;22;1;75.38483280316251
201;201;1449488531;2.13635802269;0.789897859097;0.0683694630861;1;True;22;1;75.38483280316251
202;202;1449488531;2.1363222599;0.789926409721;0.0685302093625;1;True;22;1;75.38483280316251
203;203;1449488531;2.1368527412400002;0.789874255657;0.06844892352819999;1;True;22;1;75.38483280316251
204;204;1449488531;2.13679385185;0.78990316391;0.0684065744281;1;True;22;1;75.38483280316251
205;205;1449488531;2.13674998283;0.789798557758;0.0684378296137;1;True;22;1;75.38483280316251
206;206;1449488531;2.13672637939;0.7897990942;0.0686762556434;1;True;22;1;75.38483280316251
207;207;1449488531;2.13691210747;0.789798796177;0.0687131881714;1;True;22;1;75.38483280316251
208;208;1449488531;2.136936903;0.789839982986;0.0684291273355;1;True;22;1;75.38483280316251
209;209;1449488531;2.1367807388299997;0.789441227913;0.0686013922095;1;True;22;1;75.38483280316251
210;210;1449488531;2.13675403595;0.789843380451;0.0684099346399;1;True;22;1;75.38483280316251
211;211;1449488531;2.13659501076;0.789967596531;0.0683605223894;1;True;22;1;75.38483280316251
212;212;1449488531;2.1366119384799998;0.7898401021960001;0.06866312026980001;1;True;22;1;75.38483280316251
213;213;1449488531;2.13731408119;0.790113806725;0.0689543560147;1;True;22;1;75.38483280316251
214;214;1449488531;2.1368196010599996;0.789880096912;0.068470902741;1;True;22;1;75.38483280316251
215;215;1449488531;2.13694858551;0.789902150631;0.0684190839529;1;True;22;1;75.38483280316251
216;216;1449488531;2.13667297363;0.7898752093320001;0.068411745131;1;True;22;1;75.38483280316251
217;217;1449488531;2.1368269920299996;0.789801716805;0.0684217810631;1;True;22;1;75.38483280316251
218;218;1449488531;2.1371974945099996;0.7900774478910001;0.0684512257576;1;True;22;1;75.38483280316251
219;219;1449488531;2.13664722443;0.789547324181;0.0684379115701;1;True;22;1;75.38483280316251
220;220;1449488531;2.1366226673099997;0.789505124092;0.0687203258276;1;True;22;1;75.38483280316251
221;221;1449488531;2.137155056;0.7892091274259999;0.0692931339145;1;True;22;1;75.38483280316251
222;222;1449488531;2.1369450092299997;0.789872407913;0.0684383884072;1;True;22;1;75.38483280316251
223;223;1449488531;2.13691186905;0.7897580265999999;0.06863494962450001;1;True;22;1;75.38483280316251
224;224;1449488531;2.13729763031;0.789563119411;0.06901186704639999;1;True;22;1;75.38483280316251
225;225;1449488531;2.13691449165;0.789775311947;0.06851113587619999;1;True;22;1;75.38483280316251
226;226;1449488531;2.13691949844;0.789820432663;0.0685106217861;1;True;22;1;75.38483280316251
227;227;1449488531;2.13669466972;0.789424419403;0.0686793774366;1;True;22;1;75.38483280316251
228;228;1449488531;2.1367964744599997;0.789420962334;0.06883957237010001;1;True;22;1;75.38483280316251
229;229;1449488531;2.1367919445;0.789859235287;0.0684085488319;1;True;22;1;75.38483280316251
230;230;1449488531;2.13667345047;0.790044486523;0.0682588741183;1;True;22;1;75.38483280316251
231;231;1449488531;2.13709950447;0.789984047413;0.0684926062822;1;True;22;1;75.38483280316251
232;232;1449488531;2.13654470444;0.7896911501880001;0.0685269683599;1;True;22;1;75.38483280316251
233;233;1449488531;2.13695263863;0.789848864079;0.0684833005071;1;True;22;1;75.38483280316251
234;234;1449488531;2.13689446449;0.789961218834;0.0684677064419;1;True;22;1;75.38483280316251
235;235;1449488531;2.1363723278;0.789962589741;0.06843803822990001;1;True;22;1;75.38483280316251
236;236;1449488531;2.13724374771;0.790006279945;0.0683305412531;1;True;22;1;75.38483280316251
237;237;1449488531;2.1369969844799996;0.7899093627930001;0.0684655979276;1;True;22;1;75.38483280316251
238;238;1449488531;2.13676309586;0.7898523807529999;0.0684672370553;1;True;22;1;75.38483280316251
239;239;1449488531;2.13692188263;0.789877772331;0.0684678852558;1;True;22;1;75.38483280316251
240;240;1449488531;2.1368353366900004;0.79006499052;0.0683197975159;1;True;22;1;75.38483280316251
241;241;1449488531;2.1369955539700003;0.789745688438;0.0685553476214;1;True;22;1;75.38483280316251
242;242;1449488531;2.1366448402400002;0.789793550968;0.0684920325875;1;True;22;1;75.38483280316251
243;243;1449488531;2.13668274879;0.789730906487;0.06842833757399999;1;True;22;1;75.38483280316251
244;244;1449488531;2.1366238594099998;0.790076553822;0.0683808550239;1;True;22;1;75.38483280316251
245;245;1449488531;2.1370997428900003;0.789794027805;0.0685832351446;1;True;22;1;75.38483280316251
246;246;1449488531;2.1370382309;0.7896791100499999;0.0685247182846;1;True;22;1;75.38483280316251
247;247;1449488531;2.1367828846;0.789949417114;0.0685647130013;1;True;22;1;75.38483280316251
248;248;1449488531;2.1369605064400004;0.7898734807969999;0.0684972554445;1;True;22;1;75.38483280316251
249;249;1449488531;2.1365904808000002;0.7896463870999999;0.0686375498772;1;True;22;1;75.38483280316251
250;250;1449488531;2.13704180717;0.789936602116;0.0684621855617;1;True;22;1;75.38483280316251
251;251;1449488531;2.13687539101;0.789860486984;0.0684926584363;1;True;22;1;75.38483280316251
252;252;1449488531;2.13697743416;0.789752244949;0.0683828145266;1;True;22;1;75.38483280316251
253;253;1449488531;2.13684034348;0.789847254753;0.068481631577;1;True;22;1;75.38483280316251
254;254;1449488531;2.13669610023;0.7900829315189999;0.0684169605374;1;True;22;1;75.38483280316251
255;255;1449488531;2.13686776161;0.7898367643359999;0.0684801563621;1;True;22;1;75.38483280316251
256;256;1449488531;2.1368060112;0.7897576689720001;0.0684978365898;1;True;22;1;75.38483280316251
257;257;1449488531;2.1369683742500003;0.789923906326;0.0684843510389;1;True;22;1;75.38483280316251
258;258;1449488531;2.13711905479;0.7896293401719999;0.0684695914388;1;True;22;1;75.38483280316251
259;259;1449488531;2.13715338707;0.790492713451;0.0680783092976;1;True;22;1;75.38483280316251
260;260;1449488531;2.13696169853;0.7899101972579999;0.06848639249800001;1;True;22;1;75.38483280316251
261;261;1449488531;2.13712525368;0.789657354355;0.06882205605510001;1;True;22;1;75.38483280316251
262;262;1449488531;2.13684034348;0.789632201195;0.0686745792627;1;True;22;1;75.38483280316251
263;263;1449488531;2.13703894615;0.7899522781370001;0.06862466037269999;1;True;22;1;75.38483280316251
264;264;1449488531;2.13668751717;0.789843976498;0.0684515759349;1;True;22;1;75.38483280316251
265;265;1449488531;2.13692378998;0.789883196354;0.06841116398569999;1;True;22;1;75.38483280316251
266;266;1449488531;2.13688802719;0.7898136377330001;0.0684104859829;1;True;22;1;75.38483280316251
267;267;1449488531;2.1369931697799998;0.7898530960079999;0.0684576779604;1;True;22;1;75.38483280316251
268;268;1449488531;2.13677716255;0.790274083614;0.06818041950459999;1;True;22;1;75.38483280316251
269;269;1449488531;2.1371409893;0.789785206318;0.0686545148492;1;True;22;1;75.38483280316251
270;270;1449488531;2.13624548912;0.789470016956;0.0685796439648;1;True;22;1;75.38483280316251
271;271;1449488531;2.13642644882;0.7896804213519999;0.0685866326094;1;True;22;1;75.38483280316251
272;272;1449488531;2.13688063622;0.789690673351;0.0686851665378;1;True;22;1;75.38483280316251
273;273;1449488531;2.13671350479;0.789812505245;0.06845330446959999;1;True;22;1;75.38483280316251
274;274;1449488531;2.13693118095;0.78987044096;0.068474188447;1;True;22;1;75.38483280316251
275;275;1449488531;2.13687753677;0.7898269891740001;0.0686393007636;1;True;22;1;75.38483280316251
276;276;1449488531;2.13665866852;0.7899111509319999;0.0684840530157;1;True;22;1;75.38483280316251
277;277;1449488531;2.13725471497;0.7899000048639999;0.068487688899;1;True;22;1;75.38483280316251
278;278;1449488531;2.13644742966;0.78929656744;0.0685346201062;1;True;22;1;75.38483280316251
279;279;1449488531;2.13671350479;0.7898160815240001;0.06843631714580001;1;True;22;1;75.38483280316251
280;280;1449488531;2.13693451881;0.7899131178859999;0.0684598535299;1;True;22;1;75.38483280316251
281;281;1449488531;2.13710522652;0.789883196354;0.0684604942799;1;True;22;1;75.38483280316251
282;282;1449488531;2.13702630997;0.7899276614190001;0.0684362128377;1;True;22;1;75.38483280316251
283;283;1449488531;2.13700175285;0.7898169159890001;0.0684859007597;1;True;22;1;75.38483280316251
284;284;1449488532;2.1369574069999997;0.7898585200309999;0.0684579759836;2;True;22;1;75.38483280316251
285;285;1449488532;2.1365437507599996;0.7899332642560001;0.0685125514865;2;True;22;1;75.38483280316251
286;286;1449488532;2.13726520538;0.789920926094;0.068477421999;2;True;22;1;75.38483280316251
287;287;1449488532;2.13727831841;0.790021061897;0.06841248273850001;2;True;22;1;75.38483280316251
288;288;1449488532;2.1371421814;0.789787650108;0.06876361370089999;2;True;22;1;75.38483280316251
289;289;1449488532;2.13715863228;0.7900882363320001;0.06846380233760001;2;True;22;1;75.38483280316251
290;290;1449488532;2.13670134544;0.7898197174070001;0.0684165656567;2;True;22;1;75.38483280316251
291;291;1449488532;2.1368851661700003;0.789910435677;0.0684189200401;2;True;22;1;75.38483280316251
292;292;1449488532;2.1368680000299998;0.7899696826929999;0.06843952834610001;2;True;22;1;75.38483280316251
293;293;1449488532;2.13695883751;0.789829850197;0.0684952959418;2;True;22;1;75.38483280316251
294;294;1449488532;2.13665270805;0.789850711823;0.0684208422899;2;True;22;1;75.38483280316251
295;295;1449488532;2.13725686073;0.790095567703;0.0684766173363;2;True;22;1;75.38483280316251
296;296;1449488532;2.1365339756;0.789700567722;0.06849450618030001;2;True;22;1;75.38483280316251
297;297;1449488532;2.1367053985599997;0.789588928223;0.0688697844744;2;True;22;1;75.38483280316251
298;298;1449488532;2.13683390617;0.789788424969;0.0684466063976;2;True;22;1;75.38483280316251
299;299;1449488532;2.1370279789;0.789959907532;0.0684473738074;2;True;22;1;75.38483280316251
300;300;1449488532;2.1369183063499997;0.7895878553389999;0.06865755468609999;2;True;22;1;75.38483280316251
301;301;1449488532;2.1369831562;0.7899276614190001;0.06845975667240001;2;True;22;1;75.38483280316251
302;302;1449488532;2.13679671288;0.789865553379;0.0685679912567;2;True;22;1;75.38483280316251
303;303;1449488532;2.13666939735;0.789680600166;0.06838913261889999;2;True;22;1;75.38483280316251
304;304;1449488532;2.1370594501499998;0.78980833292;0.06852809339759999;2;True;22;1;75.38483280316251
305;305;1449488532;2.13679242134;0.7899134755130001;0.06842496991159999;2;True;22;1;75.38483280316251
306;306;1449488532;2.13656306267;0.790599703789;0.06776807457209999;2;True;22;1;75.38483280316251
307;307;1449488532;2.1367208957700004;0.789877235889;0.0683825686574;2;True;22;1;75.38483280316251
308;308;1449488532;2.13634514809;0.789707183838;0.0681689307094;2;True;22;1;75.38483280316251
309;309;1449488532;2.13692378998;0.78998786211;0.0684453099966;2;True;22;1;75.38483280316251
310;310;1449488532;2.13627696037;0.7893822193150001;0.06889915466310001;2;True;22;1;75.38483280316251
311;311;1449488532;2.1369037628200003;0.789735734463;0.06847408413890001;2;True;22;1;75.38483280316251
312;312;1449488532;2.1367151737200003;0.7898643016820001;0.0684980228543;2;True;22;1;75.38483280316251
313;313;1449488532;2.13701581955;0.7899048328399999;0.0684369951487;2;True;22;1;75.38483280316251
314;314;1449488532;2.1369910240200003;0.790259957314;0.0683627873659;2;True;22;1;75.38483280316251
315;315;1449488532;2.13715744019;0.7900187969210001;0.0683352798223;2;True;22;1;75.38483280316251
316;316;1449488532;2.13669848442;0.789713680744;0.0684125646949;2;True;22;1;75.38483280316251
317;317;1449488532;2.13672971725;0.789973855019;0.0683388188481;2;True;22;1;75.38483280316251
318;318;1449488532;2.13665795326;0.7900388240809999;0.06822994351390001;2;True;22;1;75.38483280316251
319;319;1449488532;2.13665795326;0.7898185849189999;0.0684061571956;2;True;22;1;75.38483280316251
320;320;1449488532;2.1369433403;0.789849758148;0.06847824156280001;2;True;22;1;75.38483280316251
321;321;1449488532;2.13678097725;0.7898943424220001;0.06842468678949999;2;True;22;1;75.38483280316251
322;322;1449488532;2.13682341576;0.7899809479709999;0.0684174448252;2;True;22;1;75.38483280316251
323;323;1449488532;2.13697957993;0.78977894783;0.0686861202121;2;True;22;1;75.38483280316251
324;324;1449488532;2.13676953316;0.7899468541150001;0.0684284046292;2;True;22;1;75.38483280316251
325;325;1449488532;2.13698744774;0.789771914482;0.0685431212187;2;True;22;1;75.38483280316251
326;326;1449488532;2.13699793816;0.789890885353;0.06842862069609999;2;True;22;1;75.38483280316251
327;327;1449488532;2.13682365417;0.789994835854;0.0684116482735;2;True;22;1;75.38483280316251
328;328;1449488532;2.1369400024400003;0.7898209691050001;0.0684494972229;2;True;22;1;75.38483280316251
329;329;1449488532;2.1372594833400003;0.789495885372;0.06879548728469999;2;True;22;1;75.38483280316251
330;330;1449488532;2.13658547401;0.789951503277;0.0684355720878;2;True;22;1;75.38483280316251
331;331;1449488532;2.1367020607;0.7898591160770001;0.0683481618762;2;True;22;1;75.38483280316251
332;332;1449488532;2.13684034348;0.789993226528;0.068383321166;2;True;22;1;75.38483280316251
333;333;1449488532;2.1369178295099998;0.78999209404;0.0683012008667;2;True;22;1;75.38483280316251
334;334;1449488532;2.13687896729;0.789932608604;0.0684279575944;2;True;22;1;75.38483280316251
335;335;1449488532;2.13672423363;0.7898231148720001;0.06841938197610001;2;True;22;1;75.38483280316251
336;336;1449488532;2.13685631752;0.789811313152;0.0685111805797;2;True;22;1;75.38483280316251
337;337;1449488532;2.13646173477;0.7896122932430001;0.06851572543380001;2;True;22;1;75.38483280316251
338;338;1449488532;2.1368687152900003;0.7898730039599999;0.0684393048286;2;True;22;1;75.38483280316251
339;339;1449488532;2.13618850708;0.7896763086319999;0.068084731698;2;True;22;1;75.38483280316251
340;340;1449488532;2.1370973587;0.7894920110699999;0.0688965171576;2;True;22;1;75.38483280316251
341;341;1449488532;2.13691806793;0.7899208664890001;0.0683548822999;2;True;22;1;75.38483280316251
342;342;1449488532;2.1365556716900005;0.789811134338;0.068435035646;2;True;22;1;75.38483280316251
343;343;1449488532;2.13616895676;0.789949834347;0.0680441558361;2;True;22;1;75.38483280316251
344;344;1449488532;2.13721561432;0.7900179028509999;0.0683541223407;2;True;22;1;75.38483280316251
345;345;1449488532;2.13677358627;0.789720773697;0.06842396408319999;2;True;22;1;75.38483280316251
346;346;1449488532;2.1365435123400003;0.7899401783939999;0.0684316828847;2;True;22;1;75.38483280316251
347;347;1449488532;2.13679552078;0.789671719074;0.0686999857426;2;True;22;1;75.38483280316251
348;348;1449488532;2.1368691921200003;0.7898551821709999;0.0684455856681;2;True;22;1;75.38483280316251
349;349;1449488532;2.13689875603;0.789864480495;0.068441607058;2;True;22;1;75.38483280316251
350;350;1449488532;2.1367151737200003;0.7898030877109999;0.068541675806;2;True;22;1;75.38483280316251
351;351;1449488532;2.13674259186;0.789802014828;0.0684348121285;2;True;22;1;75.38483280316251
352;352;1449488532;2.1366600990299998;0.7896171212199999;0.06862466037269999;2;True;22;1;75.38483280316251
353;353;1449488532;2.13675117493;0.789829730988;0.0684350430965;2;True;22;1;75.38483280316251
354;354;1449488532;2.1369223594699998;0.789639949799;0.0686600804329;2;True;22;1;75.38483280316251
355;355;1449488532;2.13699746132;0.789871096611;0.0683672726154;2;True;22;1;75.38483280316251
356;356;1449488532;2.13669109344;0.7898080945010001;0.06846790015700001;2;True;22;1;75.38483280316251
357;357;1449488532;2.13642311096;0.7897886633869999;0.0683968663216;2;True;22;1;75.38483280316251
358;358;1449488532;2.13693833351;0.789855539799;0.0684479773045;2;True;22;1;75.38483280316251
359;359;1449488532;2.13695001602;0.7899310588840001;0.0684385225177;2;True;22;1;75.38483280316251
360;360;1449488532;2.1370391845700003;0.789919912815;0.0684338584542;2;True;22;1;75.38483280316251
361;361;1449488532;2.1371583938599996;0.7900509238240001;0.06846688687800001;2;True;22;1;75.38483280316251
362;362;1449488532;2.13736462593;0.7895205020899999;0.0691028684378;2;True;22;1;75.38483280316251
363;363;1449488532;2.1368124484999997;0.789501905441;0.068524800241;2;True;22;1;75.38483280316251
364;364;1449488532;2.1370189189900004;0.789678752422;0.0685438066721;2;True;22;1;75.38483280316251
365;365;1449488532;2.1367402076700004;0.789844870567;0.0684537440538;2;True;22;1;75.38483280316251
366;366;1449488532;2.13700270653;0.7897685766220001;0.0685704424977;2;True;22;1;75.38483280316251
367;367;1449488532;2.13681054115;0.7898538708689999;0.068470954895;2;True;22;1;75.38483280316251
368;368;1449488532;2.13680720329;0.7897122502330001;0.0684644579887;2;True;22;1;75.38483280316251
369;369;1449488532;2.13690447807;0.789935231209;0.0684689208865;2;True;22;1;75.38483280316251
370;370;1449488532;2.1363749504099996;0.79002904892;0.0682687163353;2;True;22;1;75.38483280316251
371;371;1449488532;2.13668513298;0.789775311947;0.0685032606125;2;True;22;1;75.38483280316251
372;372;1449488532;2.1370704174;0.7901034355159999;0.06848017871380001;2;True;22;1;75.38483280316251
373;373;1449488532;2.136936903;0.7900204062459999;0.06835249811409999;2;True;22;1;75.38483280316251
374;374;1449488532;2.13681674004;0.790265619755;0.068251311779;2;True;22;1;75.38483280316251
375;375;1449488532;2.1369519233700003;0.789931595325;0.0683968067169;2;True;22;1;75.38483280316251
376;376;1449488532;2.1366019249;0.7892347574230001;0.0688943043351;2;True;22;1;75.38483280316251
377;377;1449488532;2.13657712936;0.7898756265639999;0.068302758038;2;True;22;1;75.38483280316251
378;378;1449488532;2.13680624962;0.789979159832;0.06847324222330001;2;True;22;1;75.38483280316251
379;379;1449488532;2.13654971123;0.789717197418;0.0684040412307;2;True;22;1;75.38483280316251
380;380;1449488532;2.13694643974;0.790204882622;0.0683316886425;2;True;22;1;75.38483280316251
381;381;1449488532;2.13709497452;0.7898489236830001;0.06848652660849999;2;True;22;1;75.38483280316251
382;382;1449488532;2.1366131305700002;0.789903700352;0.06835044175390001;2;True;22;1;75.38483280316251
383;383;1449488532;2.1371099948900003;0.789742410183;0.0685611218214;2;True;22;1;75.38483280316251
384;384;1449488532;2.13671445847;0.789863348007;0.06847224384549999;2;True;22;1;75.38483280316251
385;385;1449488532;2.1371495723700003;0.789977252483;0.0684029459953;2;True;22;1;75.38483280316251
386;386;1449488532;2.1369395256;0.78969347477;0.0687256157398;2;True;22;1;75.38483280316251
387;387;1449488532;2.13688087463;0.789697706699;0.0685619711876;2;True;22;1;75.38483280316251
388;388;1449488532;2.1368746757499997;0.7901682853700001;0.0686245039105;2;True;22;1;75.38483280316251
389;389;1449488532;2.13680005074;0.7900163531300001;0.0683474913239;2;True;22;1;75.38483280316251
390;390;1449488532;2.13678407669;0.7897856831550001;0.0684361755848;2;True;22;1;75.38483280316251
391;391;1449488532;2.13696575165;0.789946436882;0.068484544754;2;True;22;1;75.38483280316251
392;392;1449488532;2.13695049286;0.7897606492039999;0.0685350522399;2;True;22;1;75.38483280316251
393;393;1449488532;2.1370849609400002;0.7900394797329999;0.0687112733722;2;True;22;1;75.38483280316251
394;394;1449488532;2.1370203494999997;0.789909780025;0.0684624910355;2;True;22;1;75.38483280316251
395;395;1449488532;2.13675379753;0.78970015049;0.0686760768294;2;True;22;1;75.38483280316251
396;396;1449488532;2.13684654236;0.790228366852;0.0685755461454;2;True;22;1;75.38483280316251
397;397;1449488532;2.13657164574;0.790051937103;0.0685276687145;2;True;22;1;75.38483280316251
398;398;1449488532;2.1370997428900003;0.789958417416;0.0685003697872;2;True;22;1;75.38483280316251
399;399;1449488532;2.13643360138;0.7895735502240001;0.06878451257939999;2;True;22;1;75.38483280316251
400;400;1449488532;2.13708376884;0.7900128960609999;0.06848655641080001;2;True;22;1;75.38483280316251
401;401;1449488532;2.1368393898;0.7898383140559999;0.06847360730169999;2;True;22;1;75.38483280316251
402;402;1449488532;2.13670420647;0.790114700794;0.0677825883031;2;True;22;1;75.38483280316251
403;403;1449488532;2.1369664669;0.7899511456489999;0.0684469938278;2;True;22;1;75.38483280316251
404;404;1449488532;2.13695263863;0.789887011051;0.068436793983;2;True;22;1;75.38483280316251
405;405;1449488532;2.13723540306;0.789924860001;0.0684802159667;2;True;22;1;75.38483280316251
406;406;1449488532;2.13685393333;0.789772748947;0.0684173330665;2;True;22;1;75.38483280316251
407;407;1449488532;2.1369068622599996;0.7896656394;0.0686200410128;2;True;22;1;75.38483280316251
408;408;1449488532;2.13709783554;0.789866983891;0.0685209259391;2;True;22;1;75.38483280316251
409;409;1449488532;2.13660383224;0.789905130863;0.0683271512389;2;True;22;1;75.38483280316251
410;410;1449488532;2.1365044117;0.7895184159280001;0.0684519410133;2;True;22;1;75.38483280316251
411;411;1449488532;2.13704872131;0.789796113968;0.0684549063444;2;True;22;1;75.38483280316251
412;412;1449488532;2.13655281067;0.790093719959;0.0685243308544;2;True;22;1;75.38483280316251
413;413;1449488532;2.1366417408;0.790007531643;0.0683069750667;2;True;22;1;75.38483280316251
414;414;1449488532;2.13669538498;0.7898880243299999;0.0683997943997;2;True;22;1;75.38483280316251
415;415;1449488532;2.13701319695;0.790104091167;0.0683993548155;2;True;22;1;75.38483280316251
416;416;1449488532;2.13699626923;0.789862334728;0.06837347894910001;2;True;22;1;75.38483280316251
417;417;1449488532;2.13705801964;0.789850711823;0.0684939175844;2;True;22;1;75.38483280316251
418;418;1449488532;2.136759758;0.789660036564;0.06864836066959999;2;True;22;1;75.38483280316251
419;419;1449488532;2.13683986664;0.789962351322;0.0684092417359;2;True;22;1;75.38483280316251
420;420;1449488532;2.13691997528;0.789800524712;0.0684294700623;2;True;22;1;75.38483280316251
421;421;1449488532;2.1370518207599996;0.789381861687;0.06911189109089999;2;True;22;1;75.38483280316251
422;422;1449488532;2.1369946003;0.789943039417;0.0684385374188;2;True;22;1;75.38483280316251
423;423;1449488532;2.13691902161;0.7898305654530001;0.0684705600142;2;True;22;1;75.38483280316251
424;424;1449488532;2.1370089054099997;0.789565265179;0.06889413297180001;2;True;22;1;75.38483280316251
425;425;1449488532;2.13686776161;0.7898272871969999;0.0684218257666;2;True;22;1;75.38483280316251
426;426;1449488532;2.1369059085799997;0.789945304394;0.068415351212;2;True;22;1;75.38483280316251
427;427;1449488532;2.13686084747;0.789935231209;0.06840892136099999;2;True;22;1;75.38483280316251
428;428;1449488532;2.13663625717;0.7898741960529999;0.06838478893040001;2;True;22;1;75.38483280316251
429;429;1449488532;2.13693785667;0.789707064629;0.06837353110309999;2;True;22;1;75.38483280316251
430;430;1449488532;2.13680720329;0.789545059204;0.0684630349278;2;True;22;1;75.38483280316251
431;431;1449488532;2.13679218292;0.789808213711;0.0683968439698;2;True;22;1;75.38483280316251
432;432;1449488532;2.1370339393599997;0.7899619340899999;0.0684258118272;2;True;22;1;75.38483280316251
433;433;1449488532;2.13700485229;0.7899280190469999;0.0684316828847;2;True;22;1;75.38483280316251
434;434;1449488532;2.13640475273;0.789932906628;0.068215534091;2;True;22;1;75.38483280316251
435;435;1449488532;2.13666319847;0.789756298065;0.0684705153108;2;True;22;1;75.38483280316251
436;436;1449488532;2.13641095161;0.789691925049;0.06862982362509999;2;True;22;1;75.38483280316251
437;437;1449488532;2.1368291378;0.7898394465449999;0.0684041902423;2;True;22;1;75.38483280316251
438;438;1449488532;2.13651371002;0.789557874203;0.0682451725006;2;True;22;1;75.38483280316251
439;439;1449488532;2.13684535027;0.790247797966;0.0682358071208;2;True;22;1;75.38483280316251
440;440;1449488532;2.13678741455;0.7898344993590001;0.0684156045318;2;True;22;1;75.38483280316251
441;441;1449488532;2.13681387901;0.789702475071;0.0684039592743;2;True;22;1;75.38483280316251
442;442;1449488532;2.13705563545;0.7900339961049999;0.0684405118227;2;True;22;1;75.38483280316251
443;443;1449488532;2.13673615456;0.789906799793;0.0685873478651;2;True;22;1;75.38483280316251
444;444;1449488532;2.13721442223;0.789692997932;0.0688664913177;2;True;22;1;75.38483280316251
445;445;1449488532;2.13669610023;0.789833784103;0.0684083625674;2;True;22;1;75.38483280316251
446;446;1449488532;2.1367526054400003;0.789834558964;0.0684092566371;2;True;22;1;75.38483280316251
447;447;1449488532;2.1367161274;0.790113389492;0.0685645788908;2;True;22;1;75.38483280316251
448;448;1449488532;2.13640022278;0.789419651031;0.0684113949537;2;True;22;1;75.38483280316251
449;449;1449488532;2.1369111537900003;0.789883613586;0.0684235021472;2;True;22;1;75.38483280316251
450;450;1449488532;2.13690900803;0.7897037267679999;0.0689117461443;2;True;22;1;75.38483280316251
451;451;1449488532;2.13684391975;0.790028214455;0.0683031305671;2;True;22;1;75.38483280316251
452;452;1449488532;2.13675117493;0.7896679043770001;0.0686779245734;2;True;22;1;75.38483280316251
453;453;1449488532;2.13725996017;0.78994590044;0.0684701874852;2;True;22;1;75.38483280316251
454;454;1449488532;2.1367688178999997;0.7901749014849999;0.06857268512249999;2;True;22;1;75.38483280316251
455;455;1449488532;2.1366109848;0.789815783501;0.068369448185;2;True;22;1;75.38483280316251
456;456;1449488532;2.13681674004;0.7896053195;0.0685163810849;2;True;22;1;75.38483280316251
457;457;1449488532;2.1364035606400003;0.7897354364399999;0.0683823078871;2;True;22;1;75.38483280316251
458;458;1449488532;2.1369559764900004;0.789888560772;0.0685198605061;2;True;22;1;75.38483280316251
459;459;1449488532;2.13634181023;0.790138304234;0.0683429390192;2;True;22;1;75.38483280316251
460;460;1449488532;2.13722229004;0.789815843105;0.068326793611;2;True;22;1;75.38483280316251
461;461;1449488532;2.13661527634;0.790317893028;0.0682008042932;2;True;22;1;75.38483280316251
462;462;1449488532;2.13695073128;0.7899386286740001;0.0684347674251;2;True;22;1;75.38483280316251
463;463;1449488532;2.13675069809;0.78979831934;0.06852259486909999;2;True;22;1;75.38483280316251
464;464;1449488532;2.13710355759;0.789924740791;0.0684765130281;2;True;22;1;75.38483280316251
465;465;1449488532;2.13679742813;0.789545655251;0.0685502812266;2;True;22;1;75.38483280316251
466;466;1449488532;2.13693833351;0.7899124622339999;0.068493232131;2;True;22;1;75.38483280316251
467;467;1449488532;2.13676381111;0.789856672287;0.0684668347239;2;True;22;1;75.38483280316251
468;468;1449488532;2.13696241379;0.789920806885;0.0684863701463;2;True;22;1;75.38483280316251
469;469;1449488532;2.13661837578;0.789942741394;0.06860846281050001;2;True;22;1;75.38483280316251
470;470;1449488532;2.13741517067;0.7897645831110001;0.0687422156334;2;True;22;1;75.38483280316251
471;471;1449488532;2.1365587711300003;0.7896426916120001;0.06862854212519999;2;True;22;1;75.38483280316251
472;472;1449488532;2.13684511185;0.789668440819;0.06877399235960001;2;True;22;1;75.38483280316251
473;473;1449488532;2.1370592117299996;0.7892042398450001;0.0692149996758;2;True;22;1;75.38483280316251
474;474;1449488532;2.1367380619;0.79019600153;0.0680245384574;2;True;22;1;75.38483280316251
475;475;1449488532;2.13695001602;0.7899011373520001;0.0684881061316;2;True;22;1;75.38483280316251
476;476;1449488532;2.13664627075;0.789911746979;0.0685299783945;2;True;22;1;75.38483280316251
477;477;1449488532;2.13680744171;0.789990663528;0.0683029592037;2;True;22;1;75.38483280316251
478;478;1449488532;2.13688015938;0.7900285720829999;0.0684118196368;2;True;22;1;75.38483280316251
479;479;1449488532;2.13655614853;0.789714992046;0.068910703063;2;True;22;1;75.38483280316251
480;480;1449488532;2.13696217537;0.789907753468;0.0685115903616;2;True;22;1;75.38483280316251
481;481;1449488532;2.13681006432;0.789811193943;0.06855686753990001;2;True;22;1;75.38483280316251
482;482;1449488532;2.13673853874;0.789610147476;0.06843020021919999;2;True;22;1;75.38483280316251
483;483;1449488532;2.13692450523;0.789705276489;0.068431019783;2;True;22;1;75.38483280316251
484;484;1449488532;2.1367964744599997;0.789699077606;0.0684261023998;2;True;22;1;75.38483280316251
485;485;1449488532;2.13686013222;0.7899144291879999;0.06849770992990001;2;True;22;1;75.38483280316251
486;486;1449488532;2.13669848442;0.7901476621629999;0.0684833079576;2;True;22;1;75.38483280316251
487;487;1449488532;2.13720083237;0.790039241314;0.06839663535360001;2;True;22;1;75.38483280316251
488;488;1449488532;2.13617968559;0.7898606061939999;0.0682846531272;2;True;22;1;75.38483280316251
489;489;1449488532;2.13707375526;0.789725363255;0.0687491521239;2;True;22;1;75.38483280316251
490;490;1449488532;2.13637900352;0.789740383625;0.0684982761741;2;True;22;1;75.38483280316251
491;491;1449488532;2.13690161705;0.7895395755769999;0.0687827914953;2;True;22;1;75.38483280316251
492;492;1449488532;2.1370189189900004;0.7899280190469999;0.06849106401209999;2;True;22;1;75.38483280316251
493;493;1449488532;2.1369302272799997;0.789910793304;0.06847987324;2;True;22;1;75.38483280316251
494;494;1449488532;2.1371266841900005;0.7897021174429999;0.06900035589930001;2;True;22;1;75.38483280316251
495;495;1449488532;2.13702654839;0.789876461029;0.0684744641185;2;True;22;1;75.38483280316251
496;496;1449488532;2.1366288662;0.789785802364;0.068481490016;2;True;22;1;75.38483280316251
497;497;1449488532;2.13681149483;0.7897920608519999;0.06862889975309999;2;True;22;1;75.38483280316251
498;498;1449488532;2.1364262104;0.78936111927;0.068619325757;2;True;22;1;75.38483280316251
499;499;1449488532;2.1369612216900005;0.789937317371;0.0684813410044;2;True;22;1;75.38483280316251
500;500;1449488532;2.13708639145;0.789971113205;0.06848346441980001;2;True;22;1;75.38483280316251
501;501;1449488532;2.1365628242500003;0.7897603511810001;0.0684900060296;2;True;22;1;75.38483280316251
502;502;1449488532;2.13674545288;0.789486289024;0.068950086832;2;True;22;1;75.38483280316251
503;503;1449488532;2.13664340973;0.789339363575;0.0688075944781;2;True;22;1;75.38483280316251
504;504;1449488532;2.13693356514;0.78977149725;0.0684651583433;2;True;22;1;75.38483280316251
505;505;1449488532;2.1370787620500002;0.789817094803;0.06857624650000001;2;True;22;1;75.38483280316251
506;506;1449488532;2.1372461319;0.78991740942;0.0684907883406;2;True;22;1;75.38483280316251
507;507;1449488532;2.1368560790999998;0.789860069752;0.0684757456183;2;True;22;1;75.38483280316251
508;508;1449488532;2.1370446681999997;0.7895203232770001;0.068610355258;2;True;22;1;75.38483280316251
509;509;1449488532;2.1368639469099997;0.789671182632;0.06864567846059999;2;True;22;1;75.38483280316251
510;510;1449488532;2.13687300682;0.789842069149;0.0686328262091;2;True;22;1;75.38483280316251
511;511;1449488532;2.13674879074;0.790093958378;0.06828969717029999;2;True;22;1;75.38483280316251
512;512;1449488532;2.1370997428900003;0.790002584457;0.0683401972055;2;True;22;1;75.38483280316251
513;513;1449488532;2.13684058189;0.7896611094470001;0.06844173371790001;2;True;22;1;75.38483280316251
514;514;1449488532;2.13656759262;0.789942502975;0.0684791505337;2;True;22;1;75.38483280316251
515;515;1449488532;2.1366164684299997;0.78995513916;0.06881955266;2;True;22;1;75.38483280316251
516;516;1449488532;2.1368780136099996;0.789759635925;0.0681678950787;2;True;22;1;75.38483280316251
517;517;1449488532;2.13663744926;0.790176033974;0.06830442696809999;2;True;22;1;75.38483280316251
518;518;1449488532;2.1371846199;0.790178358555;0.0684486553073;2;True;22;1;75.38483280316251
519;519;1449488532;2.13635849953;0.78998452425;0.06813791394230001;2;True;22;1;75.38483280316251
520;520;1449488532;2.13643574715;0.789592206478;0.068330027163;2;True;22;1;75.38483280316251
521;521;1449488532;2.13698458672;0.7898491024969999;0.0684449821711;2;True;22;1;75.38483280316251
522;522;1449488533;2.13705348969;0.789812445641;0.06802677363160001;3;True;22;1;75.38483280316251
523;523;1449488533;2.1365439891799998;0.78993421793;0.0684710070491;3;True;22;1;75.38483280316251
524;524;1449488533;2.1367275714900003;0.7898489236830001;0.0684193000197;3;True;22;1;75.38483280316251
525;525;1449488533;2.13695573807;0.789884150028;0.0684421658516;3;True;22;1;75.38483280316251
526;526;1449488533;2.13660430908;0.789717137814;0.0684971287847;3;True;22;1;75.38483280316251
527;527;1449488533;2.1370625495900004;0.78988969326;0.06844287365669999;3;True;22;1;75.38483280316251
528;528;1449488533;2.13662457466;0.789704859257;0.0684788674116;3;True;22;1;75.38483280316251
529;529;1449488533;2.13684487343;0.7898855209350001;0.0684290900826;3;True;22;1;75.38483280316251
530;530;1449488533;2.13687515259;0.789940416813;0.0683035999537;3;True;22;1;75.38483280316251
531;531;1449488533;2.13683342934;0.789871633053;0.0684314593673;3;True;22;1;75.38483280316251
532;532;1449488533;2.13690114021;0.7898971438410001;0.0685846507549;3;True;22;1;75.38483280316251
533;533;1449488533;2.1370320320099996;0.789599895477;0.06881593167780001;3;True;22;1;75.38483280316251
534;534;1449488533;2.1364686489099998;0.7896028757100001;0.068482644856;3;True;22;1;75.38483280316251
535;535;1449488533;2.13718247414;0.790132462978;0.06843138486150001;3;True;22;1;75.38483280316251
536;536;1449488533;2.13662052155;0.789823055267;0.0683410018682;3;True;22;1;75.38483280316251
537;537;1449488533;2.13668346405;0.789849758148;0.0684013441205;3;True;22;1;75.38483280316251
538;538;1449488533;2.13651943207;0.789806604385;0.0683127790689;3;True;22;1;75.38483280316251
539;539;1449488533;2.13690662384;0.789793848991;0.0685075744987;3;True;22;1;75.38483280316251
540;540;1449488533;2.1364185810099996;0.789827942848;0.0680497214198;3;True;22;1;75.38483280316251
541;541;1449488533;2.13679337502;0.789866566658;0.06841127574440001;3;True;22;1;75.38483280316251
542;542;1449488533;2.13697767258;0.78960865736;0.0688032209873;3;True;22;1;75.38483280316251
543;543;1449488533;2.1370844841;0.7901026606559999;0.0686039328575;3;True;22;1;75.38483280316251
544;544;1449488533;2.13719201088;0.789649188519;0.0686091259122;3;True;22;1;75.38483280316251
545;545;1449488533;2.1367473602300002;0.789980530739;0.0684149861336;3;True;22;1;75.38483280316251
546;546;1449488533;2.13665246964;0.7894890904430001;0.0687616318464;3;True;22;1;75.38483280316251
547;547;1449488533;2.13685679436;0.7898843884469999;0.06841956079009999;3;True;22;1;75.38483280316251
548;548;1449488533;2.13652443886;0.7895965576170001;0.0686065554619;3;True;22;1;75.38483280316251
549;549;1449488533;2.13650894165;0.789701640606;0.06826617568730001;3;True;22;1;75.38483280316251
550;550;1449488533;2.13629198074;0.7894345521930001;0.0683924034238;3;True;22;1;75.38483280316251
551;551;1449488533;2.1366276741;0.789859652519;0.0684055909514;3;True;22;1;75.38483280316251
552;552;1449488533;2.13661360741;0.7896569967270001;0.0684896335006;3;True;22;1;75.38483280316251
553;553;1449488533;2.13697290421;0.7898846268649999;0.06841911375519999;3;True;22;1;75.38483280316251
554;554;1449488533;2.13671350479;0.7899243831630001;0.0683685988188;3;True;22;1;75.38483280316251
555;555;1449488533;2.1366930007900002;0.789581418037;0.0684009417892;3;True;22;1;75.38483280316251
556;556;1449488533;2.1368560790999998;0.789827048779;0.06839423626659999;3;True;22;1;75.38483280316251
557;557;1449488533;2.13687515259;0.789769649506;0.0685598552227;3;True;22;1;75.38483280316251
558;558;1449488533;2.1369497776;0.789839863777;0.0684794709086;3;True;22;1;75.38483280316251
559;559;1449488533;2.1362993717200003;0.789390325546;0.0684709846973;3;True;22;1;75.38483280316251
560;560;1449488533;2.1367573738099996;0.789927721024;0.068675391376;3;True;22;1;75.38483280316251
561;561;1449488533;2.1366264820099996;0.789928376675;0.0684751197696;3;True;22;1;75.38483280316251
562;562;1449488533;2.1370339393599997;0.789901196957;0.0683833062649;3;True;22;1;75.38483280316251
563;563;1449488533;2.1369931697799998;0.790211439133;0.0683723017573;3;True;22;1;75.38483280316251
564;564;1449488533;2.13726854324;0.789463102818;0.06856767088169999;3;True;22;1;75.38483280316251
565;565;1449488533;2.13689446449;0.789949834347;0.06843862682580001;3;True;22;1;75.38483280316251
566;566;1449488533;2.13696289062;0.789872288704;0.0684279575944;3;True;22;1;75.38483280316251
567;567;1449488533;2.1369607448599997;0.789922237396;0.0687211304903;3;True;22;1;75.38483280316251
568;568;1449488533;2.1365315914200003;0.7898246645929999;0.0683861225843;3;True;22;1;75.38483280316251
569;569;1449488533;2.13681030273;0.7898460030560001;0.0684352889657;3;True;22;1;75.38483280316251
570;570;1449488533;2.13703656197;0.789872586727;0.068483248353;3;True;22;1;75.38483280316251
571;571;1449488533;2.13665056229;0.78980922699;0.0683452859521;3;True;22;1;75.38483280316251
572;572;1449488533;2.13681292534;0.7897851467129999;0.0684458166361;3;True;22;1;75.38483280316251
573;573;1449488533;2.136729002;0.789191901684;0.0682268440723;3;True;22;1;75.38483280316251
574;574;1449488533;2.13648605347;0.7894417643549999;0.0685206577182;3;True;22;1;75.38483280316251
575;575;1449488533;2.13697743416;0.789730370045;0.0685110986233;3;True;22;1;75.38483280316251
576;576;1449488533;2.1371409893;0.790015280247;0.0683497935534;3;True;22;1;75.38483280316251
577;577;1449488533;2.13659214973;0.789998233318;0.0681867897511;3;True;22;1;75.38483280316251
578;578;1449488533;2.13687753677;0.7902171015739999;0.068496696651;3;True;22;1;75.38483280316251
579;579;1449488533;2.1369698047599996;0.7899039387700001;0.06846019625659999;3;True;22;1;75.38483280316251
580;580;1449488533;2.1368401050599997;0.7898404002189999;0.0684470534325;3;True;22;1;75.38483280316251
581;581;1449488533;2.13647508621;0.789738357067;0.0684487447143;3;True;22;1;75.38483280316251
582;582;1449488533;2.13693451881;0.790160834789;0.06850510090590001;3;True;22;1;75.38483280316251
583;583;1449488533;2.13653874397;0.7899114489560001;0.0683150067925;3;True;22;1;75.38483280316251
584;584;1449488533;2.1368534565;0.7900428175929999;0.06846050918100001;3;True;22;1;75.38483280316251
585;585;1449488533;2.13707494736;0.789828002453;0.06875272095200001;3;True;22;1;75.38483280316251
586;586;1449488533;2.1372649669599997;0.7899138331409999;0.0685017034411;3;True;22;1;75.38483280316251
587;587;1449488533;2.1365344524400003;0.789689540863;0.0684679150581;3;True;22;1;75.38483280316251
588;588;1449488533;2.13652610779;0.789332211018;0.06874869018789999;3;True;22;1;75.38483280316251
589;589;1449488533;2.13696789742;0.789915144444;0.0687081664801;3;True;22;1;75.38483280316251
590;590;1449488533;2.13696336746;0.7898538112639999;0.0684794336557;3;True;22;1;75.38483280316251
591;591;1449488533;2.13686156273;0.7899898886679999;0.0684054791927;3;True;22;1;75.38483280316251
592;592;1449488533;2.1365196704900002;0.789762318134;0.0683225467801;3;True;22;1;75.38483280316251
593;593;1449488533;2.1371219158200003;0.789811968803;0.0685626640916;3;True;22;1;75.38483280316251
594;594;1449488533;2.13664269447;0.7898659110070001;0.0684382840991;3;True;22;1;75.38483280316251
595;595;1449488533;2.13690900803;0.789737999439;0.0687208846211;3;True;22;1;75.38483280316251
596;596;1449488533;2.13710045815;0.789968132973;0.0684982091188;3;True;22;1;75.38483280316251
597;597;1449488533;2.1371479034400003;0.7899189591410001;0.06863178312780001;3;True;22;1;75.38483280316251
598;598;1449488533;2.13671088219;0.789822936058;0.06845777481790001;3;True;22;1;75.38483280316251
599;599;1449488533;2.1370074749000003;0.789324343204;0.0691362395883;3;True;22;1;75.38483280316251
600;600;1449488533;2.1369082927700003;0.789882183075;0.0684708505869;3;True;22;1;75.38483280316251
601;601;1449488533;2.13691949844;0.790015280247;0.0684706121683;3;True;22;1;75.38483280316251
602;602;1449488533;2.1371512413;0.7900516986849999;0.06847573071719999;3;True;22;1;75.38483280316251
603;603;1449488533;2.1364884376499997;0.7896062135699999;0.06851323693990001;3;True;22;1;75.38483280316251
604;604;1449488533;2.1370124816900002;0.789884746075;0.0684934556484;3;True;22;1;75.38483280316251
605;605;1449488533;2.13638520241;0.7896761894230001;0.06836253404619999;3;True;22;1;75.38483280316251
606;606;1449488533;2.13725972176;0.7899196743970001;0.0685075372458;3;True;22;1;75.38483280316251
607;607;1449488533;2.13692450523;0.789853453636;0.0684725642204;3;True;22;1;75.38483280316251
608;608;1449488533;2.13643145561;0.790273070335;0.068375274539;3;True;22;1;75.38483280316251
609;609;1449488533;2.13724899292;0.7899127602580001;0.0685062110424;3;True;22;1;75.38483280316251
610;610;1449488533;2.13693141937;0.789870977402;0.0684799924493;3;True;22;1;75.38483280316251
