;Unnamed: 0;header_stamp_secs;pose_position_x;pose_position_y;pose_position_z;seconds;drop_values;flight_number;label;dtw
0;0;1449488869;2.1598238944999997;0.811478495598;0.0686357393861;0;True;24;1;75.77406356856234
1;1;1449488869;2.1594846248599997;0.810889661312;0.0689933076501;0;True;24;1;75.77406356856234
2;2;1449488869;2.1598508358;0.811489224434;0.0686257481575;0;True;24;1;75.77406356856234
3;3;1449488869;2.1596865654;0.811588466167;0.06859173625710001;0;True;24;1;75.77406356856234
4;4;1449488869;2.15931344032;0.811424136162;0.0686960443854;0;True;24;1;75.77406356856234
5;5;1449488869;2.1596341133099997;0.811184048653;0.06880066543819999;0;True;24;1;75.77406356856234
6;6;1449488869;2.15939044952;0.8112341165539999;0.0686651989818;0;True;24;1;75.77406356856234
7;7;1449488869;2.1596364975;0.811300158501;0.0689434707165;0;True;24;1;75.77406356856234
8;8;1449488869;2.15970420837;0.811511278152;0.0685016214848;0;True;24;1;75.77406356856234
9;9;1449488869;2.15963578224;0.81151664257;0.06862155348059999;0;True;24;1;75.77406356856234
10;10;1449488869;2.1596541404700003;0.8114851713179999;0.0685750320554;0;True;24;1;75.77406356856234
11;11;1449488869;2.15953874588;0.811617314816;0.06862424314019999;0;True;24;1;75.77406356856234
12;12;1449488869;2.15958809853;0.811372637749;0.068699195981;0;True;24;1;75.77406356856234
13;13;1449488869;2.15977668762;0.811688601971;0.0686169862747;0;True;24;1;75.77406356856234
14;14;1449488869;2.15904641151;0.811460971832;0.0685438066721;0;True;24;1;75.77406356856234
15;15;1449488869;2.15969967842;0.8115829229350001;0.0686254873872;0;True;24;1;75.77406356856234
16;16;1449488869;2.1595127582599996;0.811577558517;0.068278118968;0;True;24;1;75.77406356856234
17;17;1449488869;2.15957021713;0.811554670334;0.0685933679342;0;True;24;1;75.77406356856234
18;18;1449488869;2.15917730331;0.8110902309420001;0.0688995420933;0;True;24;1;75.77406356856234
19;19;1449488869;2.15963602066;0.81146478653;0.06860027462240001;0;True;24;1;75.77406356856234
20;20;1449488869;2.15985989571;0.8114931583399999;0.06863144040109999;0;True;24;1;75.77406356856234
21;21;1449488869;2.15934872627;0.811617136002;0.0683619752526;0;True;24;1;75.77406356856234
22;22;1449488869;2.159044981;0.811099112034;0.0687884539366;0;True;24;1;75.77406356856234
23;23;1449488869;2.1590206623099997;0.81144118309;0.0683922097087;0;True;24;1;75.77406356856234
24;24;1449488869;2.15955686569;0.811648011208;0.068534001708;0;True;24;1;75.77406356856234
25;25;1449488869;2.1598172187799998;0.8115358948710001;0.068637624383;0;True;24;1;75.77406356856234
26;26;1449488869;2.1599931716900005;0.811686813831;0.0691480413079;0;True;24;1;75.77406356856234
27;27;1449488869;2.15944480896;0.8114138245579999;0.06860306859019999;0;True;24;1;75.77406356856234
28;28;1449488869;2.15964341164;0.811442553997;0.0686175525188;0;True;24;1;75.77406356856234
29;29;1449488869;2.15932536125;0.8116979598999999;0.0686711966991;0;True;24;1;75.77406356856234
30;30;1449488869;2.15950942039;0.811617970467;0.0685755237937;0;True;24;1;75.77406356856234
31;31;1449488869;2.1594221591900005;0.81159055233;0.0687033832073;0;True;24;1;75.77406356856234
32;32;1449488869;2.15967488289;0.8113201856610001;0.0683750659227;0;True;24;1;75.77406356856234
33;33;1449488869;2.15957450867;0.811368465424;0.068646363914;0;True;24;1;75.77406356856234
34;34;1449488869;2.15967464447;0.811506330967;0.06862198561430001;0;True;24;1;75.77406356856234
35;35;1449488869;2.15922212601;0.811704933643;0.0684559494257;0;True;24;1;75.77406356856234
36;36;1449488869;2.1596193313599996;0.811426758766;0.0686679854989;0;True;24;1;75.77406356856234
37;37;1449488869;2.1593439579;0.811586260796;0.0683943778276;0;True;24;1;75.77406356856234
38;38;1449488869;2.1593110561400004;0.8112457990649999;0.0688932985067;0;True;24;1;75.77406356856234
39;39;1449488869;2.159460783;0.811292767525;0.0687317326665;0;True;24;1;75.77406356856234
40;40;1449488869;2.15937399864;0.811354637146;0.0685810670257;0;True;24;1;75.77406356856234
41;41;1449488869;2.1596479415900003;0.811430037022;0.0689215064049;0;True;24;1;75.77406356856234
42;42;1449488869;2.15980482101;0.8113319873810001;0.0687945112586;0;True;24;1;75.77406356856234
43;43;1449488869;2.15929245949;0.811403274536;0.068608134985;0;True;24;1;75.77406356856234
44;44;1449488869;2.15982270241;0.811559915543;0.0686186477542;0;True;24;1;75.77406356856234
45;45;1449488869;2.15934562683;0.810944676399;0.0689943656325;0;True;24;1;75.77406356856234
46;46;1449488869;2.1596443653099997;0.8108931183820001;0.069275200367;0;True;24;1;75.77406356856234
47;47;1449488869;2.15953731537;0.811755180359;0.0684966370463;0;True;24;1;75.77406356856234
48;48;1449488869;2.15911960602;0.811500191689;0.0685545355082;0;True;24;1;75.77406356856234
49;49;1449488869;2.15909075737;0.811443924904;0.0686425492167;0;True;24;1;75.77406356856234
50;50;1449488869;2.15921521187;0.811760127544;0.0682622343302;0;True;24;1;75.77406356856234
51;51;1449488869;2.1595637798299996;0.8115008473399999;0.0685947462916;0;True;24;1;75.77406356856234
52;52;1449488869;2.1595916747999997;0.8116878271100001;0.0686044543982;0;True;24;1;75.77406356856234
53;53;1449488869;2.15967845917;0.8116943836210001;0.0685804113746;0;True;24;1;75.77406356856234
54;54;1449488869;2.15933299065;0.811465024948;0.0684751719236;0;True;24;1;75.77406356856234
55;55;1449488869;2.15918540955;0.811724662781;0.0683836489916;0;True;24;1;75.77406356856234
56;56;1449488869;2.15966391563;0.8115245699879999;0.0685897767544;0;True;24;1;75.77406356856234
57;57;1449488869;2.15914463997;0.8112932443619999;0.06872751563789999;0;True;24;1;75.77406356856234
58;58;1449488869;2.1596536636400003;0.811463594437;0.0683639496565;0;True;24;1;75.77406356856234
59;59;1449488869;2.15957593918;0.811033129692;0.0691981911659;0;True;24;1;75.77406356856234
60;60;1449488869;2.1594812869999997;0.8109130263330001;0.0690673962235;0;True;24;1;75.77406356856234
61;61;1449488870;2.15975952148;0.811304628849;0.0686285495758;1;True;24;1;75.77406356856234
62;62;1449488870;2.15947961807;0.811381936073;0.06896400451660001;1;True;24;1;75.77406356856234
63;63;1449488870;2.15966367722;0.8114197850229999;0.0686587616801;1;True;24;1;75.77406356856234
64;64;1449488870;2.15958404541;0.8114487528800001;0.06855591386559999;1;True;24;1;75.77406356856234
65;65;1449488870;2.15947008133;0.811587393284;0.0684064403176;1;True;24;1;75.77406356856234
66;66;1449488870;2.15967488289;0.8115839362139999;0.0683375597;1;True;24;1;75.77406356856234
67;67;1449488870;2.15917229652;0.811771154404;0.06843941658739999;1;True;24;1;75.77406356856234
68;68;1449488870;2.1590514183000002;0.811797738075;0.0683032721281;1;True;24;1;75.77406356856234
69;69;1449488870;2.15975093842;0.811550617218;0.06862196326259999;1;True;24;1;75.77406356856234
70;70;1449488870;2.15969491005;0.811594963074;0.06884308904410001;1;True;24;1;75.77406356856234
71;71;1449488870;2.1597006321000003;0.81159979105;0.0686418414116;1;True;24;1;75.77406356856234
72;72;1449488870;2.15878129005;0.811658501625;0.0684845820069;1;True;24;1;75.77406356856234
73;73;1449488870;2.15957713127;0.811360836029;0.06860903650519999;1;True;24;1;75.77406356856234
74;74;1449488870;2.15975785255;0.811559855938;0.0686213970184;1;True;24;1;75.77406356856234
75;75;1449488870;2.15967988968;0.8116604685780001;0.0686011686921;1;True;24;1;75.77406356856234
76;76;1449488870;2.1594738960299997;0.811352729797;0.0687526911497;1;True;24;1;75.77406356856234
77;77;1449488870;2.15996646881;0.81169706583;0.069133490324;1;True;24;1;75.77406356856234
78;78;1449488870;2.1592223644299997;0.811655700207;0.0686894804239;1;True;24;1;75.77406356856234
79;79;1449488870;2.159740448;0.811599671841;0.0686364769936;1;True;24;1;75.77406356856234
80;80;1449488870;2.15975642204;0.8116195797920001;0.06862010806800001;1;True;24;1;75.77406356856234
81;81;1449488870;2.15955877304;0.8114950656890001;0.06865027546880001;1;True;24;1;75.77406356856234
82;82;1449488870;2.1597707271599997;0.810607492924;0.0691853612661;1;True;24;1;75.77406356856234
83;83;1449488870;2.1594684124000003;0.811462879181;0.0684230625629;1;True;24;1;75.77406356856234
84;84;1449488870;2.15960097313;0.811533749104;0.0686499848962;1;True;24;1;75.77406356856234
85;85;1449488870;2.15965533257;0.8115804195399999;0.06860152632000001;1;True;24;1;75.77406356856234
86;86;1449488870;2.15991950035;0.811660826206;0.06863410770890001;1;True;24;1;75.77406356856234
87;87;1449488870;2.1596982479099998;0.8112279772759999;0.0684082955122;1;True;24;1;75.77406356856234
88;88;1449488870;2.1597468853;0.8116103410719999;0.0686481520534;1;True;24;1;75.77406356856234
89;89;1449488870;2.16000390053;0.811458170414;0.0684178248048;1;True;24;1;75.77406356856234
90;90;1449488870;2.15950989723;0.811715066433;0.0684424564242;1;True;24;1;75.77406356856234
91;91;1449488870;2.15905642509;0.811134517193;0.0687636509538;1;True;24;1;75.77406356856234
92;92;1449488870;2.15924596786;0.811403036118;0.0687112659216;1;True;24;1;75.77406356856234
93;93;1449488870;2.15888333321;0.811814546585;0.0684120059013;1;True;24;1;75.77406356856234
94;94;1449488870;2.15906596184;0.8117257952689999;0.0684492737055;1;True;24;1;75.77406356856234
95;95;1449488870;2.15969204903;0.811229765415;0.0688983649015;1;True;24;1;75.77406356856234
96;96;1449488870;2.15971422195;0.8117672204970001;0.06879822909830001;1;True;24;1;75.77406356856234
97;97;1449488870;2.15926671028;0.811818420887;0.06849738210440001;1;True;24;1;75.77406356856234
98;98;1449488870;2.15968251228;0.8115944862369999;0.0685773193836;1;True;24;1;75.77406356856234
99;99;1449488870;2.1594440937;0.8112590312960001;0.0688757970929;1;True;24;1;75.77406356856234
100;100;1449488870;2.1591334343;0.811176419258;0.06891304254530001;1;True;24;1;75.77406356856234
101;101;1449488870;2.15976595879;0.811304211617;0.0686479583383;1;True;24;1;75.77406356856234
102;102;1449488870;2.15931725502;0.811361014843;0.0686447769403;1;True;24;1;75.77406356856234
103;103;1449488870;2.15968847275;0.811429679394;0.06874459981919999;1;True;24;1;75.77406356856234
104;104;1449488870;2.15899443626;0.811702847481;0.0685223639011;1;True;24;1;75.77406356856234
105;105;1449488870;2.1596744060499997;0.8113239407539999;0.0686369761825;1;True;24;1;75.77406356856234
106;106;1449488870;2.1594505310099996;0.8114212155339999;0.06861188262699999;1;True;24;1;75.77406356856234
107;107;1449488870;2.15950202942;0.811264574528;0.06876517087220001;1;True;24;1;75.77406356856234
108;108;1449488870;2.15959954262;0.811686933041;0.06856442987919999;1;True;24;1;75.77406356856234
109;109;1449488870;2.15920424461;0.811491012573;0.06890308856960001;1;True;24;1;75.77406356856234
110;110;1449488870;2.1595873832700003;0.811644971371;0.0685897320509;1;True;24;1;75.77406356856234
111;111;1449488870;2.1593310833;0.811255991459;0.0687028393149;1;True;24;1;75.77406356856234
112;112;1449488870;2.1595187187200002;0.811623156071;0.0686029419303;1;True;24;1;75.77406356856234
113;113;1449488870;2.15903401375;0.8116748929019999;0.0685895234346;1;True;24;1;75.77406356856234
114;114;1449488870;2.15948534012;0.81125587225;0.0687894672155;1;True;24;1;75.77406356856234
115;115;1449488870;2.15924143791;0.811092495918;0.0688985437155;1;True;24;1;75.77406356856234
116;116;1449488870;2.15961503983;0.8116669654850001;0.0685978680849;1;True;24;1;75.77406356856234
117;117;1449488870;2.1597840786;0.811570823193;0.0686327219009;1;True;24;1;75.77406356856234
118;118;1449488870;2.15940928459;0.8113321661949999;0.0685617402196;1;True;24;1;75.77406356856234
119;119;1449488870;2.15906357765;0.811463117599;0.068486712873;1;True;24;1;75.77406356856234
120;120;1449488870;2.15961813927;0.811388552189;0.0686998218298;1;True;24;1;75.77406356856234
121;121;1449488870;2.1594729423500003;0.811413764954;0.06859213858839999;1;True;24;1;75.77406356856234
122;122;1449488870;2.1593351364099997;0.8110244870190001;0.06871841847900001;1;True;24;1;75.77406356856234
123;123;1449488870;2.15959835052;0.811697244644;0.06855638325209999;1;True;24;1;75.77406356856234
124;124;1449488870;2.15917277336;0.811521828175;0.0683960169554;1;True;24;1;75.77406356856234
125;125;1449488870;2.15954113007;0.811603009701;0.0687016248703;1;True;24;1;75.77406356856234
126;126;1449488870;2.15963125229;0.811283886433;0.0687317103148;1;True;24;1;75.77406356856234
127;127;1449488870;2.15957593918;0.811318933964;0.0685994029045;1;True;24;1;75.77406356856234
128;128;1449488870;2.15921998024;0.8111771941179999;0.0688596814871;1;True;24;1;75.77406356856234
129;129;1449488870;2.1595761776;0.811503529549;0.0686167478561;1;True;24;1;75.77406356856234
130;130;1449488870;2.15954709053;0.81156027317;0.0685802102089;1;True;24;1;75.77406356856234
131;131;1449488870;2.1595416069;0.8115945458409999;0.06863322854040001;1;True;24;1;75.77406356856234
132;132;1449488870;2.15937709808;0.811465680599;0.0684322416782;1;True;24;1;75.77406356856234
133;133;1449488870;2.1595821380599998;0.811661303043;0.0688281133771;1;True;24;1;75.77406356856234
134;134;1449488870;2.1592962741900004;0.8112074136730001;0.0688766539097;1;True;24;1;75.77406356856234
135;135;1449488870;2.15971112251;0.811490297318;0.06859453022480001;1;True;24;1;75.77406356856234
136;136;1449488870;2.1593275070200004;0.811715126038;0.06832848489280001;1;True;24;1;75.77406356856234
137;137;1449488870;2.15909647942;0.8110321760179999;0.0687926486135;1;True;24;1;75.77406356856234
138;138;1449488870;2.15898489952;0.811800301075;0.0684214010835;1;True;24;1;75.77406356856234
139;139;1449488870;2.1598455905900003;0.81153345108;0.0686217024922;1;True;24;1;75.77406356856234
140;140;1449488870;2.15942835808;0.8115435242649999;0.0687574669719;1;True;24;1;75.77406356856234
141;141;1449488870;2.15934228897;0.8110688328740001;0.0687977224588;1;True;24;1;75.77406356856234
142;142;1449488870;2.15960097313;0.8115496039390001;0.0683578029275;1;True;24;1;75.77406356856234
143;143;1449488870;2.15957903862;0.811404585838;0.0687023103237;1;True;24;1;75.77406356856234
144;144;1449488870;2.1591732502000003;0.811578691006;0.06856208294630001;1;True;24;1;75.77406356856234
145;145;1449488870;2.15942811966;0.81140100956;0.06855396926400001;1;True;24;1;75.77406356856234
146;146;1449488870;2.1597352027900003;0.811482429504;0.068546615541;1;True;24;1;75.77406356856234
147;147;1449488870;2.1594259738900003;0.811337828636;0.0686641037464;1;True;24;1;75.77406356856234
148;148;1449488870;2.15949177742;0.811530709267;0.0687489062548;1;True;24;1;75.77406356856234
149;149;1449488870;2.15908050537;0.811859726906;0.0683180689812;1;True;24;1;75.77406356856234
150;150;1449488870;2.15972733498;0.8115932941439999;0.0686625540257;1;True;24;1;75.77406356856234
151;151;1449488870;2.15961241722;0.8114984631540001;0.0685963705182;1;True;24;1;75.77406356856234
152;152;1449488870;2.15953230858;0.811341226101;0.06874587386850001;1;True;24;1;75.77406356856234
153;153;1449488870;2.15960764885;0.811621308327;0.06843607872719999;1;True;24;1;75.77406356856234
154;154;1449488870;2.15951538086;0.8113092780110001;0.068643912673;1;True;24;1;75.77406356856234
155;155;1449488870;2.15970468521;0.81142950058;0.06854271888730001;1;True;24;1;75.77406356856234
156;156;1449488870;2.1596007347099997;0.811556518078;0.0685619264841;1;True;24;1;75.77406356856234
157;157;1449488870;2.1594445705400003;0.811681866646;0.0685426443815;1;True;24;1;75.77406356856234
158;158;1449488870;2.15955376625;0.811531841755;0.0686244219542;1;True;24;1;75.77406356856234
159;159;1449488870;2.15916919708;0.811340928078;0.0686819478869;1;True;24;1;75.77406356856234
160;160;1449488870;2.1590716838799997;0.8115033507350001;0.06847188621759999;1;True;24;1;75.77406356856234
161;161;1449488870;2.15967702866;0.8116543293;0.0686037540436;1;True;24;1;75.77406356856234
162;162;1449488870;2.15915489197;0.8112988471979999;0.0688729435205;1;True;24;1;75.77406356856234
163;163;1449488870;2.15914964676;0.81143116951;0.0688376650214;1;True;24;1;75.77406356856234
164;164;1449488870;2.15966176987;0.81163841486;0.0686059743166;1;True;24;1;75.77406356856234
165;165;1449488870;2.15933775902;0.811522603035;0.0684659928083;1;True;24;1;75.77406356856234
166;166;1449488870;2.15902709961;0.811668395996;0.06849447637799999;1;True;24;1;75.77406356856234
167;167;1449488870;2.15953373909;0.8116658926010001;0.0686043277383;1;True;24;1;75.77406356856234
168;168;1449488870;2.1594882011400003;0.811391472816;0.06880807131529999;1;True;24;1;75.77406356856234
169;169;1449488870;2.1595351696000002;0.8113938570020001;0.0689163506031;1;True;24;1;75.77406356856234
170;170;1449488870;2.15931081772;0.8114476203919999;0.0684243068099;1;True;24;1;75.77406356856234
171;171;1449488870;2.15954136848;0.811428189278;0.0686382502317;1;True;24;1;75.77406356856234
172;172;1449488870;2.1597080230700003;0.8117372393610001;0.06862194836140001;1;True;24;1;75.77406356856234
173;173;1449488870;2.15931510925;0.811046540737;0.0687706917524;1;True;24;1;75.77406356856234
174;174;1449488870;2.1594610214200003;0.8114430308339999;0.0686145871878;1;True;24;1;75.77406356856234
175;175;1449488870;2.15923070908;0.811531662941;0.0686335340142;1;True;24;1;75.77406356856234
176;176;1449488870;2.15929484367;0.8111522793770001;0.0686124563217;1;True;24;1;75.77406356856234
177;177;1449488870;2.1596338748900004;0.81145465374;0.06862734258169999;1;True;24;1;75.77406356856234
178;178;1449488870;2.15949106216;0.811004042625;0.0687463656068;1;True;24;1;75.77406356856234
179;179;1449488870;2.1596479415900003;0.811655342579;0.068611048162;1;True;24;1;75.77406356856234
180;180;1449488870;2.15947318077;0.811616778374;0.0685394182801;1;True;24;1;75.77406356856234
181;181;1449488870;2.1588649749799997;0.811295032501;0.0686111599207;1;True;24;1;75.77406356856234
182;182;1449488870;2.15953159332;0.811372995377;0.0686081796885;1;True;24;1;75.77406356856234
183;183;1449488870;2.1596198082;0.8113756775859999;0.0686834529042;1;True;24;1;75.77406356856234
184;184;1449488870;2.15971493721;0.8116419911380001;0.0686205402017;1;True;24;1;75.77406356856234
185;185;1449488870;2.15962743759;0.811698973179;0.0686053335667;1;True;24;1;75.77406356856234
186;186;1449488870;2.15972900391;0.8116205334659999;0.06866056472059999;1;True;24;1;75.77406356856234
187;187;1449488870;2.1592540741;0.8113695979119999;0.06872472912069999;1;True;24;1;75.77406356856234
188;188;1449488870;2.15914678574;0.8111811876299999;0.0687327235937;1;True;24;1;75.77406356856234
189;189;1449488870;2.15952396393;0.8118969202040001;0.06883441656830001;1;True;24;1;75.77406356856234
190;190;1449488870;2.15941309929;0.811401903629;0.06878702342510001;1;True;24;1;75.77406356856234
191;191;1449488870;2.15957522392;0.811507046223;0.06863860040900001;1;True;24;1;75.77406356856234
192;192;1449488870;2.1595187187200002;0.8112702369689999;0.0685738995671;1;True;24;1;75.77406356856234
193;193;1449488870;2.15952420235;0.8113511800769999;0.0686141252518;1;True;24;1;75.77406356856234
194;194;1449488870;2.15894532204;0.8114181160930001;0.06846926361320001;1;True;24;1;75.77406356856234
195;195;1449488870;2.15912389755;0.811828672886;0.0683859214187;1;True;24;1;75.77406356856234
196;196;1449488870;2.15958380699;0.8115285038950001;0.06861195713280001;1;True;24;1;75.77406356856234
197;197;1449488870;2.15916061401;0.8114465475079999;0.0685602054;1;True;24;1;75.77406356856234
198;198;1449488870;2.1596364975;0.8114735484119999;0.0685501024127;1;True;24;1;75.77406356856234
199;199;1449488870;2.15969777107;0.8114155530930001;0.0685076415539;1;True;24;1;75.77406356856234
200;200;1449488870;2.15931391716;0.811261594296;0.0684030503035;1;True;24;1;75.77406356856234
201;201;1449488870;2.15924048424;0.811589598656;0.0684578716755;1;True;24;1;75.77406356856234
202;202;1449488870;2.15958809853;0.811536550522;0.0686076059937;1;True;24;1;75.77406356856234
203;203;1449488870;2.15956878662;0.8117921352390001;0.0685839056969;1;True;24;1;75.77406356856234
204;204;1449488870;2.15920758247;0.811378896236;0.0686518326402;1;True;24;1;75.77406356856234
205;205;1449488870;2.15910840034;0.811934888363;0.0681989863515;1;True;24;1;75.77406356856234
206;206;1449488870;2.15985441208;0.8106443881990001;0.06899069249630001;1;True;24;1;75.77406356856234
207;207;1449488870;2.15963578224;0.8116871714589999;0.0685855746269;1;True;24;1;75.77406356856234
208;208;1449488870;2.15912079811;0.811302900314;0.0685760900378;1;True;24;1;75.77406356856234
209;209;1449488870;2.1590905189500003;0.8116840720180001;0.0683891624212;1;True;24;1;75.77406356856234
210;210;1449488870;2.1598668098400005;0.8116181492810001;0.06860755383969999;1;True;24;1;75.77406356856234
211;211;1449488870;2.15920090675;0.8111282587049999;0.0687447041273;1;True;24;1;75.77406356856234
212;212;1449488870;2.15973591805;0.811229526997;0.06915123760700001;1;True;24;1;75.77406356856234
213;213;1449488870;2.15987277031;0.811593770981;0.06864066421989999;1;True;24;1;75.77406356856234
214;214;1449488870;2.15923023224;0.811519920826;0.0687164738774;1;True;24;1;75.77406356856234
215;215;1449488870;2.15947198868;0.811530172825;0.0684933364391;1;True;24;1;75.77406356856234
216;216;1449488870;2.15924596786;0.811361014843;0.0686116814613;1;True;24;1;75.77406356856234
217;217;1449488870;2.15928006172;0.811143636703;0.0687571167946;1;True;24;1;75.77406356856234
218;218;1449488870;2.1591169834099997;0.8114596605300001;0.0686038807034;1;True;24;1;75.77406356856234
219;219;1449488870;2.1595041751900004;0.811094522476;0.0690919458866;1;True;24;1;75.77406356856234
220;220;1449488870;2.1592025756799997;0.8116670846940001;0.0681730359793;1;True;24;1;75.77406356856234
221;221;1449488870;2.15964818001;0.8116495609280001;0.0685985386372;1;True;24;1;75.77406356856234
222;222;1449488870;2.1593632698099996;0.8115155696870001;0.0687851682305;1;True;24;1;75.77406356856234
223;223;1449488870;2.15940451622;0.811202824116;0.0686531439424;1;True;24;1;75.77406356856234
224;224;1449488870;2.15966081619;0.8115245699879999;0.068591542542;1;True;24;1;75.77406356856234
225;225;1449488870;2.15949678421;0.811375379562;0.0686873719096;1;True;24;1;75.77406356856234
226;226;1449488870;2.1591951847099997;0.8111182451250001;0.0687617361546;1;True;24;1;75.77406356856234
227;227;1449488870;2.15945219994;0.8114218115809999;0.06854579597709999;1;True;24;1;75.77406356856234
228;228;1449488870;2.15962219238;0.811494827271;0.0685601979494;1;True;24;1;75.77406356856234
229;229;1449488870;2.15904545784;0.8113026618960001;0.06875548511739998;1;True;24;1;75.77406356856234
230;230;1449488870;2.15975213051;0.81137406826;0.06865004450079999;1;True;24;1;75.77406356856234
231;231;1449488870;2.1594643592800002;0.8112639784810001;0.0687027350068;1;True;24;1;75.77406356856234
232;232;1449488870;2.15961670876;0.811701774597;0.06859610974790001;1;True;24;1;75.77406356856234
233;233;1449488870;2.15961647034;0.811135947704;0.0689875409007;1;True;24;1;75.77406356856234
234;234;1449488870;2.1591053009;0.8113394975660001;0.0685767307878;1;True;24;1;75.77406356856234
235;235;1449488870;2.1592054367099998;0.8111897706990001;0.06882724910969999;1;True;24;1;75.77406356856234
236;236;1449488870;2.15941023827;0.811091661453;0.0687165632844;1;True;24;1;75.77406356856234
237;237;1449488870;2.15893650055;0.8115618824959999;0.0686750411987;1;True;24;1;75.77406356856234
238;238;1449488870;2.15957593918;0.811585843563;0.0685811340809;1;True;24;1;75.77406356856234
239;239;1449488870;2.1594142913799996;0.811721742153;0.06841135770080001;1;True;24;1;75.77406356856234
240;240;1449488870;2.15958118439;0.8110415935519999;0.0691213607788;1;True;24;1;75.77406356856234
241;241;1449488870;2.1596424579599995;0.8117032051090001;0.06855823844669999;1;True;24;1;75.77406356856234
242;242;1449488870;2.1595492362999997;0.81168961525;0.0685528591275;1;True;24;1;75.77406356856234
243;243;1449488870;2.15943980217;0.811876952648;0.0686139762402;1;True;24;1;75.77406356856234
244;244;1449488870;2.15954637527;0.8111273646349999;0.0686149597168;1;True;24;1;75.77406356856234
245;245;1449488870;2.1597685813900003;0.811203956604;0.06917372345919999;1;True;24;1;75.77406356856234
246;246;1449488870;2.15966939926;0.811757683754;0.0683791339397;1;True;24;1;75.77406356856234
247;247;1449488870;2.1596288681;0.811611950397;0.0685771256685;1;True;24;1;75.77406356856234
248;248;1449488870;2.15996980667;0.811696052551;0.0691275596619;1;True;24;1;75.77406356856234
249;249;1449488870;2.15959239006;0.8113367557529999;0.0686090514064;1;True;24;1;75.77406356856234
250;250;1449488870;2.15921139717;0.8110788464550001;0.0688339993358;1;True;24;1;75.77406356856234
251;251;1449488870;2.15910720825;0.811612308025;0.0683480128646;1;True;24;1;75.77406356856234
252;252;1449488870;2.1596443653099997;0.8111339807510001;0.0686283931136;1;True;24;1;75.77406356856234
253;253;1449488870;2.15888619423;0.8117243647579999;0.06762899458409999;1;True;24;1;75.77406356856234
254;254;1449488870;2.15933322906;0.8112145066259999;0.06823599338530001;1;True;24;1;75.77406356856234
255;255;1449488870;2.15954017639;0.811527431011;0.06863880902530001;1;True;24;1;75.77406356856234
256;256;1449488870;2.15921187401;0.8114539384839999;0.0684716776013;1;True;24;1;75.77406356856234
257;257;1449488870;2.15893745422;0.811728537083;0.0685030147433;1;True;24;1;75.77406356856234
258;258;1449488870;2.15959095955;0.811534166336;0.0686339735985;1;True;24;1;75.77406356856234
259;259;1449488870;2.1595902442900003;0.811778187752;0.06858166307210001;1;True;24;1;75.77406356856234
260;260;1449488870;2.1592025756799997;0.811596274376;0.068775229156;1;True;24;1;75.77406356856234
261;261;1449488870;2.15934872627;0.811474442482;0.0683887824416;1;True;24;1;75.77406356856234
262;262;1449488870;2.16024494171;0.811548352242;0.0690100416541;1;True;24;1;75.77406356856234
263;263;1449488870;2.15950131416;0.811349213123;0.0686749070883;1;True;24;1;75.77406356856234
264;264;1449488870;2.15895605087;0.811212599277;0.06851650029419999;1;True;24;1;75.77406356856234
265;265;1449488870;2.15955591202;0.81153845787;0.0685874447227;1;True;24;1;75.77406356856234
266;266;1449488870;2.15958595276;0.811626076698;0.0686143115163;1;True;24;1;75.77406356856234
267;267;1449488870;2.15963149071;0.811623215675;0.06856476515530001;1;True;24;1;75.77406356856234
268;268;1449488870;2.15889668465;0.811407744884;0.0683889612556;1;True;24;1;75.77406356856234
269;269;1449488870;2.15949988365;0.811711072922;0.0683865174651;1;True;24;1;75.77406356856234
270;270;1449488870;2.15952587128;0.8112360239030001;0.0689860954881;1;True;24;1;75.77406356856234
271;271;1449488870;2.15913367271;0.8112443089489999;0.0686086863279;1;True;24;1;75.77406356856234
272;272;1449488870;2.15962672234;0.811708569527;0.0685865804553;1;True;24;1;75.77406356856234
273;273;1449488870;2.15959262848;0.811687648296;0.0685847178102;1;True;24;1;75.77406356856234
274;274;1449488870;2.15944886208;0.812002837658;0.0683054029942;1;True;24;1;75.77406356856234
275;275;1449488870;2.15939593315;0.811665534973;0.06860111653800001;1;True;24;1;75.77406356856234
276;276;1449488870;2.15967416763;0.811586976051;0.0685272738338;1;True;24;1;75.77406356856234
277;277;1449488870;2.1595749855;0.811657905579;0.068580083549;1;True;24;1;75.77406356856234
278;278;1449488870;2.15952682495;0.811457276344;0.0686044022441;1;True;24;1;75.77406356856234
279;279;1449488870;2.15887904167;0.811473488808;0.068626023829;1;True;24;1;75.77406356856234
280;280;1449488870;2.15954971313;0.811563193798;0.0685564130545;1;True;24;1;75.77406356856234
281;281;1449488870;2.15922355652;0.811144828796;0.06877046823499999;1;True;24;1;75.77406356856234
282;282;1449488870;2.15949225426;0.811645328999;0.0686163529754;1;True;24;1;75.77406356856234
283;283;1449488870;2.159979105;0.8116931319239999;0.0691155791283;1;True;24;1;75.77406356856234
284;284;1449488870;2.15951371193;0.811419010162;0.0685947164893;1;True;24;1;75.77406356856234
285;285;1449488870;2.1593520641299997;0.811442494392;0.0685904398561;1;True;24;1;75.77406356856234
286;286;1449488870;2.1590278148700004;0.811726748943;0.0688058808446;1;True;24;1;75.77406356856234
287;287;1449488870;2.15958309174;0.811530888081;0.0685930550098;1;True;24;1;75.77406356856234
288;288;1449488870;2.15928816795;0.8112218976019999;0.0686713010073;1;True;24;1;75.77406356856234
289;289;1449488870;2.15988755226;0.811736047268;0.06863167881969999;1;True;24;1;75.77406356856234
290;290;1449488870;2.15916323662;0.81148815155;0.06857256591319999;1;True;24;1;75.77406356856234
291;291;1449488870;2.1594791412400003;0.811434388161;0.06871894747019999;1;True;24;1;75.77406356856234
292;292;1449488870;2.15972614288;0.8114890456199999;0.0685975402594;1;True;24;1;75.77406356856234
293;293;1449488870;2.15974760056;0.811684668064;0.0686050951481;1;True;24;1;75.77406356856234
294;294;1449488870;2.15917992592;0.8113611936570001;0.0686125159264;1;True;24;1;75.77406356856234
295;295;1449488870;2.1595203876499998;0.811275243759;0.0686205998063;1;True;24;1;75.77406356856234
296;296;1449488870;2.15913772583;0.811579883099;0.0686081647873;1;True;24;1;75.77406356856234
297;297;1449488870;2.15950846672;0.8115471005439999;0.0684268325567;1;True;24;1;75.77406356856234
298;298;1449488871;2.15949249268;0.8115012049670001;0.0685088783503;2;True;24;1;75.77406356856234
299;299;1449488871;2.15885686874;0.811209738255;0.0688077509403;2;True;24;1;75.77406356856234
300;300;1449488871;2.15967869759;0.811668395996;0.0685973465443;2;True;24;1;75.77406356856234
301;301;1449488871;2.15981006622;0.8118101358409999;0.0686264038086;2;True;24;1;75.77406356856234
302;302;1449488871;2.15947365761;0.811628103256;0.0685418769717;2;True;24;1;75.77406356856234
303;303;1449488871;2.1595652103400003;0.811571955681;0.0685868188739;2;True;24;1;75.77406356856234
304;304;1449488871;2.1596450805700003;0.811495304108;0.0686283558607;2;True;24;1;75.77406356856234
305;305;1449488871;2.15970134735;0.811524093151;0.0685578882694;2;True;24;1;75.77406356856234
306;306;1449488871;2.1596424579599995;0.8115992546080001;0.06853121519090001;2;True;24;1;75.77406356856234
307;307;1449488871;2.1592733859999997;0.811133742332;0.0686721503735;2;True;24;1;75.77406356856234
308;308;1449488871;2.15957784653;0.811743199825;0.06855127960440001;2;True;24;1;75.77406356856234
309;309;1449488871;2.1594610214200003;0.8111810684199999;0.0688433796167;2;True;24;1;75.77406356856234
310;310;1449488871;2.1596715450299997;0.811241328716;0.06887109577660001;2;True;24;1;75.77406356856234
311;311;1449488871;2.1595985889400002;0.81128692627;0.06873687356710001;2;True;24;1;75.77406356856234
312;312;1449488871;2.1598842144;0.8115367889399999;0.0686330124736;2;True;24;1;75.77406356856234
313;313;1449488871;2.15980434418;0.811574280262;0.0686142742634;2;True;24;1;75.77406356856234
314;314;1449488871;2.15964150429;0.8116763830179999;0.06860004365439999;2;True;24;1;75.77406356856234
315;315;1449488871;2.15937018394;0.810998737812;0.0684505626559;2;True;24;1;75.77406356856234
316;316;1449488871;2.15916085243;0.811272382736;0.0685976371169;2;True;24;1;75.77406356856234
317;317;1449488871;2.15939760208;0.8112907409669999;0.0687497332692;2;True;24;1;75.77406356856234
318;318;1449488871;2.1601865291599998;0.811655819416;0.06898872554299999;2;True;24;1;75.77406356856234
319;319;1449488871;2.1595652103400003;0.811577260494;0.0686090216041;2;True;24;1;75.77406356856234
320;320;1449488871;2.15886878967;0.811964809895;0.0679701864719;2;True;24;1;75.77406356856234
321;321;1449488871;2.1590292453799997;0.8111829161640001;0.06874090433119999;2;True;24;1;75.77406356856234
322;322;1449488871;2.15925788879;0.811327397823;0.0686144977808;2;True;24;1;75.77406356856234
323;323;1449488871;2.1593499183700002;0.81106287241;0.06880019605160001;2;True;24;1;75.77406356856234
324;324;1449488871;2.15957450867;0.8115714192389999;0.0686182826757;2;True;24;1;75.77406356856234
325;325;1449488871;2.15956139565;0.8115715980529999;0.06861175596710001;2;True;24;1;75.77406356856234
326;326;1449488871;2.1592807769799998;0.8115271925929999;0.0683352574706;2;True;24;1;75.77406356856234
327;327;1449488871;2.15976643562;0.811589896679;0.0686942860484;2;True;24;1;75.77406356856234
328;328;1449488871;2.15996408463;0.811525046825;0.0686281621456;2;True;24;1;75.77406356856234
329;329;1449488871;2.15869951248;0.8113719820980001;0.0685327798128;2;True;24;1;75.77406356856234
330;330;1449488871;2.15969133377;0.81167024374;0.06863100081680001;2;True;24;1;75.77406356856234
331;331;1449488871;2.15986466408;0.811544418335;0.06863904744390001;2;True;24;1;75.77406356856234
332;332;1449488871;2.1596019268;0.8114339709280001;0.0687080547214;2;True;24;1;75.77406356856234
333;333;1449488871;2.1594955921200003;0.8115929365160001;0.0686314254999;2;True;24;1;75.77406356856234
334;334;1449488871;2.15947031975;0.811974406242;0.0681040287018;2;True;24;1;75.77406356856234
335;335;1449488871;2.15960001945;0.811490416527;0.0685805827379;2;True;24;1;75.77406356856234
336;336;1449488871;2.15905642509;0.8114707469939999;0.06896758824589999;2;True;24;1;75.77406356856234
337;337;1449488871;2.1593334674799998;0.811525464058;0.06873593479389999;2;True;24;1;75.77406356856234
338;338;1449488871;2.15950226784;0.81136983633;0.06874378770589999;2;True;24;1;75.77406356856234
339;339;1449488871;2.15965294838;0.811547756195;0.06863139569759999;2;True;24;1;75.77406356856234
340;340;1449488871;2.15938425064;0.811559557915;0.0686858966947;2;True;24;1;75.77406356856234
341;341;1449488871;2.15936136246;0.8110007047650001;0.0689407214522;2;True;24;1;75.77406356856234
342;342;1449488871;2.1596724987;0.81169462204;0.0686115920544;2;True;24;1;75.77406356856234
343;343;1449488871;2.15965628624;0.811709702015;0.0686127692461;2;True;24;1;75.77406356856234
344;344;1449488871;2.1596860885599996;0.8119665384289999;0.06810831278559999;2;True;24;1;75.77406356856234
345;345;1449488871;2.15946793556;0.812156677246;0.0680520087481;2;True;24;1;75.77406356856234
346;346;1449488871;2.15940189362;0.811836361885;0.06845027208330001;2;True;24;1;75.77406356856234
347;347;1449488871;2.1597166061400004;0.8116525411609999;0.0686333552003;2;True;24;1;75.77406356856234
348;348;1449488871;2.15965795517;0.811730206013;0.0686041265726;2;True;24;1;75.77406356856234
349;349;1449488871;2.15962839127;0.8115156292919999;0.0686299800873;2;True;24;1;75.77406356856234
350;350;1449488871;2.15957045555;0.811577796936;0.068616271019;2;True;24;1;75.77406356856234
351;351;1449488871;2.1596581935900003;0.811307609081;0.06896432489160001;2;True;24;1;75.77406356856234
352;352;1449488871;2.1594493389099996;0.8111391663549999;0.06911092251539999;2;True;24;1;75.77406356856234
353;353;1449488871;2.15948104858;0.8114899396899999;0.0685787722468;2;True;24;1;75.77406356856234
354;354;1449488871;2.15950775146;0.811171710491;0.0688946172595;2;True;24;1;75.77406356856234
355;355;1449488871;2.1591031551400004;0.8110390901569999;0.0688747763634;2;True;24;1;75.77406356856234
356;356;1449488871;2.15972852707;0.811773061752;0.0685786530375;2;True;24;1;75.77406356856234
357;357;1449488871;2.1596088409400003;0.811510145664;0.06859137862919999;2;True;24;1;75.77406356856234
358;358;1449488871;2.1592798233000003;0.8115682005879999;0.06874047964810001;2;True;24;1;75.77406356856234
359;359;1449488871;2.15929603577;0.811258733273;0.0686402395368;2;True;24;1;75.77406356856234
360;360;1449488871;2.15957283974;0.8115596175190001;0.0685656219721;2;True;24;1;75.77406356856234
361;361;1449488871;2.15842795372;0.811660826206;0.0686437636614;2;True;24;1;75.77406356856234
362;362;1449488871;2.1598966121700003;0.8115375041959999;0.0686436966062;2;True;24;1;75.77406356856234
363;363;1449488871;2.15974617004;0.8112394213680001;0.06927842646839999;2;True;24;1;75.77406356856234
364;364;1449488871;2.15972852707;0.8114781379699999;0.06856022030119999;2;True;24;1;75.77406356856234
365;365;1449488871;2.1593477726;0.8116747736929999;0.06854760646819999;2;True;24;1;75.77406356856234
366;366;1449488871;2.1597640514400003;0.811494827271;0.0684355273843;2;True;24;1;75.77406356856234
367;367;1449488871;2.15931487083;0.811157405376;0.0686713010073;2;True;24;1;75.77406356856234
368;368;1449488871;2.15867638588;0.810944378376;0.068595059216;2;True;24;1;75.77406356856234
369;369;1449488871;2.1591732502000003;0.811493635178;0.06835892796519999;2;True;24;1;75.77406356856234
370;370;1449488871;2.15967416763;0.811658680439;0.068608045578;2;True;24;1;75.77406356856234
371;371;1449488871;2.15932154655;0.811644971371;0.06832724064590001;2;True;24;1;75.77406356856234
372;372;1449488871;2.15937113762;0.8117721080779999;0.0683482065797;2;True;24;1;75.77406356856234
373;373;1449488871;2.15982604027;0.811616778374;0.0686517730355;2;True;24;1;75.77406356856234
374;374;1449488871;2.15962576866;0.811528861523;0.06860591471199999;2;True;24;1;75.77406356856234
375;375;1449488871;2.1596596241;0.811706423759;0.0685985311866;2;True;24;1;75.77406356856234
376;376;1449488871;2.15906023979;0.8111789226530001;0.0687826350331;2;True;24;1;75.77406356856234
377;377;1449488871;2.1591937542;0.811592102051;0.0684643015265;2;True;24;1;75.77406356856234
378;378;1449488871;2.15955924988;0.811347961426;0.0687634944916;2;True;24;1;75.77406356856234
379;379;1449488871;2.159730196;0.811456799507;0.06882047653199999;2;True;24;1;75.77406356856234
380;380;1449488871;2.15991258621;0.8118237256999999;0.0686781033874;2;True;24;1;75.77406356856234
381;381;1449488871;2.15927243233;0.811418771744;0.06864282488819999;2;True;24;1;75.77406356856234
382;382;1449488871;2.15942263603;0.8113448023800001;0.06880500167610001;2;True;24;1;75.77406356856234
383;383;1449488871;2.1591653823900003;0.811889231205;0.0682076215744;2;True;24;1;75.77406356856234
384;384;1449488871;2.15956425667;0.8112727403640001;0.06865888834;2;True;24;1;75.77406356856234
385;385;1449488871;2.1597602367400004;0.8114973902699999;0.0683731809258;2;True;24;1;75.77406356856234
386;386;1449488871;2.15923500061;0.811498105526;0.0686316937208;2;True;24;1;75.77406356856234
387;387;1449488871;2.15964341164;0.811469614506;0.06877697259189999;2;True;24;1;75.77406356856234
388;388;1449488871;2.15967082977;0.811715662479;0.06860999017950001;2;True;24;1;75.77406356856234
389;389;1449488871;2.15901899338;0.811562359333;0.0686760768294;2;True;24;1;75.77406356856234
390;390;1449488871;2.159304142;0.811262607574;0.0687628164887;2;True;24;1;75.77406356856234
391;391;1449488871;2.15935850143;0.811202585697;0.0689928680658;2;True;24;1;75.77406356856234
392;392;1449488871;2.15949511528;0.81165677309;0.06857119500640001;2;True;24;1;75.77406356856234
393;393;1449488871;2.15995883942;0.811688065529;0.0686041042209;2;True;24;1;75.77406356856234
394;394;1449488871;2.1594944000200003;0.81129014492;0.06863997131590001;2;True;24;1;75.77406356856234
395;395;1449488871;2.15895915031;0.8113545775409999;0.0687024667859;2;True;24;1;75.77406356856234
396;396;1449488871;2.15949988365;0.8112249970440001;0.0687347725034;2;True;24;1;75.77406356856234
397;397;1449488871;2.1597602367400004;0.8116107583050001;0.0686303302646;2;True;24;1;75.77406356856234
398;398;1449488871;2.1596558094;0.8115655183789999;0.06860726326700001;2;True;24;1;75.77406356856234
399;399;1449488871;2.15942883492;0.811793386936;0.06851926445960001;2;True;24;1;75.77406356856234
400;400;1449488871;2.1595606803900003;0.8113103508949999;0.0685713589191;2;True;24;1;75.77406356856234
401;401;1449488871;2.15906047821;0.8115801215170001;0.06852268427609999;2;True;24;1;75.77406356856234
402;402;1449488871;2.15978479385;0.811182439327;0.068838275969;2;True;24;1;75.77406356856234
403;403;1449488871;2.15970683098;0.811627805233;0.0686461254954;2;True;24;1;75.77406356856234
404;404;1449488871;2.15928936005;0.811237812042;0.068616732955;2;True;24;1;75.77406356856234
405;405;1449488871;2.15901279449;0.81158465147;0.06876971572639999;2;True;24;1;75.77406356856234
406;406;1449488871;2.15926766396;0.811846911907;0.0682390779257;2;True;24;1;75.77406356856234
407;407;1449488871;2.15972352028;0.81163495779;0.0686007961631;2;True;24;1;75.77406356856234
408;408;1449488871;2.1590757369999998;0.8119582533840001;0.0684570819139;2;True;24;1;75.77406356856234
409;409;1449488871;2.15967535973;0.8115801215170001;0.0685518831015;2;True;24;1;75.77406356856234
410;410;1449488871;2.1596858501400003;0.8115668296809999;0.06860943138600001;2;True;24;1;75.77406356856234
411;411;1449488871;2.15896725655;0.811090409756;0.0688508450985;2;True;24;1;75.77406356856234
412;412;1449488871;2.15940737724;0.811579108238;0.0686876252294;2;True;24;1;75.77406356856234
413;413;1449488871;2.1593079566999998;0.8116255402570001;0.06848097592590001;2;True;24;1;75.77406356856234
414;414;1449488871;2.1594824791;0.81157296896;0.06857512891289999;2;True;24;1;75.77406356856234
415;415;1449488871;2.15987706184;0.811717033386;0.0686185210943;2;True;24;1;75.77406356856234
416;416;1449488871;2.15922284126;0.811708211899;0.0683371275663;2;True;24;1;75.77406356856234
417;417;1449488871;2.1597402095800002;0.81157708168;0.0686333030462;2;True;24;1;75.77406356856234
418;418;1449488871;2.15899372101;0.811711549759;0.06831159442660001;2;True;24;1;75.77406356856234
419;419;1449488871;2.15916347504;0.8113549947740001;0.0685595721006;2;True;24;1;75.77406356856234
420;420;1449488871;2.15988492966;0.8117896318440001;0.0686558112502;2;True;24;1;75.77406356856234
421;421;1449488871;2.15912342072;0.8111267685889999;0.0688423365355;2;True;24;1;75.77406356856234
422;422;1449488871;2.1592195034;0.811674952507;0.068353228271;2;True;24;1;75.77406356856234
423;423;1449488871;2.15943646431;0.8116446733470001;0.0684267729521;2;True;24;1;75.77406356856234
424;424;1449488871;2.1597604751599997;0.811608970165;0.0685773566365;2;True;24;1;75.77406356856234
425;425;1449488871;2.1592602729799997;0.8117161989210001;0.06850550323719999;2;True;24;1;75.77406356856234
426;426;1449488871;2.15901613235;0.811070084572;0.0687774121761;2;True;24;1;75.77406356856234
427;427;1449488871;2.1596252918200003;0.8109197616580001;0.0688070133328;2;True;24;1;75.77406356856234
428;428;1449488871;2.1592369079599996;0.811420857906;0.0685116872191;2;True;24;1;75.77406356856234
429;429;1449488871;2.15945291519;0.811304330826;0.0687294155359;2;True;24;1;75.77406356856234
430;430;1449488871;2.15959095955;0.8117284178730001;0.0684750750661;2;True;24;1;75.77406356856234
431;431;1449488871;2.1596777439099997;0.8113504648209999;0.0686267539859;2;True;24;1;75.77406356856234
432;432;1449488871;2.15938282013;0.811845362186;0.0683360844851;2;True;24;1;75.77406356856234
433;433;1449488871;2.15889668465;0.8115494251250001;0.06816017627719999;2;True;24;1;75.77406356856234
434;434;1449488871;2.15958046913;0.811503529549;0.0687107741833;2;True;24;1;75.77406356856234
435;435;1449488871;2.15977096558;0.811148226261;0.0690823718905;2;True;24;1;75.77406356856234
436;436;1449488871;2.15930938721;0.8108423948289999;0.0690037757158;2;True;24;1;75.77406356856234
437;437;1449488871;2.15975236893;0.811393082142;0.0684897825122;2;True;24;1;75.77406356856234
438;438;1449488871;2.15919852257;0.811215996742;0.06881657242769999;2;True;24;1;75.77406356856234
439;439;1449488871;2.15916967392;0.8108710050579999;0.0691089704633;2;True;24;1;75.77406356856234
440;440;1449488871;2.15961122513;0.811460137367;0.0685936287045;2;True;24;1;75.77406356856234
441;441;1449488871;2.15955281258;0.811316132545;0.0686212554574;2;True;24;1;75.77406356856234
442;442;1449488871;2.15944385529;0.8111696839329999;0.0687182024121;2;True;24;1;75.77406356856234
443;443;1449488871;2.1596858501400003;0.8115584850309999;0.0686358064413;2;True;24;1;75.77406356856234
444;444;1449488871;2.15928149223;0.81154102087;0.068438179791;2;True;24;1;75.77406356856234
445;445;1449488871;2.1595606803900003;0.811246275902;0.0686510503292;2;True;24;1;75.77406356856234
446;446;1449488871;2.15912294388;0.811305820942;0.0686607137322;2;True;24;1;75.77406356856234
447;447;1449488871;2.15979886055;0.811746716499;0.0686096698046;2;True;24;1;75.77406356856234
448;448;1449488871;2.15959119797;0.811792194843;0.0686043575406;2;True;24;1;75.77406356856234
449;449;1449488871;2.15860199928;0.811210751534;0.0684881210327;2;True;24;1;75.77406356856234
450;450;1449488871;2.1595993042;0.8114904761310001;0.0686468333006;2;True;24;1;75.77406356856234
451;451;1449488871;2.15912389755;0.812026798725;0.0682842135429;2;True;24;1;75.77406356856234
452;452;1449488871;2.15925931931;0.81119543314;0.06884276866910001;2;True;24;1;75.77406356856234
453;453;1449488871;2.1591033935499997;0.8121645450589999;0.0679282024503;2;True;24;1;75.77406356856234
454;454;1449488871;2.1592433452599997;0.811655402184;0.0687163993716;2;True;24;1;75.77406356856234
455;455;1449488871;2.15955042839;0.811630189419;0.0683211758733;2;True;24;1;75.77406356856234
456;456;1449488871;2.15897941589;0.8112170100210001;0.0687776505947;2;True;24;1;75.77406356856234
457;457;1449488871;2.15972089767;0.811866819859;0.0685202106833;2;True;24;1;75.77406356856234
458;458;1449488871;2.15977931023;0.8111791610719999;0.06890397518869999;2;True;24;1;75.77406356856234
459;459;1449488871;2.15977501869;0.811623215675;0.0686484128237;2;True;24;1;75.77406356856234
460;460;1449488871;2.15952372551;0.8115516304970001;0.06854814291;2;True;24;1;75.77406356856234
461;461;1449488871;2.15952420235;0.811513006687;0.0686480328441;2;True;24;1;75.77406356856234
462;462;1449488871;2.1595048904400005;0.811471581459;0.0686296522617;2;True;24;1;75.77406356856234
463;463;1449488871;2.1595048904400005;0.811672329903;0.068626858294;2;True;24;1;75.77406356856234
464;464;1449488871;2.15948653221;0.8113252520559999;0.06870897859330001;2;True;24;1;75.77406356856234
465;465;1449488871;2.15971040726;0.811650633812;0.06867092102769999;2;True;24;1;75.77406356856234
466;466;1449488871;2.15901494026;0.811214864254;0.0687385872006;2;True;24;1;75.77406356856234
467;467;1449488871;2.15936875343;0.811386525631;0.068629719317;2;True;24;1;75.77406356856234
468;468;1449488871;2.15950942039;0.8115229010580001;0.0685790255666;2;True;24;1;75.77406356856234
469;469;1449488871;2.15953731537;0.811303257942;0.0688891038299;2;True;24;1;75.77406356856234
470;470;1449488871;2.15963101387;0.81171554327;0.06861654669049999;2;True;24;1;75.77406356856234
471;471;1449488871;2.1596384048500004;0.811605274677;0.068617247045;2;True;24;1;75.77406356856234
472;472;1449488871;2.15953588486;0.811349868774;0.0687516704202;2;True;24;1;75.77406356856234
473;473;1449488871;2.15924358368;0.811273396015;0.068509966135;2;True;24;1;75.77406356856234
474;474;1449488871;2.15967178345;0.811874330044;0.0686817392707;2;True;24;1;75.77406356856234
475;475;1449488871;2.1596398353599997;0.811720609665;0.0684788525105;2;True;24;1;75.77406356856234
476;476;1449488871;2.15956759453;0.811388075352;0.0686263516545;2;True;24;1;75.77406356856234
477;477;1449488871;2.1598825454700004;0.8117378354070001;0.0686263889074;2;True;24;1;75.77406356856234
478;478;1449488871;2.1596107482900004;0.8115606307979999;0.0686113461852;2;True;24;1;75.77406356856234
479;479;1449488871;2.15940904617;0.81137406826;0.0685594677925;2;True;24;1;75.77406356856234
480;480;1449488871;2.1595089435599997;0.811581254005;0.06857123225930001;2;True;24;1;75.77406356856234
481;481;1449488871;2.15964031219;0.81155538559;0.0686081200838;2;True;24;1;75.77406356856234
482;482;1449488871;2.1588547229799997;0.811223506927;0.0688302963972;2;True;24;1;75.77406356856234
483;483;1449488871;2.1589436531099997;0.811261296272;0.0684684813023;2;True;24;1;75.77406356856234
484;484;1449488871;2.15955758095;0.811514556408;0.0686334520578;2;True;24;1;75.77406356856234
485;485;1449488871;2.15936088562;0.812136888504;0.0682828873396;2;True;24;1;75.77406356856234
486;486;1449488871;2.15937280655;0.811718344688;0.06885850429530001;2;True;24;1;75.77406356856234
487;487;1449488871;2.15954518318;0.811596751213;0.0686308816075;2;True;24;1;75.77406356856234
488;488;1449488871;2.15968775749;0.811271309853;0.0689367055893;2;True;24;1;75.77406356856234
489;489;1449488871;2.15896987915;0.811205327511;0.0685033127666;2;True;24;1;75.77406356856234
490;490;1449488871;2.1589641571000002;0.81173491478;0.06826613098380001;2;True;24;1;75.77406356856234
491;491;1449488871;2.1599676609;0.811531722546;0.0688338130713;2;True;24;1;75.77406356856234
492;492;1449488871;2.1595797538799997;0.81166011095;0.0686577260494;2;True;24;1;75.77406356856234
493;493;1449488871;2.15957832336;0.811804413795;0.0685710534453;2;True;24;1;75.77406356856234
494;494;1449488871;2.15949892998;0.811385750771;0.0685939863324;2;True;24;1;75.77406356856234
495;495;1449488871;2.15965294838;0.811602890491;0.0686072036624;2;True;24;1;75.77406356856234
496;496;1449488871;2.15984129906;0.8115538954729999;0.0683806091547;2;True;24;1;75.77406356856234
497;497;1449488871;2.1596398353599997;0.8112156391140001;0.068776525557;2;True;24;1;75.77406356856234
498;498;1449488871;2.1591885089900003;0.811498105526;0.06870899349449999;2;True;24;1;75.77406356856234
499;499;1449488871;2.15957665443;0.8115550279620001;0.0685916543007;2;True;24;1;75.77406356856234
500;500;1449488871;2.15941309929;0.8112429976459999;0.0686804503202;2;True;24;1;75.77406356856234
501;501;1449488871;2.15975236893;0.811848640442;0.0688070207834;2;True;24;1;75.77406356856234
502;502;1449488871;2.1589782238;0.8119470477099999;0.06849443167449999;2;True;24;1;75.77406356856234
503;503;1449488871;2.15970444679;0.811610817909;0.0685849636793;2;True;24;1;75.77406356856234
504;504;1449488871;2.1590332984900003;0.811624765396;0.0682620033622;2;True;24;1;75.77406356856234
505;505;1449488871;2.15964913368;0.8116068243979999;0.0683781132102;2;True;24;1;75.77406356856234
506;506;1449488871;2.15968465805;0.811711132526;0.0686290413141;2;True;24;1;75.77406356856234
507;507;1449488871;2.15955758095;0.81143116951;0.06852564960719999;2;True;24;1;75.77406356856234
508;508;1449488871;2.1590728759799998;0.8111154437070001;0.0687427148223;2;True;24;1;75.77406356856234
509;509;1449488871;2.15898895264;0.811513006687;0.06865630298849999;2;True;24;1;75.77406356856234
510;510;1449488871;2.15955662727;0.811647832394;0.0685499534011;2;True;24;1;75.77406356856234
511;511;1449488871;2.1597628593400002;0.811334967613;0.0687862709165;2;True;24;1;75.77406356856234
512;512;1449488871;2.1594555378;0.8117122650149999;0.0684769153595;2;True;24;1;75.77406356856234
513;513;1449488871;2.15944600105;0.811370432377;0.0685924813151;2;True;24;1;75.77406356856234
514;514;1449488871;2.15988588333;0.811253428459;0.0687274038792;2;True;24;1;75.77406356856234
515;515;1449488871;2.15951681137;0.8117393255230001;0.0684720426798;2;True;24;1;75.77406356856234
516;516;1449488871;2.15974903107;0.8112356066699999;0.0689039006829;2;True;24;1;75.77406356856234
517;517;1449488871;2.15945219994;0.811233043671;0.0686810016632;2;True;24;1;75.77406356856234
518;518;1449488871;2.15967106819;0.8116562962530001;0.0685723721981;2;True;24;1;75.77406356856234
519;519;1449488871;2.15957808495;0.81175917387;0.0685684978962;2;True;24;1;75.77406356856234
520;520;1449488871;2.1597204208400003;0.811622798443;0.0685861557722;2;True;24;1;75.77406356856234
521;521;1449488871;2.15916657448;0.811232149601;0.06869126111269999;2;True;24;1;75.77406356856234
522;522;1449488871;2.1593647003200003;0.811615467072;0.06848287582399999;2;True;24;1;75.77406356856234
523;523;1449488871;2.15922904015;0.8109189271930001;0.0687141939998;2;True;24;1;75.77406356856234
524;524;1449488871;2.15937590599;0.8111407756810001;0.0687658339739;2;True;24;1;75.77406356856234
525;525;1449488871;2.15956258774;0.811547636986;0.0685893073678;2;True;24;1;75.77406356856234
526;526;1449488871;2.15965509415;0.811537742615;0.0686079114676;2;True;24;1;75.77406356856234
527;527;1449488871;2.15927243233;0.811507940292;0.06868007034059999;2;True;24;1;75.77406356856234
528;528;1449488871;2.15920090675;0.811511337757;0.06852769106630001;2;True;24;1;75.77406356856234
529;529;1449488871;2.1594145298;0.811388850212;0.068561822176;2;True;24;1;75.77406356856234
530;530;1449488871;2.15953588486;0.811517417431;0.06860478222369999;2;True;24;1;75.77406356856234
531;531;1449488871;2.15926527977;0.8113130331039999;0.0685349553823;2;True;24;1;75.77406356856234
532;532;1449488871;2.1594948768599997;0.8113662004469999;0.0686697587371;2;True;24;1;75.77406356856234
533;533;1449488872;2.15972423553;0.81148660183;0.0684402659535;3;True;24;1;75.77406356856234
534;534;1449488872;2.1595828533200003;0.811581373215;0.0685977861285;3;True;24;1;75.77406356856234
535;535;1449488872;2.15935754776;0.811565697193;0.0685910508037;3;True;24;1;75.77406356856234
536;536;1449488872;2.15955758095;0.811527252197;0.0686293467879;3;True;24;1;75.77406356856234
537;537;1449488872;2.15964770317;0.811602890491;0.0685924887657;3;True;24;1;75.77406356856234
538;538;1449488872;2.15963697433;0.811466217041;0.06862559169530001;3;True;24;1;75.77406356856234
539;539;1449488872;2.15927624702;0.811276972294;0.0685901865363;3;True;24;1;75.77406356856234
540;540;1449488872;2.15929818153;0.811250865459;0.0689369514585;3;True;24;1;75.77406356856234
541;541;1449488872;2.15964484215;0.811262786388;0.0688711255789;3;True;24;1;75.77406356856234
542;542;1449488872;2.1598427295700002;0.8114817738529999;0.0686204880476;3;True;24;1;75.77406356856234
543;543;1449488872;2.1593866348299997;0.811424791813;0.06845092773440001;3;True;24;1;75.77406356856234
544;544;1449488872;2.15924930573;0.811269104481;0.06855134665969999;3;True;24;1;75.77406356856234
545;545;1449488872;2.1600522994999998;0.811674296856;0.06864238530399999;3;True;24;1;75.77406356856234
546;546;1449488872;2.1590423584000002;0.811290204525;0.0686801224947;3;True;24;1;75.77406356856234
547;547;1449488872;2.15895152092;0.812090694904;0.06827472150330001;3;True;24;1;75.77406356856234
548;548;1449488872;2.15965270996;0.811394929886;0.0686801224947;3;True;24;1;75.77406356856234
549;549;1449488872;2.15929722786;0.81121969223;0.0688752904534;3;True;24;1;75.77406356856234
550;550;1449488872;2.15944027901;0.811345756054;0.0686066225171;3;True;24;1;75.77406356856234
551;551;1449488872;2.15954399109;0.8114973306659999;0.0685947015882;3;True;24;1;75.77406356856234
552;552;1449488872;2.15957045555;0.811061859131;0.0691586881876;3;True;24;1;75.77406356856234
553;553;1449488872;2.15996718407;0.8119336366650001;0.0688745453954;3;True;24;1;75.77406356856234
554;554;1449488872;2.15954566002;0.8110077977179999;0.0689336284995;3;True;24;1;75.77406356856234
555;555;1449488872;2.1597571372999997;0.811510145664;0.06872309744360001;3;True;24;1;75.77406356856234
556;556;1449488872;2.1597502231599996;0.8116421699519999;0.0686326995492;3;True;24;1;75.77406356856234
557;557;1449488872;2.15956091881;0.811477184296;0.0686545595527;3;True;24;1;75.77406356856234
558;558;1449488872;2.15967726707;0.8116486668590001;0.0685955733061;3;True;24;1;75.77406356856234
559;559;1449488872;2.15957283974;0.811583161354;0.0686042755842;3;True;24;1;75.77406356856234
560;560;1449488872;2.15967798233;0.811568558216;0.0685953721404;3;True;24;1;75.77406356856234
561;561;1449488872;2.15957689285;0.8115419745450001;0.0686349645257;3;True;24;1;75.77406356856234
562;562;1449488872;2.1593182086900002;0.8114058971410001;0.06858587265010001;3;True;24;1;75.77406356856234
563;563;1449488872;2.15973854065;0.811662614346;0.068641088903;3;True;24;1;75.77406356856234
564;564;1449488872;2.1594932079299998;0.811130166054;0.0691039264202;3;True;24;1;75.77406356856234
565;565;1449488872;2.15958595276;0.811558246613;0.0686391592026;3;True;24;1;75.77406356856234
566;566;1449488872;2.15892338753;0.811486959457;0.0683968439698;3;True;24;1;75.77406356856234
567;567;1449488872;2.15954899788;0.8113958239560001;0.06876099854710001;3;True;24;1;75.77406356856234
568;568;1449488872;2.15960741043;0.810995936394;0.0691494122148;3;True;24;1;75.77406356856234
569;569;1449488872;2.15949869156;0.811681687832;0.0684549584985;3;True;24;1;75.77406356856234
570;570;1449488872;2.1595623493200002;0.811207950115;0.0689679980278;3;True;24;1;75.77406356856234
571;571;1449488872;2.15928316116;0.8114287257189999;0.0686503425241;3;True;24;1;75.77406356856234
572;572;1449488872;2.15992331505;0.8111891150470001;0.06880875676869999;3;True;24;1;75.77406356856234
573;573;1449488872;2.1595280170400004;0.8112498521799999;0.068743377924;3;True;24;1;75.77406356856234
574;574;1449488872;2.15966081619;0.8116229772570001;0.06871349364519999;3;True;24;1;75.77406356856234
575;575;1449488872;2.1596968174;0.811058044434;0.06929023563860001;3;True;24;1;75.77406356856234
576;576;1449488872;2.15953469276;0.8116053342820001;0.0685989484191;3;True;24;1;75.77406356856234
577;577;1449488872;2.1595954895;0.811771035194;0.0685516223311;3;True;24;1;75.77406356856234
578;578;1449488872;2.1589069366499998;0.812356889248;0.06789186596869999;3;True;24;1;75.77406356856234
579;579;1449488872;2.15960001945;0.81153023243;0.0685949325562;3;True;24;1;75.77406356856234
580;580;1449488872;2.15967321396;0.81144040823;0.068610675633;3;True;24;1;75.77406356856234
581;581;1449488872;2.15916967392;0.811407864094;0.06874266266819999;3;True;24;1;75.77406356856234
582;582;1449488872;2.15942645073;0.811750531197;0.06849960237739999;3;True;24;1;75.77406356856234
583;583;1449488872;2.15908145905;0.811213552952;0.0687287524343;3;True;24;1;75.77406356856234
584;584;1449488872;2.1593914032;0.8116865754129999;0.0685535147786;3;True;24;1;75.77406356856234
585;585;1449488872;2.1596193313599996;0.8117071986200001;0.068628706038;3;True;24;1;75.77406356856234
586;586;1449488872;2.15953302383;0.811685323715;0.0685561150312;3;True;24;1;75.77406356856234
587;587;1449488872;2.1597604751599997;0.811592757702;0.0686277523637;3;True;24;1;75.77406356856234
588;588;1449488872;2.1597700119;0.8116006851199999;0.0685845464468;3;True;24;1;75.77406356856234
589;589;1449488872;2.15920948982;0.811349391937;0.06858804821969999;3;True;24;1;75.77406356856234
590;590;1449488872;2.15945363045;0.811438322067;0.0686208456755;3;True;24;1;75.77406356856234
591;591;1449488872;2.1592485904700003;0.811544954777;0.0685565695167;3;True;24;1;75.77406356856234
592;592;1449488872;2.15953993797;0.8114265203479999;0.0686492174864;3;True;24;1;75.77406356856234
593;593;1449488872;2.1597251892099996;0.811645805836;0.0686541050673;3;True;24;1;75.77406356856234
594;594;1449488872;2.1593310833;0.811358988285;0.0686818882823;3;True;24;1;75.77406356856234
595;595;1449488872;2.15981459618;0.811548054218;0.0686049088836;3;True;24;1;75.77406356856234
596;596;1449488872;2.15945029259;0.811744093895;0.06822314858440001;3;True;24;1;75.77406356856234
597;597;1449488872;2.15964698792;0.8112002015109999;0.06882657110689999;3;True;24;1;75.77406356856234
598;598;1449488872;2.15971708298;0.811582744122;0.0687106400728;3;True;24;1;75.77406356856234
599;599;1449488872;2.1590132713299997;0.8115981221199999;0.0686023533344;3;True;24;1;75.77406356856234
600;600;1449488872;2.1594517231;0.81183129549;0.06857353448869999;3;True;24;1;75.77406356856234
601;601;1449488872;2.1593980789200002;0.8112398386;0.068838916719;3;True;24;1;75.77406356856234
602;602;1449488872;2.1585521698;0.811098694801;0.0684568211436;3;True;24;1;75.77406356856234
603;603;1449488872;2.15957379341;0.8111450672149999;0.0687238499522;3;True;24;1;75.77406356856234
604;604;1449488872;2.1595578193700002;0.81151330471;0.06862564384940001;3;True;24;1;75.77406356856234
605;605;1449488872;2.15935230255;0.8113279342649999;0.0686786472797;3;True;24;1;75.77406356856234
606;606;1449488872;2.15959692001;0.811404168606;0.06869067251680001;3;True;24;1;75.77406356856234
607;607;1449488872;2.15947365761;0.811704456806;0.06850489974019999;3;True;24;1;75.77406356856234
608;608;1449488872;2.15951681137;0.8110195994380001;0.0685367435217;3;True;24;1;75.77406356856234
609;609;1449488872;2.15965223312;0.811705052853;0.0685937330127;3;True;24;1;75.77406356856234
610;610;1449488872;2.15944290161;0.811362028122;0.06873474270110001;3;True;24;1;75.77406356856234
