;Unnamed: 0;header_stamp_secs;pose_position_x;pose_position_y;pose_position_z;seconds;drop_values;flight_number;label;dtw
0;0;1449489615;2.40396952629;1.01501047611;0.0703004598618;0;True;26;1;79.81262641027722
1;1;1449489615;2.40380382538;1.01481819153;0.0705388709903;0;True;26;1;79.81262641027722
2;2;1449489615;2.4039478302;1.01501917839;0.0703125149012;0;True;26;1;79.81262641027722
3;3;1449489615;2.40387654305;1.01474928856;0.0705316066742;0;True;26;1;79.81262641027722
4;4;1449489615;2.40366363525;1.01458287239;0.0706063210964;0;True;26;1;79.81262641027722
5;5;1449489615;2.40396142006;1.01486742496;0.0702940374613;0;True;26;1;79.81262641027722
6;6;1449489615;2.40379619598;1.01479697227;0.0705224722624;0;True;26;1;79.81262641027722
7;7;1449489615;2.4038434028599998;1.01479029655;0.0704285278916;0;True;26;1;79.81262641027722
8;8;1449489615;2.4037163257599996;1.01463782787;0.07052282989030001;0;True;26;1;79.81262641027722
9;9;1449489615;2.40392374992;1.0147541761399999;0.0703798234463;0;True;26;1;79.81262641027722
10;10;1449489615;2.40375876427;1.01479136944;0.0705507472157;0;True;26;1;79.81262641027722
11;11;1449489615;2.40377950668;1.01479244232;0.07054726779460001;0;True;26;1;79.81262641027722
12;12;1449489615;2.40364289284;1.01482284069;0.0705372169614;0;True;26;1;79.81262641027722
13;13;1449489615;2.4038743972799996;1.0148293972;0.0705023556948;0;True;26;1;79.81262641027722
14;14;1449489615;2.4037804603599997;1.01483345032;0.0705357864499;0;True;26;1;79.81262641027722
15;15;1449489615;2.40376782417;1.01477885246;0.0705377086997;0;True;26;1;79.81262641027722
16;16;1449489615;2.4039504528;1.01479530334;0.07030405104160001;0;True;26;1;79.81262641027722
17;17;1449489615;2.40375709534;1.01463031769;0.07060590386389999;0;True;26;1;79.81262641027722
18;18;1449489615;2.40392422676;1.0147516727399999;0.070378869772;0;True;26;1;79.81262641027722
19;19;1449489615;2.4038066864;1.01481878757;0.0705421864986;0;True;26;1;79.81262641027722
20;20;1449489615;2.40376567841;1.0148447752;0.0706012099981;0;True;26;1;79.81262641027722
21;21;1449489615;2.4036366939500002;1.0146894455;0.0705794245005;0;True;26;1;79.81262641027722
22;22;1449489615;2.4039402008099997;1.0151104927099999;0.07038479298349999;0;True;26;1;79.81262641027722
23;23;1449489615;2.4039165973700003;1.0147480964700002;0.0703667029738;0;True;26;1;79.81262641027722
24;24;1449489615;2.40378260612;1.01462757587;0.0704149231315;0;True;26;1;79.81262641027722
25;25;1449489615;2.40395092964;1.01493644714;0.0702876597643;0;True;26;1;79.81262641027722
26;26;1449489615;2.40386223793;1.01480031013;0.07052838802339999;0;True;26;1;79.81262641027722
27;27;1449489615;2.40385293961;1.0148060321799999;0.0705228373408;0;True;26;1;79.81262641027722
28;28;1449489615;2.40382051468;1.01463782787;0.0704318732023;0;True;26;1;79.81262641027722
29;29;1449489615;2.4038021564500003;1.0147545337700001;0.0705530643463;0;True;26;1;79.81262641027722
30;30;1449489615;2.40391778946;1.01505160332;0.07050721347330001;0;True;26;1;79.81262641027722
31;31;1449489615;2.40396642685;1.0149229764899999;0.0702762529254;0;True;26;1;79.81262641027722
32;32;1449489615;2.40381717682;1.01494920254;0.0704389885068;0;True;26;1;79.81262641027722
33;33;1449489615;2.4039723873099996;1.0149217844;0.0702896639705;0;True;26;1;79.81262641027722
34;34;1449489615;2.40378689766;1.01480388641;0.07053832709789999;0;True;26;1;79.81262641027722
35;35;1449489615;2.40398669243;1.0150700807600002;0.0702762529254;0;True;26;1;79.81262641027722
36;36;1449489615;2.40398740768;1.0149064064;0.070262491703;0;True;26;1;79.81262641027722
37;37;1449489615;2.4037516117099997;1.01485717297;0.0705672428012;0;True;26;1;79.81262641027722
38;38;1449489615;2.4038183689099997;1.01484560966;0.0705582052469;0;True;26;1;79.81262641027722
39;39;1449489615;2.40399932861;1.01513421535;0.0703362599015;0;True;26;1;79.81262641027722
40;40;1449489615;2.40394687653;1.01475358009;0.07035697251560001;0;True;26;1;79.81262641027722
41;41;1449489615;2.40399837494;1.01506984234;0.0702777430415;0;True;26;1;79.81262641027722
42;42;1449489615;2.4038050174700003;1.0149133205399998;0.0705433934927;0;True;26;1;79.81262641027722
43;43;1449489615;2.4039444923400004;1.01485431194;0.07035680860280001;0;True;26;1;79.81262641027722
44;44;1449489615;2.40396332741;1.014772892;0.0703037455678;0;True;26;1;79.81262641027722
45;45;1449489615;2.40400886536;1.01490950584;0.07028353214260001;0;True;26;1;79.81262641027722
46;46;1449489615;2.40400505066;1.01507031918;0.07027234137060001;0;True;26;1;79.81262641027722
47;47;1449489615;2.4039716720599995;1.0148955583600001;0.0702968835831;0;True;26;1;79.81262641027722
48;48;1449489615;2.4039940834;1.0149528980299998;0.07028326392169999;0;True;26;1;79.81262641027722
49;49;1449489615;2.40383267403;1.01483404636;0.07051332294939999;0;True;26;1;79.81262641027722
50;50;1449489615;2.4039678573599996;1.01498472691;0.070326641202;0;True;26;1;79.81262641027722
51;51;1449489615;2.40399003029;1.0149509906799998;0.07027500867839999;0;True;26;1;79.81262641027722
52;52;1449489615;2.4039478302;1.01483106613;0.07035806775089999;0;True;26;1;79.81262641027722
53;53;1449489615;2.4040660858200003;1.01506257057;0.07033014297489999;0;True;26;1;79.81262641027722
54;54;1449489615;2.40395832062;1.01469445229;0.0702714398503;0;True;26;1;79.81262641027722
55;55;1449489615;2.40395188332;1.01478326321;0.0703812465072;0;True;26;1;79.81262641027722
56;56;1449489615;2.40397381783;1.01501429081;0.0702945664525;0;True;26;1;79.81262641027722
57;57;1449489615;2.40400052071;1.01512002945;0.0703050345182;0;True;26;1;79.81262641027722
58;58;1449489615;2.4039080143000002;1.01470685005;0.07033271342519999;0;True;26;1;79.81262641027722
59;59;1449489615;2.40397405624;1.01493155956;0.070282317698;0;True;26;1;79.81262641027722
60;60;1449489615;2.4038035869599996;1.01485276222;0.070534273982;0;True;26;1;79.81262641027722
61;61;1449489615;2.40389204025;1.0148009061799999;0.0703978016973;0;True;26;1;79.81262641027722
62;62;1449489615;2.40398263931;1.01505339146;0.0702666714787;0;True;26;1;79.81262641027722
63;63;1449489615;2.4039127826700004;1.0150883197799998;0.0704423412681;0;True;26;1;79.81262641027722
64;64;1449489615;2.4039504528;1.0148470401799998;0.07029515504839999;0;True;26;1;79.81262641027722
65;65;1449489615;2.40405249596;1.01505315304;0.0703331157565;0;True;26;1;79.81262641027722
66;66;1449489615;2.4039833545700002;1.01510131359;0.070309355855;0;True;26;1;79.81262641027722
67;67;1449489615;2.40385484695;1.0148186683700002;0.07040867954489999;0;True;26;1;79.81262641027722
68;68;1449489615;2.40390205383;1.0147967338600001;0.0703405365348;0;True;26;1;79.81262641027722
69;69;1449489615;2.4039149284400003;1.01476514339;0.0703869760036;0;True;26;1;79.81262641027722
70;70;1449489615;2.40397977829;1.0150564909;0.07026955485339999;0;True;26;1;79.81262641027722
71;71;1449489615;2.40395069122;1.0149505138400001;0.0702838301659;0;True;26;1;79.81262641027722
72;72;1449489615;2.40395545959;1.01495325565;0.0702898278832;0;True;26;1;79.81262641027722
73;73;1449489615;2.4037630558000003;1.01484155655;0.0705390498042;0;True;26;1;79.81262641027722
74;74;1449489615;2.40375947952;1.01480710506;0.07052922248839999;0;True;26;1;79.81262641027722
75;75;1449489616;2.4037902355200003;1.01454102993;0.07037210464480001;1;True;26;1;79.81262641027722
76;76;1449489616;2.4039328098299997;1.0147986412;0.0703125819564;1;True;26;1;79.81262641027722
77;77;1449489616;2.40396142006;1.01491498947;0.07027078419919999;1;True;26;1;79.81262641027722
78;78;1449489616;2.40383172035;1.01487207413;0.07053111493589999;1;True;26;1;79.81262641027722
79;79;1449489616;2.40390133858;1.01466834545;0.070338524878;1;True;26;1;79.81262641027722
80;80;1449489616;2.40393972397;1.0148245096200001;0.0702861621976;1;True;26;1;79.81262641027722
81;81;1449489616;2.40395712852;1.01503551006;0.0703111067414;1;True;26;1;79.81262641027722
82;82;1449489616;2.40375828743;1.0148073434799998;0.0705525875092;1;True;26;1;79.81262641027722
83;83;1449489616;2.40376019478;1.0147206783299998;0.0706305652857;1;True;26;1;79.81262641027722
84;84;1449489616;2.4039516449000002;1.01495528221;0.0702949985862;1;True;26;1;79.81262641027722
85;85;1449489616;2.4039344787599997;1.0147796869299999;0.0703002139926;1;True;26;1;79.81262641027722
86;86;1449489616;2.4037077426900004;1.0148367881799998;0.0705046206713;1;True;26;1;79.81262641027722
87;87;1449489616;2.40397453308;1.01505088806;0.0702737867832;1;True;26;1;79.81262641027722
88;88;1449489616;2.40389037132;1.0149519443500001;0.0704177245498;1;True;26;1;79.81262641027722
89;89;1449489616;2.40376138687;1.01487374306;0.07051835954189999;1;True;26;1;79.81262641027722
90;90;1449489616;2.40378832817;1.0148397684100001;0.07056228071449999;1;True;26;1;79.81262641027722
91;91;1449489616;2.40403962135;1.01508998871;0.0703434571624;1;True;26;1;79.81262641027722
92;92;1449489616;2.40385770798;1.0147448778200001;0.070525854826;1;True;26;1;79.81262641027722
93;93;1449489616;2.40383934975;1.01482892036;0.07050816714760001;1;True;26;1;79.81262641027722
94;94;1449489616;2.40372157097;1.01473987103;0.0707230344415;1;True;26;1;79.81262641027722
95;95;1449489616;2.40379786491;1.0147854089700001;0.0705034956336;1;True;26;1;79.81262641027722
96;96;1449489616;2.40370416641;1.01475179195;0.07048611342910001;1;True;26;1;79.81262641027722
97;97;1449489616;2.40376257896;1.0147844553;0.0705447643995;1;True;26;1;79.81262641027722
98;98;1449489616;2.40380430222;1.0148109197600002;0.07041984051469999;1;True;26;1;79.81262641027722
99;99;1449489616;2.40392231941;1.01472115517;0.07037119567389999;1;True;26;1;79.81262641027722
100;100;1449489616;2.40374183655;1.0147908926;0.0705052688718;1;True;26;1;79.81262641027722
101;101;1449489616;2.40403103828;1.01506459713;0.0703258365393;1;True;26;1;79.81262641027722
102;102;1449489616;2.40395951271;1.01496899128;0.0703039243817;1;True;26;1;79.81262641027722
103;103;1449489616;2.4039764404299997;1.01492333412;0.07027469575410002;1;True;26;1;79.81262641027722
104;104;1449489616;2.40397071838;1.01507532597;0.0703398808837;1;True;26;1;79.81262641027722
105;105;1449489616;2.40397930145;1.01506590843;0.0702822133899;1;True;26;1;79.81262641027722
106;106;1449489616;2.40391206741;1.0147907733900001;0.07034482806919999;1;True;26;1;79.81262641027722
107;107;1449489616;2.40397834778;1.0150527954100002;0.0702779367566;1;True;26;1;79.81262641027722
108;108;1449489616;2.4037952423099997;1.0147871971100002;0.07052654772999999;1;True;26;1;79.81262641027722
109;109;1449489616;2.4038751125299997;1.0148233175299999;0.07038889825339999;1;True;26;1;79.81262641027722
110;110;1449489616;2.40397810936;1.01503407955;0.0703043788671;1;True;26;1;79.81262641027722
111;111;1449489616;2.4039678573599996;1.01493358612;0.070289246738;1;True;26;1;79.81262641027722
112;112;1449489616;2.4038825035099998;1.0147588253;0.07039344310760001;1;True;26;1;79.81262641027722
113;113;1449489616;2.4038729667700003;1.0145726203899998;0.07038401812310001;1;True;26;1;79.81262641027722
114;114;1449489616;2.4039607048;1.01472485065;0.0702716559172;1;True;26;1;79.81262641027722
115;115;1449489616;2.4039816856400003;1.01506054401;0.0702773779631;1;True;26;1;79.81262641027722
116;116;1449489616;2.4037513732900004;1.01478970051;0.0705390796065;1;True;26;1;79.81262641027722
117;117;1449489616;2.40364050865;1.01492989063;0.07060169428589999;1;True;26;1;79.81262641027722
118;118;1449489616;2.4039483070400003;1.01471221447;0.0702905207872;1;True;26;1;79.81262641027722
119;119;1449489616;2.4039273262000003;1.0147576332100001;0.0703867077827;1;True;26;1;79.81262641027722
120;120;1449489616;2.4039349556;1.01477813721;0.0703822895885;1;True;26;1;79.81262641027722
121;121;1449489616;2.40398192406;1.0151257515;0.0703581050038;1;True;26;1;79.81262641027722
122;122;1449489616;2.4039809703799997;1.01488471031;0.0702842846513;1;True;26;1;79.81262641027722
123;123;1449489616;2.4039182663;1.0146036148100002;0.0703616142273;1;True;26;1;79.81262641027722
124;124;1449489616;2.40378880501;1.0146553516399999;0.0704281181097;1;True;26;1;79.81262641027722
125;125;1449489616;2.4039638042400004;1.01508235931;0.0702964290977;1;True;26;1;79.81262641027722
126;126;1449489616;2.40382528305;1.01485347748;0.07047650218010001;1;True;26;1;79.81262641027722
127;127;1449489616;2.40368485451;1.0145441293700002;0.07051461189989999;1;True;26;1;79.81262641027722
128;128;1449489616;2.40391349792;1.0148028135299998;0.0703526809812;1;True;26;1;79.81262641027722
129;129;1449489616;2.40386080742;1.01466238499;0.0704006403685;1;True;26;1;79.81262641027722
130;130;1449489616;2.40388536453;1.01481223106;0.0704930573702;1;True;26;1;79.81262641027722
131;131;1449489616;2.40405464172;1.01502466202;0.07033759355550001;1;True;26;1;79.81262641027722
132;132;1449489616;2.40400910378;1.0150279998799998;0.0703221559525;1;True;26;1;79.81262641027722
133;133;1449489616;2.4038090705900004;1.01482152939;0.07042108476160001;1;True;26;1;79.81262641027722
134;134;1449489616;2.4039735794099997;1.01494157314;0.0702877342701;1;True;26;1;79.81262641027722
135;135;1449489616;2.4039328098299997;1.01497077942;0.0703571811318;1;True;26;1;79.81262641027722
136;136;1449489616;2.40387916565;1.01492238045;0.07041075825689999;1;True;26;1;79.81262641027722
137;137;1449489616;2.4039850234999998;1.01475119591;0.0702604353428;1;True;26;1;79.81262641027722
138;138;1449489616;2.40389609337;1.01479017735;0.07033719122410001;1;True;26;1;79.81262641027722
139;139;1449489616;2.40388321877;1.0149245262100002;0.0704092010856;1;True;26;1;79.81262641027722
140;140;1449489616;2.40397977829;1.01492261887;0.0702747404575;1;True;26;1;79.81262641027722
141;141;1449489616;2.40385341644;1.01515090466;0.07046207785610001;1;True;26;1;79.81262641027722
142;142;1449489616;2.4038631916;1.0148332118999999;0.07050532102580001;1;True;26;1;79.81262641027722
143;143;1449489616;2.4038617610900004;1.0148166418100002;0.0705206021667;1;True;26;1;79.81262641027722
144;144;1449489616;2.40399432182;1.0150603056;0.0702869221568;1;True;26;1;79.81262641027722
145;145;1449489616;2.4040021896400003;1.0150674581499999;0.07027580589060001;1;True;26;1;79.81262641027722
146;146;1449489616;2.40399479866;1.0150426626200002;0.0702688843012;1;True;26;1;79.81262641027722
147;147;1449489616;2.40365767479;1.01467597485;0.0705884173512;1;True;26;1;79.81262641027722
148;148;1449489616;2.40386271477;1.01482951641;0.07051619142289998;1;True;26;1;79.81262641027722
149;149;1449489616;2.40394997597;1.01474440098;0.07036755979060001;1;True;26;1;79.81262641027722
150;150;1449489616;2.4039630889900003;1.01500272751;0.0703350529075;1;True;26;1;79.81262641027722
151;151;1449489616;2.40392374992;1.01481330395;0.07035497576000001;1;True;26;1;79.81262641027722
152;152;1449489616;2.40376639366;1.01480364799;0.0704530254006;1;True;26;1;79.81262641027722
153;153;1449489616;2.40378594398;1.01478230953;0.0706061795354;1;True;26;1;79.81262641027722
154;154;1449489616;2.40389561653;1.01484894753;0.07048529386519999;1;True;26;1;79.81262641027722
155;155;1449489616;2.40381288528;1.01455938816;0.0703841224313;1;True;26;1;79.81262641027722
156;156;1449489616;2.40377807617;1.0147870779000001;0.07053834199910002;1;True;26;1;79.81262641027722
157;157;1449489616;2.40378165245;1.01476204395;0.07054048776630001;1;True;26;1;79.81262641027722
158;158;1449489616;2.4039092063900003;1.0147690773;0.0704025626183;1;True;26;1;79.81262641027722
159;159;1449489616;2.4040036201499997;1.0150513649;0.0702722072601;1;True;26;1;79.81262641027722
160;160;1449489616;2.40392303467;1.01481807232;0.0704981535673;1;True;26;1;79.81262641027722
161;161;1449489616;2.40398693085;1.01510381699;0.0703097879887;1;True;26;1;79.81262641027722
162;162;1449489616;2.40379738808;1.01460921764;0.070396579802;1;True;26;1;79.81262641027722
163;163;1449489616;2.40371084213;1.01471328735;0.0705664977431;1;True;26;1;79.81262641027722
164;164;1449489616;2.40377521515;1.01476788521;0.0705003142357;1;True;26;1;79.81262641027722
165;165;1449489616;2.40397405624;1.01488232613;0.0703012421727;1;True;26;1;79.81262641027722
166;166;1449489616;2.4039883613599997;1.0149230957;0.07028668373819999;1;True;26;1;79.81262641027722
167;167;1449489616;2.40394997597;1.01477611065;0.07038339227439999;1;True;26;1;79.81262641027722
168;168;1449489616;2.40395355225;1.01481819153;0.07029943168160001;1;True;26;1;79.81262641027722
169;169;1449489616;2.40386247635;1.01484155655;0.07050357758999999;1;True;26;1;79.81262641027722
170;170;1449489616;2.40394186974;1.01474368572;0.0703587830067;1;True;26;1;79.81262641027722
171;171;1449489616;2.4038105011;1.01485490799;0.0705096945167;1;True;26;1;79.81262641027722
172;172;1449489616;2.40378761292;1.0148797035200001;0.0705957561731;1;True;26;1;79.81262641027722
173;173;1449489616;2.4037790298500004;1.01482117176;0.0705376639962;1;True;26;1;79.81262641027722
174;174;1449489616;2.40394353867;1.0147029161499999;0.0703786537051;1;True;26;1;79.81262641027722
175;175;1449489616;2.40379261971;1.0147241354;0.0705617442727;1;True;26;1;79.81262641027722
176;176;1449489616;2.40394377708;1.01473522186;0.07036072760819999;1;True;26;1;79.81262641027722
177;177;1449489616;2.40394210815;1.0147094726600001;0.0703215003014;1;True;26;1;79.81262641027722
178;178;1449489616;2.40394234657;1.01471400261;0.07039599120619999;1;True;26;1;79.81262641027722
179;179;1449489616;2.40390706062;1.01480913162;0.0703864693642;1;True;26;1;79.81262641027722
180;180;1449489616;2.4038579464;1.01483917236;0.0705273449421;1;True;26;1;79.81262641027722
181;181;1449489616;2.40399384499;1.0150614976899999;0.070274502039;1;True;26;1;79.81262641027722
182;182;1449489616;2.40379548073;1.0148504972499999;0.07056266069410001;1;True;26;1;79.81262641027722
183;183;1449489616;2.40375638008;1.01487314701;0.0705367848277;1;True;26;1;79.81262641027722
184;184;1449489616;2.4039590358700003;1.01478767395;0.0703731104732;1;True;26;1;79.81262641027722
185;185;1449489616;2.40394949913;1.0148423910100002;0.0703093335032;1;True;26;1;79.81262641027722
186;186;1449489616;2.40392708778;1.0148191452;0.07035586982969999;1;True;26;1;79.81262641027722
187;187;1449489616;2.4038672447200002;1.01474893093;0.0704618543386;1;True;26;1;79.81262641027722
188;188;1449489616;2.40378022194;1.0146241188;0.0704099312425;1;True;26;1;79.81262641027722
189;189;1449489616;2.40389800072;1.01477861404;0.0704904645681;1;True;26;1;79.81262641027722
190;190;1449489616;2.40395736694;1.01514983177;0.070389226079;1;True;26;1;79.81262641027722
191;191;1449489616;2.40390634537;1.01484668255;0.0704942271113;1;True;26;1;79.81262641027722
192;192;1449489616;2.4039795398700003;1.0150725841500001;0.07027882337569999;1;True;26;1;79.81262641027722
193;193;1449489616;2.40381455421;1.01484358311;0.0705251991749;1;True;26;1;79.81262641027722
194;194;1449489616;2.4039833545700002;1.0149439573299999;0.0702835842967;1;True;26;1;79.81262641027722
195;195;1449489616;2.40399646759;1.01505792141;0.07027392089369999;1;True;26;1;79.81262641027722
196;196;1449489616;2.40391111374;1.0148496627799999;0.0705096423626;1;True;26;1;79.81262641027722
197;197;1449489616;2.40387010574;1.0147588253;0.0704235434532;1;True;26;1;79.81262641027722
198;198;1449489616;2.4039485454599996;1.01468217373;0.0703071951866;1;True;26;1;79.81262641027722
199;199;1449489616;2.40394997597;1.01485979557;0.07029270380739999;1;True;26;1;79.81262641027722
200;200;1449489616;2.40392684937;1.01478230953;0.0703765973449;1;True;26;1;79.81262641027722
201;201;1449489616;2.4039545059200003;1.0146923065200002;0.0702842399478;1;True;26;1;79.81262641027722
202;202;1449489616;2.40384960175;1.01496875286;0.0705597922206;1;True;26;1;79.81262641027722
203;203;1449489616;2.40394902229;1.01490855217;0.0703339129686;1;True;26;1;79.81262641027722
204;204;1449489616;2.40389657021;1.01481974125;0.0705053135753;1;True;26;1;79.81262641027722
205;205;1449489616;2.40399003029;1.01505315304;0.0702947974205;1;True;26;1;79.81262641027722
206;206;1449489616;2.40401268005;1.01512801647;0.07031124085189999;1;True;26;1;79.81262641027722
207;207;1449489616;2.40382504463;1.0147494077700001;0.07056197524069999;1;True;26;1;79.81262641027722
208;208;1449489616;2.40384697914;1.01486766338;0.0704569891095;1;True;26;1;79.81262641027722
209;209;1449489616;2.4038655757900003;1.01473760605;0.0705268383026;1;True;26;1;79.81262641027722
210;210;1449489616;2.40381288528;1.01483118534;0.070570603013;1;True;26;1;79.81262641027722
211;211;1449489616;2.40391755104;1.0147545337700001;0.070338062942;1;True;26;1;79.81262641027722
212;212;1449489616;2.4037792682599997;1.01483595371;0.0705304965377;1;True;26;1;79.81262641027722
213;213;1449489616;2.4039735794099997;1.01496422291;0.07028825581069999;1;True;26;1;79.81262641027722
214;214;1449489616;2.4039094448099996;1.01479744911;0.0704921409488;1;True;26;1;79.81262641027722
215;215;1449489616;2.40396642685;1.01479566097;0.07029820978639999;1;True;26;1;79.81262641027722
216;216;1449489616;2.4038736820200004;1.0148726701700002;0.07053659856319999;1;True;26;1;79.81262641027722
217;217;1449489616;2.40398669243;1.01493954659;0.0702794194221;1;True;26;1;79.81262641027722
218;218;1449489616;2.40390992165;1.01478767395;0.0703948587179;1;True;26;1;79.81262641027722
219;219;1449489616;2.4038267135599996;1.0147912502299998;0.0705259442329;1;True;26;1;79.81262641027722
220;220;1449489616;2.4036989212;1.0147795677200002;0.07055173069239999;1;True;26;1;79.81262641027722
221;221;1449489616;2.40369915962;1.01477730274;0.07063838839530001;1;True;26;1;79.81262641027722
222;222;1449489616;2.4039878845200002;1.01493728161;0.07027562707660001;1;True;26;1;79.81262641027722
223;223;1449489616;2.40396571159;1.01499092579;0.07029799371960001;1;True;26;1;79.81262641027722
224;224;1449489616;2.40397024155;1.01489198208;0.0702981129289;1;True;26;1;79.81262641027722
225;225;1449489616;2.4039974212599997;1.01506125927;0.070285692811;1;True;26;1;79.81262641027722
226;226;1449489616;2.40401244164;1.01504850388;0.07027558237310001;1;True;26;1;79.81262641027722
227;227;1449489616;2.4039986133599998;1.0150669813200002;0.0702855437994;1;True;26;1;79.81262641027722
228;228;1449489616;2.40383911133;1.01513707638;0.0704606473446;1;True;26;1;79.81262641027722
229;229;1449489616;2.40398573875;1.01498520374;0.070296831429;1;True;26;1;79.81262641027722
230;230;1449489616;2.40378594398;1.01470267773;0.0704947412014;1;True;26;1;79.81262641027722
231;231;1449489616;2.40400576591;1.01517617702;0.07034541666510001;1;True;26;1;79.81262641027722
232;232;1449489616;2.4039094448099996;1.01482009888;0.0705095976591;1;True;26;1;79.81262641027722
233;233;1449489616;2.40397453308;1.01477324963;0.07030691951510001;1;True;26;1;79.81262641027722
234;234;1449489616;2.4038619995099997;1.0151060819600002;0.070438362658;1;True;26;1;79.81262641027722
235;235;1449489616;2.4038619995099997;1.01483201981;0.07054143399;1;True;26;1;79.81262641027722
236;236;1449489616;2.40399456024;1.0150618553200002;0.07029425352810001;1;True;26;1;79.81262641027722
237;237;1449489616;2.40394902229;1.0147329568899999;0.07036455720660001;1;True;26;1;79.81262641027722
238;238;1449489616;2.40385055542;1.01482927799;0.07053104043010001;1;True;26;1;79.81262641027722
239;239;1449489616;2.40380883217;1.01481640339;0.0705499649048;1;True;26;1;79.81262641027722
240;240;1449489616;2.40379118919;1.01476681232;0.0705592855811;1;True;26;1;79.81262641027722
241;241;1449489616;2.40382766724;1.0148470401799998;0.07054777443410001;1;True;26;1;79.81262641027722
242;242;1449489616;2.40396904945;1.01498830318;0.07034093141560001;1;True;26;1;79.81262641027722
243;243;1449489616;2.40393948555;1.01507282257;0.0703998431563;1;True;26;1;79.81262641027722
244;244;1449489616;2.40391373634;1.01480054855;0.0704748854041;1;True;26;1;79.81262641027722
245;245;1449489616;2.40388298035;1.01467227936;0.0703876391053;1;True;26;1;79.81262641027722
246;246;1449489616;2.40390396118;1.01481711864;0.0705210119486;1;True;26;1;79.81262641027722
247;247;1449489616;2.40389466286;1.01467072964;0.07038781046869999;1;True;26;1;79.81262641027722
248;248;1449489616;2.4039764404299997;1.0149282217;0.0703016296029;1;True;26;1;79.81262641027722
249;249;1449489616;2.40398931503;1.01508581638;0.07029498368499999;1;True;26;1;79.81262641027722
250;250;1449489616;2.4037797451;1.01479446888;0.0705526247621;1;True;26;1;79.81262641027722
251;251;1449489616;2.40379619598;1.01481747627;0.07044292241330001;1;True;26;1;79.81262641027722
252;252;1449489616;2.40381479263;1.01491236687;0.0704347342253;1;True;26;1;79.81262641027722
253;253;1449489616;2.40374612808;1.0146372318299999;0.0705539435148;1;True;26;1;79.81262641027722
254;254;1449489616;2.40397906303;1.01503670216;0.07028630375860001;1;True;26;1;79.81262641027722
255;255;1449489616;2.40398716927;1.01502907276;0.0702933445573;1;True;26;1;79.81262641027722
256;256;1449489616;2.40398454666;1.01513624191;0.07035195827480001;1;True;26;1;79.81262641027722
257;257;1449489616;2.40369224548;1.0147871971100002;0.07054089754819999;1;True;26;1;79.81262641027722
258;258;1449489616;2.4038736820200004;1.01483440399;0.07050567120310001;1;True;26;1;79.81262641027722
259;259;1449489616;2.40396976471;1.0149346590000001;0.0702904686332;1;True;26;1;79.81262641027722
260;260;1449489616;2.40397810936;1.01486194134;0.07029633224010001;1;True;26;1;79.81262641027722
261;261;1449489616;2.4038341045400005;1.01487541199;0.07053755968810001;1;True;26;1;79.81262641027722
262;262;1449489616;2.4037282466900005;1.0147138834;0.070571757853;1;True;26;1;79.81262641027722
263;263;1449489616;2.4039530754099996;1.0147967338600001;0.0703058168292;1;True;26;1;79.81262641027722
264;264;1449489616;2.40379142761;1.01471912861;0.07041537761689999;1;True;26;1;79.81262641027722
265;265;1449489616;2.40377020836;1.0149053335200002;0.07055461406710001;1;True;26;1;79.81262641027722
266;266;1449489616;2.4040105342900002;1.01510179043;0.0703320279717;1;True;26;1;79.81262641027722
267;267;1449489616;2.40375256538;1.0145823955500002;0.07047187536949999;1;True;26;1;79.81262641027722
268;268;1449489616;2.4039158821099997;1.01471567154;0.07039719820019999;1;True;26;1;79.81262641027722
269;269;1449489616;2.40371847153;1.01470589638;0.0704937875271;1;True;26;1;79.81262641027722
270;270;1449489616;2.4037396907799997;1.01447868347;0.0704646632075;1;True;26;1;79.81262641027722
271;271;1449489616;2.40379667282;1.01488268375;0.0705913081765;1;True;26;1;79.81262641027722
272;272;1449489616;2.4037861824;1.01481175423;0.07059310376639999;1;True;26;1;79.81262641027722
273;273;1449489616;2.40395832062;1.014950037;0.07030066102739999;1;True;26;1;79.81262641027722
274;274;1449489616;2.40378665924;1.01476490498;0.07054714858529999;1;True;26;1;79.81262641027722
275;275;1449489616;2.40382552147;1.01480567455;0.0705558657646;1;True;26;1;79.81262641027722
276;276;1449489616;2.4037792682599997;1.01476716995;0.07047399878499999;1;True;26;1;79.81262641027722
277;277;1449489616;2.40396332741;1.0148777961700002;0.0702927187085;1;True;26;1;79.81262641027722
278;278;1449489616;2.4039640426599997;1.0150442123399999;0.07033883035180001;1;True;26;1;79.81262641027722
279;279;1449489616;2.4037904739400004;1.01481604576;0.07050247490410001;1;True;26;1;79.81262641027722
280;280;1449489616;2.4038670063;1.01475012302;0.070442520082;1;True;26;1;79.81262641027722
281;281;1449489616;2.40375494957;1.01476514339;0.0705232918262;1;True;26;1;79.81262641027722
282;282;1449489616;2.40395975113;1.01505601406;0.07035741209980001;1;True;26;1;79.81262641027722
283;283;1449489616;2.40374398232;1.01477086544;0.0705445110798;1;True;26;1;79.81262641027722
284;284;1449489616;2.4038989543900002;1.0146211385700001;0.0703214034438;1;True;26;1;79.81262641027722
285;285;1449489616;2.40375351906;1.01464998722;0.07053848356010001;1;True;26;1;79.81262641027722
286;286;1449489616;2.40373587608;1.0145924091299998;0.0704776719213;1;True;26;1;79.81262641027722
287;287;1449489616;2.4039080143000002;1.01487314701;0.0703750625253;1;True;26;1;79.81262641027722
288;288;1449489616;2.40380191803;1.0148037672;0.070567548275;1;True;26;1;79.81262641027722
289;289;1449489616;2.4038722515099997;1.0151039362;0.0705131739378;1;True;26;1;79.81262641027722
290;290;1449489616;2.40392374992;1.01487803459;0.0703441873193;1;True;26;1;79.81262641027722
291;291;1449489616;2.4037454128299998;1.01449215412;0.0704391002655;1;True;26;1;79.81262641027722
292;292;1449489616;2.40369486809;1.01471102238;0.0705284401774;1;True;26;1;79.81262641027722
293;293;1449489616;2.40387678146;1.01473748684;0.070464938879;1;True;26;1;79.81262641027722
294;294;1449489616;2.40397262573;1.01503527164;0.07028974592689999;1;True;26;1;79.81262641027722
295;295;1449489616;2.40377879143;1.0148464441299998;0.0705419927835;1;True;26;1;79.81262641027722
296;296;1449489616;2.4037890434299998;1.01495480537;0.0706142261624;1;True;26;1;79.81262641027722
297;297;1449489616;2.4039244651800002;1.01473903656;0.070374533534;1;True;26;1;79.81262641027722
298;298;1449489616;2.4039719104799997;1.01505839825;0.070290222764;1;True;26;1;79.81262641027722
299;299;1449489616;2.4040350914;1.0149884223899999;0.0703470781446;1;True;26;1;79.81262641027722
300;300;1449489616;2.4039487838699998;1.0148704052;0.070296369493;1;True;26;1;79.81262641027722
301;301;1449489616;2.40397047997;1.0150320529899999;0.0702756866813;1;True;26;1;79.81262641027722
302;302;1449489616;2.40395259857;1.01490867138;0.0702958106995;1;True;26;1;79.81262641027722
303;303;1449489616;2.40392923355;1.01469194889;0.070320174098;1;True;26;1;79.81262641027722
304;304;1449489616;2.4039399623900004;1.01473629475;0.07030123472210001;1;True;26;1;79.81262641027722
305;305;1449489616;2.40393090248;1.01478123665;0.0703226476908;1;True;26;1;79.81262641027722
306;306;1449489616;2.40396809578;1.01507639885;0.070305198431;1;True;26;1;79.81262641027722
307;307;1449489616;2.40384054184;1.01483297348;0.0705102607608;1;True;26;1;79.81262641027722
308;308;1449489616;2.4037499427799998;1.01476418972;0.0705525577068;1;True;26;1;79.81262641027722
309;309;1449489616;2.4039542675;1.0149204731;0.07029101252560001;1;True;26;1;79.81262641027722
310;310;1449489616;2.40395712852;1.01497399807;0.0702965855598;1;True;26;1;79.81262641027722
311;311;1449489616;2.40376138687;1.0147613287000001;0.07054951786989999;1;True;26;1;79.81262641027722
312;312;1449489616;2.40372776985;1.014793396;0.07051976770160001;1;True;26;1;79.81262641027722
313;313;1449489616;2.40392374992;1.01474916935;0.0703918784857;1;True;26;1;79.81262641027722
314;314;1449489617;2.4037585258500003;1.01481354237;0.0705299153924;2;True;26;1;79.81262641027722
315;315;1449489617;2.40393042564;1.0147635936700001;0.0703670307994;2;True;26;1;79.81262641027722
316;316;1449489617;2.4039764404299997;1.01512682438;0.07033252716060001;2;True;26;1;79.81262641027722
317;317;1449489617;2.4038815498400004;1.01490294933;0.0704650953412;2;True;26;1;79.81262641027722
318;318;1449489617;2.40366911888;1.01474869251;0.0706163421273;2;True;26;1;79.81262641027722
319;319;1449489617;2.4039685726199997;1.0148805379899999;0.07030031085010001;2;True;26;1;79.81262641027722
320;320;1449489617;2.4039092063900003;1.01483368874;0.07036875933410001;2;True;26;1;79.81262641027722
321;321;1449489617;2.4039483070400003;1.01487648487;0.07033346593380001;2;True;26;1;79.81262641027722
322;322;1449489617;2.40398669243;1.01503753662;0.0702793449163;2;True;26;1;79.81262641027722
323;323;1449489617;2.40375804901;1.01472496986;0.07053642719980001;2;True;26;1;79.81262641027722
324;324;1449489617;2.40396261215;1.01487696171;0.070300295949;2;True;26;1;79.81262641027722
325;325;1449489617;2.4039735794099997;1.0148996114700002;0.0702906623483;2;True;26;1;79.81262641027722
326;326;1449489617;2.40398073196;1.01502478123;0.0702823325992;2;True;26;1;79.81262641027722
327;327;1449489617;2.40372467041;1.0147697925599999;0.0706017240882;2;True;26;1;79.81262641027722
328;328;1449489617;2.40394687653;1.0147742033;0.0702982023358;2;True;26;1;79.81262641027722
329;329;1449489617;2.40399003029;1.01502919197;0.07027847319839998;2;True;26;1;79.81262641027722
330;330;1449489617;2.40387892723;1.01472306252;0.0705297663808;2;True;26;1;79.81262641027722
331;331;1449489617;2.40395236015;1.0148057937600001;0.07031620293860001;2;True;26;1;79.81262641027722
332;332;1449489617;2.40398478508;1.01505577564;0.0702872797847;2;True;26;1;79.81262641027722
333;333;1449489617;2.4039878845200002;1.01504850388;0.07029470056300001;2;True;26;1;79.81262641027722
334;334;1449489617;2.40387916565;1.0148146152500002;0.0705058276653;2;True;26;1;79.81262641027722
335;335;1449489617;2.4038712978400003;1.0148323774299999;0.0705210715532;2;True;26;1;79.81262641027722
336;336;1449489617;2.40379571915;1.014757514;0.0705303177238;2;True;26;1;79.81262641027722
337;337;1449489617;2.4037878513299997;1.0147588253;0.0705254375935;2;True;26;1;79.81262641027722
338;338;1449489617;2.4039952755000003;1.01505804062;0.070282228291;2;True;26;1;79.81262641027722
339;339;1449489617;2.40380477905;1.01468551159;0.0705419331789;2;True;26;1;79.81262641027722
340;340;1449489617;2.4039602279700003;1.01486206055;0.07030584663150001;2;True;26;1;79.81262641027722
341;341;1449489617;2.40396094322;1.01480257511;0.0703033655882;2;True;26;1;79.81262641027722
342;342;1449489617;2.40382027626;1.0146386623399999;0.0703861713409;2;True;26;1;79.81262641027722
343;343;1449489617;2.40400028229;1.01506853104;0.07031595706939998;2;True;26;1;79.81262641027722
344;344;1449489617;2.4038121700299997;1.01482570171;0.0706387162209;2;True;26;1;79.81262641027722
345;345;1449489617;2.40378022194;1.01478672028;0.0705535933375;2;True;26;1;79.81262641027722
346;346;1449489617;2.40400075912;1.0150294303899998;0.0702721849084;2;True;26;1;79.81262641027722
347;347;1449489617;2.4039881229400004;1.01497364044;0.0702906921506;2;True;26;1;79.81262641027722
348;348;1449489617;2.4039735794099997;1.01488101482;0.0702946037054;2;True;26;1;79.81262641027722
349;349;1449489617;2.40405750275;1.01500344276;0.0703457519412;2;True;26;1;79.81262641027722
350;350;1449489617;2.40369081497;1.01472723484;0.0706316381693;2;True;26;1;79.81262641027722
351;351;1449489617;2.40388989449;1.01485753059;0.0704901963472;2;True;26;1;79.81262641027722
352;352;1449489617;2.4039804935499998;1.01504945755;0.0703445374966;2;True;26;1;79.81262641027722
353;353;1449489617;2.40382361412;1.01463913918;0.0703809037805;2;True;26;1;79.81262641027722
354;354;1449489617;2.40390253067;1.01475119591;0.07039562612769999;2;True;26;1;79.81262641027722
355;355;1449489617;2.40377020836;1.01482009888;0.07051883637910002;2;True;26;1;79.81262641027722
356;356;1449489617;2.4037988185900003;1.01453483105;0.0704051554203;2;True;26;1;79.81262641027722
357;357;1449489617;2.40395522118;1.01474618912;0.07037849724289999;2;True;26;1;79.81262641027722
358;358;1449489617;2.40397596359;1.01496112347;0.0702903494239;2;True;26;1;79.81262641027722
359;359;1449489617;2.4038462638900002;1.01502859592;0.0704305693507;2;True;26;1;79.81262641027722
360;360;1449489617;2.40382361412;1.01477885246;0.07055457681419999;2;True;26;1;79.81262641027722
361;361;1449489617;2.40385484695;1.01473522186;0.0704829022288;2;True;26;1;79.81262641027722
362;362;1449489617;2.4038307666799996;1.0148539543200001;0.0705253705382;2;True;26;1;79.81262641027722
363;363;1449489617;2.40400910378;1.0150539875;0.07028196007010001;2;True;26;1;79.81262641027722
364;364;1449489617;2.40378975868;1.01478683949;0.0705255120993;2;True;26;1;79.81262641027722
365;365;1449489617;2.4038136005400004;1.01452100277;0.07039094716310001;2;True;26;1;79.81262641027722
366;366;1449489617;2.40392279625;1.0146360397299998;0.07033793628219999;2;True;26;1;79.81262641027722
367;367;1449489617;2.40397691727;1.01490962505;0.0702831745148;2;True;26;1;79.81262641027722
368;368;1449489617;2.4039816856400003;1.0150396823899999;0.0702789202332;2;True;26;1;79.81262641027722
369;369;1449489617;2.4037458896599997;1.01470005512;0.0705514922738;2;True;26;1;79.81262641027722
370;370;1449489617;2.40399241447;1.0150303840600001;0.07027106732130001;2;True;26;1;79.81262641027722
371;371;1449489617;2.4038891792299997;1.01475405693;0.0703696161509;2;True;26;1;79.81262641027722
372;372;1449489617;2.40397930145;1.0150518417399998;0.0702724680305;2;True;26;1;79.81262641027722
373;373;1449489617;2.40402293205;1.01504182816;0.07033286988739999;2;True;26;1;79.81262641027722
374;374;1449489617;2.40373110771;1.0147854089700001;0.0705997794867;2;True;26;1;79.81262641027722
375;375;1449489617;2.40396809578;1.01488268375;0.0702748000622;2;True;26;1;79.81262641027722
376;376;1449489617;2.40391182899;1.01483201981;0.0703789815307;2;True;26;1;79.81262641027722
377;377;1449489617;2.40382599831;1.0149142742200001;0.0705679133534;2;True;26;1;79.81262641027722
378;378;1449489617;2.40384435654;1.01479589939;0.0705174580216;2;True;26;1;79.81262641027722
379;379;1449489617;2.4037129879;1.01470267773;0.0705108568072;2;True;26;1;79.81262641027722
380;380;1449489617;2.4039602279700003;1.0149072408700002;0.0702761262655;2;True;26;1;79.81262641027722
381;381;1449489617;2.40392804146;1.01477789879;0.07031323760750001;2;True;26;1;79.81262641027722
382;382;1449489617;2.40382385254;1.01484358311;0.0705835297704;2;True;26;1;79.81262641027722
383;383;1449489617;2.4039337635;1.0148348808299998;0.0703321322799;2;True;26;1;79.81262641027722
384;384;1449489617;2.4037442207299997;1.01468443871;0.0705442652106;2;True;26;1;79.81262641027722
385;385;1449489617;2.4037902355200003;1.01489341259;0.07048729807139999;2;True;26;1;79.81262641027722
386;386;1449489617;2.40371751785;1.01447248459;0.0704867914319;2;True;26;1;79.81262641027722
387;387;1449489617;2.40387010574;1.0149053335200002;0.07041162997480001;2;True;26;1;79.81262641027722
388;388;1449489617;2.4038219451900003;1.01480615139;0.0705266371369;2;True;26;1;79.81262641027722
389;389;1449489617;2.40377354622;1.01478123665;0.0705366581678;2;True;26;1;79.81262641027722
390;390;1449489617;2.40397691727;1.01504468918;0.0702787861228;2;True;26;1;79.81262641027722
391;391;1449489617;2.40377187729;1.0147836208299998;0.07056325674060002;2;True;26;1;79.81262641027722
392;392;1449489617;2.4039168357799996;1.01478695869;0.07034248113630001;2;True;26;1;79.81262641027722
393;393;1449489617;2.4039561748500002;1.01491165161;0.0702877119184;2;True;26;1;79.81262641027722
394;394;1449489617;2.4038643837;1.0147957801799998;0.0705030560493;2;True;26;1;79.81262641027722
395;395;1449489617;2.40375733376;1.01484322548;0.07053591310980001;2;True;26;1;79.81262641027722
396;396;1449489617;2.40397572517;1.01505100727;0.0702761560678;2;True;26;1;79.81262641027722
397;397;1449489617;2.40378427505;1.01487922668;0.07057119160889999;2;True;26;1;79.81262641027722
398;398;1449489617;2.40394759178;1.01479434967;0.07030413299800001;2;True;26;1;79.81262641027722
399;399;1449489617;2.4040324688;1.01503443718;0.07033682614560001;2;True;26;1;79.81262641027722
400;400;1449489617;2.4039537906599997;1.01491105556;0.07027532905339999;2;True;26;1;79.81262641027722
401;401;1449489617;2.40397667885;1.0150524377799999;0.07027222216130001;2;True;26;1;79.81262641027722
402;402;1449489617;2.4037392139400002;1.01469945908;0.07058524340389999;2;True;26;1;79.81262641027722
403;403;1449489617;2.40390443802;1.01482880116;0.0703552663326;2;True;26;1;79.81262641027722
404;404;1449489617;2.40395522118;1.0148785114299999;0.07028455287219999;2;True;26;1;79.81262641027722
405;405;1449489617;2.4039824008900004;1.01502406597;0.0702754110098;2;True;26;1;79.81262641027722
406;406;1449489617;2.40397548676;1.01505815983;0.0702746286988;2;True;26;1;79.81262641027722
407;407;1449489617;2.40374970436;1.01444113255;0.07045842707160001;2;True;26;1;79.81262641027722
408;408;1449489617;2.40381646156;1.01482379436;0.0704922750592;2;True;26;1;79.81262641027722
409;409;1449489617;2.40377211571;1.0148537159;0.0706757381558;2;True;26;1;79.81262641027722
410;410;1449489617;2.4039444923400004;1.01493084431;0.0703209787607;2;True;26;1;79.81262641027722
411;411;1449489617;2.40391635895;1.01472783089;0.0703960955143;2;True;26;1;79.81262641027722
412;412;1449489617;2.40397262573;1.0148997306799998;0.0702782422304;2;True;26;1;79.81262641027722
413;413;1449489617;2.40389728546;1.01481878757;0.0703432783484;2;True;26;1;79.81262641027722
414;414;1449489617;2.4039380550400002;1.01487529278;0.0703016147017;2;True;26;1;79.81262641027722
415;415;1449489617;2.40378475189;1.01456344128;0.07040832936760001;2;True;26;1;79.81262641027722
416;416;1449489617;2.40393304825;1.01488506794;0.0703199952841;2;True;26;1;79.81262641027722
417;417;1449489617;2.4037790298500004;1.01479792595;0.07054501771930001;2;True;26;1;79.81262641027722
418;418;1449489617;2.40376162529;1.01470983028;0.0704888179898;2;True;26;1;79.81262641027722
419;419;1449489617;2.40404748917;1.01506614685;0.0703253373504;2;True;26;1;79.81262641027722
420;420;1449489617;2.40395998955;1.01491141319;0.0702864825726;2;True;26;1;79.81262641027722
421;421;1449489617;2.4039640426599997;1.01491749287;0.0702732428908;2;True;26;1;79.81262641027722
422;422;1449489617;2.40391612053;1.01477336884;0.070360891521;2;True;26;1;79.81262641027722
423;423;1449489617;2.40397047997;1.01487505436;0.0702844932675;2;True;26;1;79.81262641027722
424;424;1449489617;2.40381550789;1.0146968364700002;0.0704708769917;2;True;26;1;79.81262641027722
425;425;1449489617;2.40393519402;1.01476168633;0.0703634247184;2;True;26;1;79.81262641027722
426;426;1449489617;2.40387678146;1.01481926441;0.0704883411527;2;True;26;1;79.81262641027722
427;427;1449489617;2.40381407738;1.01488780975;0.0704243630171;2;True;26;1;79.81262641027722
428;428;1449489617;2.40385937691;1.01482748985;0.07048671692610001;2;True;26;1;79.81262641027722
429;429;1449489617;2.4037506580400003;1.01441764832;0.0704781040549;2;True;26;1;79.81262641027722
430;430;1449489617;2.40377020836;1.01444530487;0.0704562067986;2;True;26;1;79.81262641027722
431;431;1449489617;2.40375447273;1.01470935345;0.07055658847089999;2;True;26;1;79.81262641027722
432;432;1449489617;2.4039092063900003;1.0147652626;0.0703855082393;2;True;26;1;79.81262641027722
433;433;1449489617;2.4037830829599995;1.0148814916600002;0.0704684779048;2;True;26;1;79.81262641027722
434;434;1449489617;2.40396595001;1.0149239301700002;0.0702786967158;2;True;26;1;79.81262641027722
435;435;1449489617;2.40379691124;1.01478970051;0.0705358311534;2;True;26;1;79.81262641027722
436;436;1449489617;2.4038090705900004;1.01482582092;0.0704907923937;2;True;26;1;79.81262641027722
437;437;1449489617;2.40379142761;1.01479589939;0.0705137327313;2;True;26;1;79.81262641027722
438;438;1449489617;2.40388345718;1.0148537159;0.07039988040919999;2;True;26;1;79.81262641027722
439;439;1449489617;2.4039940834;1.0150507688500001;0.0702715739608;2;True;26;1;79.81262641027722
440;440;1449489617;2.40381288528;1.01491177082;0.0705050677061;2;True;26;1;79.81262641027722
441;441;1449489617;2.40396904945;1.01486313343;0.0702988877892;2;True;26;1;79.81262641027722
442;442;1449489617;2.4039788246200002;1.01505935192;0.0702920407057;2;True;26;1;79.81262641027722
443;443;1449489617;2.40399098396;1.01507639885;0.07030630111689999;2;True;26;1;79.81262641027722
444;444;1449489617;2.40395998955;1.01478219032;0.0703011900187;2;True;26;1;79.81262641027722
445;445;1449489617;2.4038183689099997;1.01465427876;0.07039357721810001;2;True;26;1;79.81262641027722
446;446;1449489617;2.40384554863;1.01480174065;0.07053196430210001;2;True;26;1;79.81262641027722
447;447;1449489617;2.40395975113;1.01488268375;0.07031837850810001;2;True;26;1;79.81262641027722
448;448;1449489617;2.4039635658300003;1.0148621797600001;0.07029895484450001;2;True;26;1;79.81262641027722
449;449;1449489617;2.4038462638900002;1.0148533582700001;0.0703993290663;2;True;26;1;79.81262641027722
450;450;1449489617;2.40378975868;1.01473617554;0.0705114230514;2;True;26;1;79.81262641027722
451;451;1449489617;2.4039204120599997;1.01482748985;0.07034789025780001;2;True;26;1;79.81262641027722
452;452;1449489617;2.40377020836;1.0147303342799998;0.0705327168107;2;True;26;1;79.81262641027722
453;453;1449489617;2.4036633968400003;1.01466214657;0.0705749094486;2;True;26;1;79.81262641027722
454;454;1449489617;2.40390205383;1.0147635936700001;0.07034935057160001;2;True;26;1;79.81262641027722
455;455;1449489617;2.4037804603599997;1.01482367516;0.0705392435193;2;True;26;1;79.81262641027722
456;456;1449489617;2.40404009819;1.0149884223899999;0.0703467726707;2;True;26;1;79.81262641027722
457;457;1449489617;2.4039771556900003;1.0148854255700002;0.07027785480019999;2;True;26;1;79.81262641027722
458;458;1449489617;2.40397429466;1.01506841183;0.07031767070289999;2;True;26;1;79.81262641027722
459;459;1449489617;2.40397548676;1.01502716541;0.0703080371022;2;True;26;1;79.81262641027722
460;460;1449489617;2.40378665924;1.01477706432;0.07055110484360001;2;True;26;1;79.81262641027722
461;461;1449489617;2.4038712978400003;1.01481592655;0.07051532715560001;2;True;26;1;79.81262641027722
462;462;1449489617;2.40388965607;1.01475298405;0.070520080626;2;True;26;1;79.81262641027722
463;463;1449489617;2.40398311615;1.01502430439;0.0702726617455;2;True;26;1;79.81262641027722
464;464;1449489617;2.4039816856400003;1.01490402222;0.0702784657478;2;True;26;1;79.81262641027722
465;465;1449489617;2.40382790565;1.01486587524;0.0705563873053;2;True;26;1;79.81262641027722
466;466;1449489617;2.40383124352;1.01475429535;0.07053582370280001;2;True;26;1;79.81262641027722
467;467;1449489617;2.40389585495;1.01475989819;0.07051107287410001;2;True;26;1;79.81262641027722
468;468;1449489617;2.4038021564500003;1.01477253437;0.07049295306210002;2;True;26;1;79.81262641027722
469;469;1449489617;2.4039011001599997;1.01480197906;0.0704918727279;2;True;26;1;79.81262641027722
470;470;1449489617;2.40400242805;1.01489436626;0.0702716633677;2;True;26;1;79.81262641027722
471;471;1449489617;2.4039723873099996;1.01492929459;0.0702795311809;2;True;26;1;79.81262641027722
472;472;1449489617;2.40378451347;1.01473546028;0.070437900722;2;True;26;1;79.81262641027722
473;473;1449489617;2.40393614769;1.01480865479;0.0703141763806;2;True;26;1;79.81262641027722
474;474;1449489617;2.40397143364;1.0150138139700002;0.0703485161066;2;True;26;1;79.81262641027722
475;475;1449489617;2.40398025513;1.0148464441299998;0.0703157633543;2;True;26;1;79.81262641027722
476;476;1449489617;2.4040157795;1.0151379108399998;0.07033178210260001;2;True;26;1;79.81262641027722
477;477;1449489617;2.40381932259;1.01478135586;0.07057195901869999;2;True;26;1;79.81262641027722
478;478;1449489617;2.4040067195900003;1.0150179863;0.07027749717239999;2;True;26;1;79.81262641027722
479;479;1449489617;2.40379261971;1.0147742033;0.0705504268408;2;True;26;1;79.81262641027722
480;480;1449489617;2.4039542675;1.01473522186;0.0703805759549;2;True;26;1;79.81262641027722
481;481;1449489617;2.4038181304900004;1.01475536823;0.07055572420360001;2;True;26;1;79.81262641027722
482;482;1449489617;2.40383982658;1.01486670971;0.0705807879567;2;True;26;1;79.81262641027722
483;483;1449489617;2.40399885178;1.01491641998;0.0702943205833;2;True;26;1;79.81262641027722
484;484;1449489617;2.40375900269;1.0144758224500001;0.0704965591431;2;True;26;1;79.81262641027722
485;485;1449489617;2.40394234657;1.01468157768;0.0703612565994;2;True;26;1;79.81262641027722
486;486;1449489617;2.40384793282;1.01483035088;0.0705083832145;2;True;26;1;79.81262641027722
487;487;1449489617;2.40394186974;1.01479613781;0.0705123469234;2;True;26;1;79.81262641027722
488;488;1449489617;2.40395116806;1.01471674442;0.0703722536564;2;True;26;1;79.81262641027722
489;489;1449489617;2.40402054787;1.01505339146;0.0703019872308;2;True;26;1;79.81262641027722
490;490;1449489617;2.4040222168;1.01502966881;0.0702862069011;2;True;26;1;79.81262641027722
491;491;1449489617;2.40399909019;1.01496231556;0.0703096911311;2;True;26;1;79.81262641027722
492;492;1449489617;2.4039580822;1.014772892;0.07038465887310001;2;True;26;1;79.81262641027722
493;493;1449489617;2.40381455421;1.01470434666;0.0705605298281;2;True;26;1;79.81262641027722
494;494;1449489617;2.40390777588;1.01481807232;0.0704289525747;2;True;26;1;79.81262641027722
495;495;1449489617;2.40383529663;1.01470541954;0.0705775469542;2;True;26;1;79.81262641027722
496;496;1449489617;2.40401387215;1.01503670216;0.07028181850910001;2;True;26;1;79.81262641027722
497;497;1449489617;2.40397810936;1.0148130655299998;0.0703142881393;2;True;26;1;79.81262641027722
498;498;1449489617;2.40401077271;1.01507389545;0.07028877735139999;2;True;26;1;79.81262641027722
499;499;1449489617;2.40400052071;1.01512372494;0.07036393135789999;2;True;26;1;79.81262641027722
500;500;1449489617;2.4040122032199998;1.0150836706200002;0.0702881366014;2;True;26;1;79.81262641027722
501;501;1449489617;2.40400290489;1.0149281024899999;0.070289939642;2;True;26;1;79.81262641027722
502;502;1449489617;2.4040756225599997;1.01502680779;0.0703479871154;2;True;26;1;79.81262641027722
503;503;1449489617;2.40391778946;1.01480615139;0.0705121606588;2;True;26;1;79.81262641027722
504;504;1449489617;2.4040105342900002;1.01508522034;0.0703054592013;2;True;26;1;79.81262641027722
505;505;1449489617;2.40388059616;1.01483726501;0.07050926238300001;2;True;26;1;79.81262641027722
506;506;1449489617;2.40381908417;1.0148366689700001;0.07054618746039999;2;True;26;1;79.81262641027722
507;507;1449489617;2.40389466286;1.01483511925;0.0704952850938;2;True;26;1;79.81262641027722
508;508;1449489617;2.40395832062;1.0146988630299998;0.07033240795139999;2;True;26;1;79.81262641027722
509;509;1449489617;2.40393662453;1.01476144791;0.0703795328736;2;True;26;1;79.81262641027722
510;510;1449489617;2.40396928787;1.01482582092;0.0703308060765;2;True;26;1;79.81262641027722
511;511;1449489617;2.40400290489;1.01508235931;0.0703036114573;2;True;26;1;79.81262641027722
512;512;1449489617;2.40387034416;1.0149358511;0.07050731033089999;2;True;26;1;79.81262641027722
513;513;1449489617;2.40399122238;1.01485824585;0.07028844207530001;2;True;26;1;79.81262641027722
514;514;1449489617;2.4039080143000002;1.01497077942;0.0704048350453;2;True;26;1;79.81262641027722
515;515;1449489617;2.40376520157;1.014742136;0.07056758552789999;2;True;26;1;79.81262641027722
516;516;1449489617;2.40385818481;1.0147485733;0.0704502016306;2;True;26;1;79.81262641027722
517;517;1449489617;2.4040622711200004;1.01502919197;0.0703484937549;2;True;26;1;79.81262641027722
518;518;1449489617;2.40407514572;1.0150054693200001;0.0703471153975;2;True;26;1;79.81262641027722
519;519;1449489617;2.40400075912;1.0150812864299998;0.0703120231628;2;True;26;1;79.81262641027722
520;520;1449489617;2.4040017128;1.0150498151799998;0.0702828839421;2;True;26;1;79.81262641027722
521;521;1449489617;2.4039685726199997;1.01488411427;0.07030992954969999;2;True;26;1;79.81262641027722
522;522;1449489617;2.40378928185;1.01478838921;0.07055104523900001;2;True;26;1;79.81262641027722
523;523;1449489617;2.4038388729099998;1.01459121704;0.0703790932894;2;True;26;1;79.81262641027722
524;524;1449489617;2.40387892723;1.0147895812999999;0.07052142173050001;2;True;26;1;79.81262641027722
525;525;1449489617;2.40384292603;1.01488852501;0.0705342069268;2;True;26;1;79.81262641027722
526;526;1449489617;2.40399456024;1.01504540443;0.0702811181545;2;True;26;1;79.81262641027722
527;527;1449489617;2.40395236015;1.01475942135;0.07039129734039999;2;True;26;1;79.81262641027722
528;528;1449489617;2.40382552147;1.01456689835;0.07039190083739999;2;True;26;1;79.81262641027722
529;529;1449489617;2.4039645194999997;1.01486587524;0.07030800729989999;2;True;26;1;79.81262641027722
530;530;1449489617;2.40395259857;1.01477086544;0.07037271559239999;2;True;26;1;79.81262641027722
531;531;1449489617;2.4038677215599997;1.0147938728299999;0.070434011519;2;True;26;1;79.81262641027722
532;532;1449489617;2.40379261971;1.01480925083;0.070538662374;2;True;26;1;79.81262641027722
533;533;1449489617;2.4039974212599997;1.01490223408;0.070283561945;2;True;26;1;79.81262641027722
534;534;1449489617;2.40394091606;1.01496350765;0.07033250480889999;2;True;26;1;79.81262641027722
535;535;1449489617;2.4040241241499998;1.0150257349;0.0703433826566;2;True;26;1;79.81262641027722
536;536;1449489617;2.40394163132;1.01486551762;0.0703120678663;2;True;26;1;79.81262641027722
537;537;1449489617;2.40379142761;1.01486027241;0.0705561265349;2;True;26;1;79.81262641027722
538;538;1449489617;2.40395879745;1.01479482651;0.0702950060368;2;True;26;1;79.81262641027722
539;539;1449489617;2.4038870334599998;1.0148011446;0.0705051273108;2;True;26;1;79.81262641027722
540;540;1449489617;2.40377283096;1.01479566097;0.0705502778292;2;True;26;1;79.81262641027722
541;541;1449489617;2.4039833545700002;1.01491618156;0.07027779519560001;2;True;26;1;79.81262641027722
542;542;1449489617;2.4039106369;1.01479542255;0.0704986229539;2;True;26;1;79.81262641027722
543;543;1449489617;2.40404605865;1.01501357555;0.0703376084566;2;True;26;1;79.81262641027722
544;544;1449489617;2.40405249596;1.01499676704;0.0703399255872;2;True;26;1;79.81262641027722
545;545;1449489617;2.4039645194999997;1.01492261887;0.0702852532268;2;True;26;1;79.81262641027722
546;546;1449489617;2.40395236015;1.01482439041;0.0702904015779;2;True;26;1;79.81262641027722
547;547;1449489617;2.40399241447;1.01493132114;0.0702750757337;2;True;26;1;79.81262641027722
548;548;1449489617;2.40366625786;1.0145945549;0.07055581361060001;2;True;26;1;79.81262641027722
549;549;1449489617;2.40385532379;1.0147768259;0.0705374330282;2;True;26;1;79.81262641027722
550;550;1449489617;2.4037585258500003;1.01478898525;0.0705502927303;2;True;26;1;79.81262641027722
551;551;1449489617;2.40395665169;1.01497888565;0.0703001767397;2;True;26;1;79.81262641027722
552;552;1449489617;2.40393328667;1.01488316059;0.0703535079956;2;True;26;1;79.81262641027722
553;553;1449489618;2.40397572517;1.01503443718;0.0702835693955;3;True;26;1;79.81262641027722
554;554;1449489618;2.4039380550400002;1.01475989819;0.07038258016110001;3;True;26;1;79.81262641027722
555;555;1449489618;2.40369796753;1.0147415399600002;0.0704712569714;3;True;26;1;79.81262641027722
556;556;1449489618;2.40379357338;1.01482737064;0.07042174786330001;3;True;26;1;79.81262641027722
557;557;1449489618;2.403901577;1.01465380192;0.0703195407987;3;True;26;1;79.81262641027722
558;558;1449489618;2.40381908417;1.0147845745100001;0.0704793557525;3;True;26;1;79.81262641027722
559;559;1449489618;2.4038875103;1.01478886604;0.07049584388730001;3;True;26;1;79.81262641027722
560;560;1449489618;2.4036769866900003;1.01478683949;0.07065859436989999;3;True;26;1;79.81262641027722
561;561;1449489618;2.40397453308;1.0150475502;0.0702769085765;3;True;26;1;79.81262641027722
562;562;1449489618;2.40388584137;1.0147973299;0.0705065280199;3;True;26;1;79.81262641027722
563;563;1449489618;2.40376067162;1.0148093700399998;0.0705497935414;3;True;26;1;79.81262641027722
564;564;1449489618;2.40396475792;1.0148973465;0.0702837109566;3;True;26;1;79.81262641027722
565;565;1449489618;2.40376138687;1.0148100853;0.070539727807;3;True;26;1;79.81262641027722
566;566;1449489618;2.40376067162;1.0144429206799999;0.0704732835293;3;True;26;1;79.81262641027722
567;567;1449489618;2.40392112732;1.01470410824;0.0703780800104;3;True;26;1;79.81262641027722
568;568;1449489618;2.4039716720599995;1.01488566399;0.0702806860209;3;True;26;1;79.81262641027722
569;569;1449489618;2.40397262573;1.0150490999200001;0.0702752247453;3;True;26;1;79.81262641027722
570;570;1449489618;2.4039049148599996;1.0148185491600001;0.0703318417072;3;True;26;1;79.81262641027722
571;571;1449489618;2.40394544601;1.0149443149600001;0.0702874436975;3;True;26;1;79.81262641027722
572;572;1449489618;2.4037976265;1.0146573782;0.07047310471530001;3;True;26;1;79.81262641027722
573;573;1449489618;2.40375590324;1.0148100853;0.0705351009965;3;True;26;1;79.81262641027722
574;574;1449489618;2.40403604507;1.01501011848;0.0703322216868;3;True;26;1;79.81262641027722
575;575;1449489618;2.40378689766;1.01456952095;0.0703872442245;3;True;26;1;79.81262641027722
576;576;1449489618;2.4039533138299998;1.01483893394;0.07028876245019999;3;True;26;1;79.81262641027722
577;577;1449489618;2.40373158455;1.01475858688;0.0705380216241;3;True;26;1;79.81262641027722
578;578;1449489618;2.4037551879900003;1.01479554176;0.07054287940260001;3;True;26;1;79.81262641027722
579;579;1449489618;2.4039504528;1.0150827169399999;0.0703238099813;3;True;26;1;79.81262641027722
580;580;1449489618;2.40388417244;1.0146533250799998;0.07032828778030001;3;True;26;1;79.81262641027722
581;581;1449489618;2.4038090705900004;1.01451015472;0.07036510854960001;3;True;26;1;79.81262641027722
582;582;1449489618;2.4039545059200003;1.0149294138;0.0702806264162;3;True;26;1;79.81262641027722
583;583;1449489618;2.40395545959;1.01492404938;0.0702808350325;3;True;26;1;79.81262641027722
584;584;1449489618;2.40390014648;1.01483380795;0.0703489109874;3;True;26;1;79.81262641027722
585;585;1449489618;2.4039676189400003;1.01492881775;0.0702889710665;3;True;26;1;79.81262641027722
586;586;1449489618;2.40388274193;1.01476097107;0.07040373981;3;True;26;1;79.81262641027722
587;587;1449489618;2.4038908481599996;1.01479530334;0.07049545645710001;3;True;26;1;79.81262641027722
588;588;1449489618;2.40397977829;1.01506328583;0.0702772587538;3;True;26;1;79.81262641027722
589;589;1449489618;2.4039602279700003;1.01479351521;0.0703002735972;3;True;26;1;79.81262641027722
590;590;1449489618;2.40397047997;1.0149118900299998;0.07027330994610001;3;True;26;1;79.81262641027722
591;591;1449489618;2.40394306183;1.01477837563;0.0703103914857;3;True;26;1;79.81262641027722
592;592;1449489618;2.40398955345;1.0150130987200001;0.07027508318419999;3;True;26;1;79.81262641027722
593;593;1449489618;2.4039716720599995;1.01487898827;0.07029268145560001;3;True;26;1;79.81262641027722
594;594;1449489618;2.40374875069;1.01481151581;0.0705885663629;3;True;26;1;79.81262641027722
595;595;1449489618;2.4038321971900003;1.0148570537600001;0.0705579221249;3;True;26;1;79.81262641027722
596;596;1449489618;2.40380430222;1.0145523548100002;0.0703964158893;3;True;26;1;79.81262641027722
597;597;1449489618;2.4038064479799996;1.01479530334;0.0705424025655;3;True;26;1;79.81262641027722
598;598;1449489618;2.40399336815;1.01503252983;0.0702782273293;3;True;26;1;79.81262641027722
599;599;1449489618;2.40399646759;1.01506400108;0.070283330977;3;True;26;1;79.81262641027722
600;600;1449489618;2.40395522118;1.014747262;0.0703071802855;3;True;26;1;79.81262641027722
601;601;1449489618;2.40382313728;1.01483368874;0.07052507251500001;3;True;26;1;79.81262641027722
602;602;1449489618;2.40403628349;1.0150985717799998;0.07031991332769999;3;True;26;1;79.81262641027722
603;603;1449489618;2.4038064479799996;1.01473629475;0.0704690441489;3;True;26;1;79.81262641027722
604;604;1449489618;2.4039492607099997;1.01476264;0.070375867188;3;True;26;1;79.81262641027722
605;605;1449489618;2.4039883613599997;1.01492226124;0.0702873021364;3;True;26;1;79.81262641027722
606;606;1449489618;2.40396738052;1.01487672329;0.0703114494681;3;True;26;1;79.81262641027722
607;607;1449489618;2.40398859978;1.0149757862100002;0.0702994093299;3;True;26;1;79.81262641027722
608;608;1449489618;2.4037671089200003;1.01481354237;0.0705272331834;3;True;26;1;79.81262641027722
609;609;1449489618;2.4038610458400003;1.01483440399;0.0705249980092;3;True;26;1;79.81262641027722
610;610;1449489618;2.40405392647;1.01498985291;0.0703395456076;3;True;26;1;79.81262641027722
611;611;1449489618;2.40378117561;1.0147951841399998;0.0705463290215;3;True;26;1;79.81262641027722
612;612;1449489618;2.4039824008900004;1.01493144035;0.07028212398289999;3;True;26;1;79.81262641027722
613;613;1449489618;2.40384960175;1.0150518417399998;0.0704228207469;3;True;26;1;79.81262641027722
614;614;1449489618;2.40377211571;1.01472806931;0.0705401450396;3;True;26;1;79.81262641027722
