;Unnamed: 0;header_stamp_secs;pose_position_x;pose_position_y;pose_position_z;seconds;drop_values;flight_number;label;dtw
0;0;1449489900;2.275826931;0.8875191211700001;0.0696927681565;0;True;28;1;77.96693459525969
1;1;1449489900;2.27603912354;0.8876241445540001;0.0695718228817;0;True;28;1;77.96693459525969
2;2;1449489901;2.27594184875;0.887788951397;0.06967495381830001;1;True;28;1;77.96693459525969
3;3;1449489901;2.27603554726;0.887699365616;0.06962064653639999;1;True;28;1;77.96693459525969
4;4;1449489901;2.2759375572200002;0.887678980827;0.069700665772;1;True;28;1;77.96693459525969
5;5;1449489901;2.2759857177700002;0.887700140476;0.0697143226862;1;True;28;1;77.96693459525969
6;6;1449489901;2.2761323452;0.887821853161;0.0694778636098;1;True;28;1;77.96693459525969
7;7;1449489901;2.27601218224;0.887705624104;0.069644138217;1;True;28;1;77.96693459525969
8;8;1449489901;2.27589178085;0.887671291828;0.06970243155960001;1;True;28;1;77.96693459525969
9;9;1449489901;2.27607226372;0.887766063213;0.0695596784353;1;True;28;1;77.96693459525969
10;10;1449489901;2.27604699135;0.887799739838;0.069653712213;1;True;28;1;77.96693459525969
11;11;1449489901;2.27599406242;0.8877195715899999;0.06968207657339999;1;True;28;1;77.96693459525969
12;12;1449489901;2.2761340141299997;0.887837588787;0.0694789215922;1;True;28;1;77.96693459525969
13;13;1449489901;2.2760438919099997;0.887686192989;0.0695808529854;1;True;28;1;77.96693459525969
14;14;1449489901;2.27595424652;0.887654483318;0.0696627497673;1;True;28;1;77.96693459525969
15;15;1449489901;2.2759890556299998;0.8876984119419999;0.06963996589180001;1;True;28;1;77.96693459525969
16;16;1449489901;2.2760643959;0.887726128101;0.0695498511195;1;True;28;1;77.96693459525969
17;17;1449489901;2.27606129646;0.8876644372939999;0.06954871863130001;1;True;28;1;77.96693459525969
18;18;1449489901;2.27606034279;0.887741446495;0.0696534737945;1;True;28;1;77.96693459525969
19;19;1449489901;2.27609372139;0.8875904083249999;0.06949581205839998;1;True;28;1;77.96693459525969
20;20;1449489901;2.27599310875;0.8876693248749999;0.0696457326412;1;True;28;1;77.96693459525969
21;21;1449489901;2.2759439945200004;0.887816786766;0.069719478488;1;True;28;1;77.96693459525969
22;22;1449489901;2.27596950531;0.887682437897;0.0696838721633;1;True;28;1;77.96693459525969
23;23;1449489901;2.27588200569;0.8874754905700001;0.0696882605553;1;True;28;1;77.96693459525969
24;24;1449489901;2.27589082718;0.8875948190690001;0.0696679055691;1;True;28;1;77.96693459525969
25;25;1449489901;2.27591824532;0.887670993805;0.069674782455;1;True;28;1;77.96693459525969
26;26;1449489901;2.2760951519;0.887613892555;0.0694828778505;1;True;28;1;77.96693459525969
27;27;1449489901;2.2759666442900004;0.8876859545710001;0.0696623548865;1;True;28;1;77.96693459525969
28;28;1449489901;2.27592396736;0.887585937977;0.06964138895269999;1;True;28;1;77.96693459525969
29;29;1449489901;2.27595233917;0.887777745724;0.06968172639610001;1;True;28;1;77.96693459525969
30;30;1449489901;2.27605891228;0.8875406980509999;0.069515645504;1;True;28;1;77.96693459525969
31;31;1449489901;2.27590727806;0.887617349625;0.06970094144339999;1;True;28;1;77.96693459525969
32;32;1449489901;2.2759809494;0.887680530548;0.06967563927170001;1;True;28;1;77.96693459525969
33;33;1449489901;2.2759416103400003;0.8876594305040001;0.0696849822998;1;True;28;1;77.96693459525969
34;34;1449489901;2.2761068344099997;0.887957155704;0.0695508643985;1;True;28;1;77.96693459525969
35;35;1449489901;2.27588510513;0.887850403786;0.06970901787280001;1;True;28;1;77.96693459525969
36;36;1449489901;2.2760219574000002;0.887710809708;0.06964534521099999;1;True;28;1;77.96693459525969
37;37;1449489901;2.27597212791;0.887674927711;0.06965852528810001;1;True;28;1;77.96693459525969
38;38;1449489901;2.2758886814099997;0.887588143349;0.0696641877294;1;True;28;1;77.96693459525969
39;39;1449489901;2.27594017982;0.88775986433;0.069679774344;1;True;28;1;77.96693459525969
40;40;1449489901;2.27597475052;0.8877141475679999;0.0697030797601;1;True;28;1;77.96693459525969
41;41;1449489901;2.27599859238;0.88753670454;0.0696235746145;1;True;28;1;77.96693459525969
42;42;1449489901;2.27590942383;0.887538611889;0.06966813653710001;1;True;28;1;77.96693459525969
43;43;1449489901;2.2759070396400003;0.8876717686650001;0.069728590548;1;True;28;1;77.96693459525969
44;44;1449489901;2.2759358882900003;0.88777422905;0.0696753188968;1;True;28;1;77.96693459525969
45;45;1449489901;2.27603197098;0.887714445591;0.06958191841839999;1;True;28;1;77.96693459525969
46;46;1449489901;2.27611303329;0.8878377676010001;0.06946749240160001;1;True;28;1;77.96693459525969
47;47;1449489901;2.27594017982;0.8878146409990001;0.069675706327;1;True;28;1;77.96693459525969
48;48;1449489901;2.27599453926;0.887667417526;0.0696286186576;1;True;28;1;77.96693459525969
49;49;1449489901;2.27601599693;0.887612879276;0.0696119964123;1;True;28;1;77.96693459525969
50;50;1449489901;2.27591109276;0.887604892254;0.06968972086910001;1;True;28;1;77.96693459525969
51;51;1449489901;2.27596688271;0.887698948383;0.0697057694197;1;True;28;1;77.96693459525969
52;52;1449489901;2.27599811554;0.8877079486849999;0.0697205960751;1;True;28;1;77.96693459525969
53;53;1449489901;2.27602028847;0.8877164721490001;0.06964492052789999;1;True;28;1;77.96693459525969
54;54;1449489901;2.27591061592;0.887743413448;0.06966745853419999;1;True;28;1;77.96693459525969
55;55;1449489901;2.2759897708900003;0.88772803545;0.0696775689721;1;True;28;1;77.96693459525969
56;56;1449489901;2.2759897708900003;0.887719094753;0.0697079226375;1;True;28;1;77.96693459525969
57;57;1449489901;2.27605104446;0.887740015984;0.069587431848;1;True;28;1;77.96693459525969
58;58;1449489901;2.2760264873500002;0.887708187103;0.06961887329819999;1;True;28;1;77.96693459525969
59;59;1449489901;2.27592086792;0.8875284194949999;0.06966231763360001;1;True;28;1;77.96693459525969
60;60;1449489901;2.27599692345;0.8876984715459999;0.0696613416076;1;True;28;1;77.96693459525969
61;61;1449489901;2.27604150772;0.887649476528;0.06956645101310001;1;True;28;1;77.96693459525969
62;62;1449489901;2.2758724689500003;0.8876256346700001;0.0697228386998;1;True;28;1;77.96693459525969
63;63;1449489901;2.27596950531;0.887728333473;0.0696809068322;1;True;28;1;77.96693459525969
64;64;1449489901;2.2760233879099996;0.887655377388;0.069572918117;1;True;28;1;77.96693459525969
65;65;1449489901;2.27601408958;0.88769620657;0.0696265101433;1;True;28;1;77.96693459525969
66;66;1449489901;2.2758877277400003;0.887615442276;0.06965379416939999;1;True;28;1;77.96693459525969
67;67;1449489901;2.2760467529299997;0.8877555727959999;0.06959224492310001;1;True;28;1;77.96693459525969
68;68;1449489901;2.27604293823;0.8877330422399999;0.0695607811213;1;True;28;1;77.96693459525969
69;69;1449489901;2.27589201927;0.8876676559450001;0.069706723094;1;True;28;1;77.96693459525969
70;70;1449489901;2.2759346962;0.887689709663;0.0697113722563;1;True;28;1;77.96693459525969
71;71;1449489901;2.2759346962;0.887854456902;0.0696785524487;1;True;28;1;77.96693459525969
72;72;1449489901;2.2759282589;0.88776165247;0.0697911530733;1;True;28;1;77.96693459525969
73;73;1449489901;2.27609872818;0.887695491314;0.0694779828191;1;True;28;1;77.96693459525969
74;74;1449489901;2.2758646011400003;0.887611627579;0.0697155073285;1;True;28;1;77.96693459525969
75;75;1449489901;2.2759013176;0.887666583061;0.0696958899498;1;True;28;1;77.96693459525969
76;76;1449489901;2.27592730522;0.887522637844;0.069657124579;1;True;28;1;77.96693459525969
77;77;1449489901;2.27600574493;0.8877073526379999;0.0697013139725;1;True;28;1;77.96693459525969
78;78;1449489901;2.27593421936;0.887667357922;0.0697450786829;1;True;28;1;77.96693459525969
79;79;1449489901;2.27596068382;0.887682616711;0.0696488916874;1;True;28;1;77.96693459525969
80;80;1449489901;2.27591872215;0.887523889542;0.06965915858749999;1;True;28;1;77.96693459525969
81;81;1449489901;2.27595567703;0.887654781342;0.0696577429771;1;True;28;1;77.96693459525969
82;82;1449489901;2.2760267257700004;0.887723922729;0.0695765316486;1;True;28;1;77.96693459525969
83;83;1449489901;2.27592992783;0.8877033591269999;0.0696647912264;1;True;28;1;77.96693459525969
84;84;1449489901;2.27598929405;0.8876358270649999;0.06964431703089999;1;True;28;1;77.96693459525969
85;85;1449489901;2.27595901489;0.887432098389;0.0696551650763;1;True;28;1;77.96693459525969
86;86;1449489901;2.2760083675400002;0.887699484825;0.06970261037349999;1;True;28;1;77.96693459525969
87;87;1449489901;2.2760682106;0.8875556588169999;0.06951528042550001;1;True;28;1;77.96693459525969
88;88;1449489901;2.2760477066;0.887744188309;0.06956505775449999;1;True;28;1;77.96693459525969
89;89;1449489901;2.27597332001;0.887591123581;0.0695930048823;1;True;28;1;77.96693459525969
90;90;1449489901;2.27592682838;0.887599229813;0.06965108215810001;1;True;28;1;77.96693459525969
91;91;1449489901;2.2760102748900004;0.8875460028650001;0.0695924460888;1;True;28;1;77.96693459525969
92;92;1449489901;2.2759954929400004;0.887719094753;0.06969023495910001;1;True;28;1;77.96693459525969
93;93;1449489901;2.27584385872;0.887731671333;0.06962387263770001;1;True;28;1;77.96693459525969
94;94;1449489901;2.2759039402;0.887668728828;0.06969913095239999;1;True;28;1;77.96693459525969
95;95;1449489901;2.27594637871;0.887674689293;0.06970170140269999;1;True;28;1;77.96693459525969
96;96;1449489901;2.27591395378;0.887579143047;0.06969550997019999;1;True;28;1;77.96693459525969
97;97;1449489901;2.2761156559;0.887878894806;0.0696298405528;1;True;28;1;77.96693459525969
98;98;1449489901;2.27590966225;0.887657165527;0.0696947127581;1;True;28;1;77.96693459525969
99;99;1449489901;2.27588820457;0.8876134157179999;0.069724239409;1;True;28;1;77.96693459525969
100;100;1449489901;2.2759816646599997;0.887681126595;0.0696686804295;1;True;28;1;77.96693459525969
101;101;1449489901;2.2760088443799997;0.887714982033;0.06964955478910001;1;True;28;1;77.96693459525969
102;102;1449489901;2.27604627609;0.8877344131470001;0.0696166828275;1;True;28;1;77.96693459525969
103;103;1449489901;2.27593922615;0.887538194656;0.06966324150560001;1;True;28;1;77.96693459525969
104;104;1449489901;2.27592182159;0.887840390205;0.06967870146039999;1;True;28;1;77.96693459525969
105;105;1449489901;2.27596235275;0.887765467167;0.069696739316;1;True;28;1;77.96693459525969
106;106;1449489901;2.27605104446;0.8875314593320001;0.069513335824;1;True;28;1;77.96693459525969
107;107;1449489901;2.2760818004599996;0.8876099586489999;0.0694990605116;1;True;28;1;77.96693459525969
108;108;1449489901;2.2759432792700003;0.8877307772640001;0.0696831718087;1;True;28;1;77.96693459525969
109;109;1449489901;2.27611303329;0.887841701508;0.0694808661938;1;True;28;1;77.96693459525969
110;110;1449489901;2.27600073814;0.8877120614049999;0.0696433857083;1;True;28;1;77.96693459525969
111;111;1449489901;2.27601408958;0.887617349625;0.06961576640610001;1;True;28;1;77.96693459525969
112;112;1449489901;2.2758650779700003;0.8875656127930001;0.0697057545185;1;True;28;1;77.96693459525969
113;113;1449489901;2.2760052681;0.887766897678;0.0696530416608;1;True;28;1;77.96693459525969
114;114;1449489901;2.27589178085;0.8876323699950001;0.0696978643537;1;True;28;1;77.96693459525969
115;115;1449489901;2.27598929405;0.8876692056659999;0.06969287246469999;1;True;28;1;77.96693459525969
116;116;1449489901;2.27601766586;0.887713551521;0.06961196661;1;True;28;1;77.96693459525969
117;117;1449489901;2.27597475052;0.887459397316;0.0695953443646;1;True;28;1;77.96693459525969
118;118;1449489901;2.2760927677200002;0.887977361679;0.0695326402783;1;True;28;1;77.96693459525969
119;119;1449489901;2.2758872509;0.887708306313;0.069688051939;1;True;28;1;77.96693459525969
120;120;1449489901;2.27600216866;0.887700080872;0.06964164972310001;1;True;28;1;77.96693459525969
121;121;1449489901;2.27592325211;0.887734115124;0.0696685686707;1;True;28;1;77.96693459525969
122;122;1449489901;2.27592492104;0.8876227140430001;0.069645896554;1;True;28;1;77.96693459525969
123;123;1449489901;2.2758932113599997;0.887656271458;0.0696714967489;1;True;28;1;77.96693459525969
124;124;1449489901;2.27598643303;0.887612819672;0.069575458765;1;True;28;1;77.96693459525969
125;125;1449489901;2.2758989334099997;0.887605369091;0.06968150287870001;1;True;28;1;77.96693459525969
126;126;1449489901;2.2758646011400003;0.887454390526;0.069703117013;1;True;28;1;77.96693459525969
127;127;1449489901;2.27609086037;0.8878241777420001;0.0694634914398;1;True;28;1;77.96693459525969
128;128;1449489901;2.2759039402;0.887639462948;0.0696817040443;1;True;28;1;77.96693459525969
129;129;1449489901;2.2758922576900003;0.887607634068;0.0696862488985;1;True;28;1;77.96693459525969
130;130;1449489901;2.27600455284;0.887712359428;0.069605126977;1;True;28;1;77.96693459525969
131;131;1449489901;2.27598214149;0.887680947781;0.06960539519789999;1;True;28;1;77.96693459525969
132;132;1449489901;2.27605104446;0.887730002403;0.0695277154446;1;True;28;1;77.96693459525969
133;133;1449489901;2.27597475052;0.887704789639;0.0696210861206;1;True;28;1;77.96693459525969
134;134;1449489901;2.2759847641;0.887678921223;0.06961970031260001;1;True;28;1;77.96693459525969
135;135;1449489901;2.2759449482;0.887433588505;0.0696173906326;1;True;28;1;77.96693459525969
136;136;1449489901;2.2759189605700003;0.8875766992569999;0.069695904851;1;True;28;1;77.96693459525969
137;137;1449489901;2.27587556839;0.8875985741619999;0.0696849599481;1;True;28;1;77.96693459525969
138;138;1449489901;2.27591967583;0.8877663612369999;0.0696649551392;1;True;28;1;77.96693459525969
139;139;1449489901;2.2758705616;0.887609899044;0.0696739330888;1;True;28;1;77.96693459525969
140;140;1449489901;2.27602910995;0.887709856033;0.0695498362184;1;True;28;1;77.96693459525969
141;141;1449489901;2.27597212791;0.887690424919;0.0696559250355;1;True;28;1;77.96693459525969
142;142;1449489901;2.2759625911700003;0.887691259384;0.06967376172539999;1;True;28;1;77.96693459525969
143;143;1449489901;2.2760181427;0.88760304451;0.06959328055380001;1;True;28;1;77.96693459525969
144;144;1449489901;2.27589154243;0.8875669837000001;0.06976920366289999;1;True;28;1;77.96693459525969
145;145;1449489901;2.2758924961099996;0.8876516819;0.0696531236172;1;True;28;1;77.96693459525969
146;146;1449489901;2.2760729789700003;0.887743771076;0.06954780220989999;1;True;28;1;77.96693459525969
147;147;1449489901;2.27601456642;0.887592673302;0.0695862695575;1;True;28;1;77.96693459525969
148;148;1449489901;2.27604150772;0.887626171112;0.06952434778210001;1;True;28;1;77.96693459525969
149;149;1449489901;2.2760925293;0.887593388557;0.0694487988949;1;True;28;1;77.96693459525969
150;150;1449489901;2.27591490746;0.887572467327;0.0696702152491;1;True;28;1;77.96693459525969
151;151;1449489901;2.27589774132;0.887566268444;0.06964930146930001;1;True;28;1;77.96693459525969
152;152;1449489901;2.27593564987;0.8876619338989999;0.0696752071381;1;True;28;1;77.96693459525969
153;153;1449489901;2.2759127616900003;0.8876269459720001;0.0696787461638;1;True;28;1;77.96693459525969
154;154;1449489901;2.27603650093;0.887628555298;0.06955114007;1;True;28;1;77.96693459525969
155;155;1449489901;2.2759077549;0.8875331878659999;0.0696923658252;1;True;28;1;77.96693459525969
156;156;1449489901;2.2760267257700004;0.8876716494560001;0.0696757957339;1;True;28;1;77.96693459525969
157;157;1449489901;2.27592802048;0.8877775073049999;0.0696487054229;1;True;28;1;77.96693459525969
158;158;1449489901;2.27603173256;0.887699902058;0.06953682750460001;1;True;28;1;77.96693459525969
159;159;1449489901;2.27584791183;0.887571513653;0.0696797519922;1;True;28;1;77.96693459525969
160;160;1449489901;2.2760624885599996;0.887574374676;0.06946625560519999;1;True;28;1;77.96693459525969
161;161;1449489901;2.27598547935;0.8876738548280001;0.069672383368;1;True;28;1;77.96693459525969
162;162;1449489901;2.27596211433;0.8876860737799999;0.06967382133010001;1;True;28;1;77.96693459525969
163;163;1449489901;2.27607059479;0.887589454651;0.0694547742605;1;True;28;1;77.96693459525969
164;164;1449489901;2.2761023044599997;0.8878798484799999;0.069456666708;1;True;28;1;77.96693459525969
165;165;1449489901;2.2758634090400003;0.887598872185;0.06968394666910001;1;True;28;1;77.96693459525969
166;166;1449489901;2.27590680122;0.887472689152;0.06961733102800001;1;True;28;1;77.96693459525969
167;167;1449489901;2.27585244179;0.887562096119;0.069632537663;1;True;28;1;77.96693459525969
168;168;1449489901;2.27609968185;0.88780194521;0.0694505348802;1;True;28;1;77.96693459525969
169;169;1449489901;2.27588915825;0.8875744938850001;0.0696767792106;1;True;28;1;77.96693459525969
170;170;1449489901;2.27576184273;0.8876896500589999;0.0695949047804;1;True;28;1;77.96693459525969
171;171;1449489901;2.2760624885599996;0.887728631496;0.0695089995861;1;True;28;1;77.96693459525969
172;172;1449489901;2.2759616375;0.8876022100450001;0.0696166679263;1;True;28;1;77.96693459525969
173;173;1449489901;2.27590584755;0.8877920508380001;0.06966944038869999;1;True;28;1;77.96693459525969
174;174;1449489901;2.27593183517;0.887579858303;0.0696457028389;1;True;28;1;77.96693459525969
175;175;1449489901;2.2759189605700003;0.8876777291299999;0.0696800947189;1;True;28;1;77.96693459525969
176;176;1449489901;2.27586245537;0.887574255466;0.06964708864689999;1;True;28;1;77.96693459525969
177;177;1449489901;2.27593302727;0.887833178043;0.06967662274839999;1;True;28;1;77.96693459525969
178;178;1449489901;2.27576470375;0.887514293194;0.0696931704879;1;True;28;1;77.96693459525969
179;179;1449489901;2.27602267265;0.8877147436139999;0.06955276429650001;1;True;28;1;77.96693459525969
180;180;1449489901;2.27605462074;0.887706279755;0.0695264488459;1;True;28;1;77.96693459525969
181;181;1449489901;2.27608442307;0.8879083395;0.0694950819016;1;True;28;1;77.96693459525969
182;182;1449489901;2.2759988308000003;0.88781195879;0.06965201348069999;1;True;28;1;77.96693459525969
183;183;1449489901;2.27597546577;0.8875417113299998;0.0696053206921;1;True;28;1;77.96693459525969
184;184;1449489901;2.27599620819;0.8877248764040001;0.0696387663484;1;True;28;1;77.96693459525969
185;185;1449489901;2.2758581638299997;0.8875849843029999;0.06969623267649999;1;True;28;1;77.96693459525969
186;186;1449489901;2.2759647369400002;0.887531995773;0.0696152895689;1;True;28;1;77.96693459525969
187;187;1449489901;2.27593493462;0.8876759409899999;0.0696899518371;1;True;28;1;77.96693459525969
188;188;1449489901;2.2759528160099998;0.8877819180490001;0.06967505812639999;1;True;28;1;77.96693459525969
189;189;1449489901;2.27603149414;0.887772977352;0.0695686787367;1;True;28;1;77.96693459525969
190;190;1449489901;2.27608513832;0.8878009319310001;0.0694791972637;1;True;28;1;77.96693459525969
191;191;1449489901;2.27599382401;0.8877238035200001;0.06962175667289999;1;True;28;1;77.96693459525969
192;192;1449489901;2.27597403526;0.887827575207;0.06968504190439999;1;True;28;1;77.96693459525969
193;193;1449489901;2.2758026122999997;0.8873522281649999;0.06978967785839998;1;True;28;1;77.96693459525969
194;194;1449489901;2.27594351768;0.887595355511;0.06958899647000001;1;True;28;1;77.96693459525969
195;195;1449489901;2.2758784294099996;0.887951016426;0.06970948725939999;1;True;28;1;77.96693459525969
196;196;1449489901;2.27597761154;0.887708127499;0.0696409121156;1;True;28;1;77.96693459525969
197;197;1449489901;2.27598190308;0.887638092041;0.0696216970682;1;True;28;1;77.96693459525969
198;198;1449489901;2.27587485313;0.887614667416;0.0696660652757;1;True;28;1;77.96693459525969
199;199;1449489901;2.27590966225;0.887833297253;0.06968061625960001;1;True;28;1;77.96693459525969
200;200;1449489901;2.27587032318;0.887566328049;0.0696903541684;1;True;28;1;77.96693459525969
201;201;1449489901;2.27597737312;0.8876326084139999;0.0696159303188;1;True;28;1;77.96693459525969
202;202;1449489901;2.27605485916;0.887921512127;0.0695301815867;1;True;28;1;77.96693459525969
203;203;1449489901;2.2760071754499998;0.8876746296879999;0.06953201442960001;1;True;28;1;77.96693459525969
204;204;1449489901;2.27596378326;0.8876330852509999;0.0696142986417;1;True;28;1;77.96693459525969
205;205;1449489901;2.2758798599200003;0.887689113617;0.0696789547801;1;True;28;1;77.96693459525969
206;206;1449489901;2.27586150169;0.887644350529;0.0697033330798;1;True;28;1;77.96693459525969
207;207;1449489901;2.2760305404700003;0.887736439705;0.0695467069745;1;True;28;1;77.96693459525969
208;208;1449489901;2.27594423294;0.8876380324359999;0.0696149989963;1;True;28;1;77.96693459525969
209;209;1449489901;2.27597212791;0.887683212757;0.0696354955435;1;True;28;1;77.96693459525969
210;210;1449489901;2.27593445778;0.887614250183;0.0696392431855;1;True;28;1;77.96693459525969
211;211;1449489901;2.27602863312;0.8877798318860001;0.06958154588939999;1;True;28;1;77.96693459525969
212;212;1449489901;2.27600693703;0.887730062008;0.0696068704128;1;True;28;1;77.96693459525969
213;213;1449489901;2.2759890556299998;0.8876520991329999;0.0695818737149;1;True;28;1;77.96693459525969
214;214;1449489901;2.27592921257;0.8874154686929999;0.0696203187108;1;True;28;1;77.96693459525969
215;215;1449489901;2.27586245537;0.88758033514;0.069704733789;1;True;28;1;77.96693459525969
216;216;1449489901;2.27596688271;0.8876962661740001;0.069700665772;1;True;28;1;77.96693459525969
217;217;1449489901;2.27596950531;0.887701094151;0.0696283131838;1;True;28;1;77.96693459525969
218;218;1449489901;2.27592849731;0.8876729607580001;0.0696791708469;1;True;28;1;77.96693459525969
219;219;1449489901;2.27605700493;0.887616336346;0.06947496533389999;1;True;28;1;77.96693459525969
220;220;1449489901;2.27600073814;0.8876519203190001;0.06954205036160001;1;True;28;1;77.96693459525969
221;221;1449489901;2.27587461472;0.887834727764;0.06968775391580001;1;True;28;1;77.96693459525969
222;222;1449489901;2.27596640587;0.887695133686;0.0696291923523;1;True;28;1;77.96693459525969
223;223;1449489901;2.27590680122;0.8877506852150001;0.0696675553918;1;True;28;1;77.96693459525969
224;224;1449489901;2.2759425640099997;0.8875514864920001;0.0696024298668;1;True;28;1;77.96693459525969
225;225;1449489901;2.27603554726;0.887929320335;0.06956619769330001;1;True;28;1;77.96693459525969
226;226;1449489901;2.2759127616900003;0.887615859509;0.0697256848216;1;True;28;1;77.96693459525969
227;227;1449489901;2.27591443062;0.887638151646;0.06970248371360001;1;True;28;1;77.96693459525969
228;228;1449489901;2.27604722977;0.8876269459720001;0.0694597810507;1;True;28;1;77.96693459525969
229;229;1449489901;2.2759230136900004;0.8877067565919999;0.06968762725589998;1;True;28;1;77.96693459525969
230;230;1449489901;2.27589058876;0.887799680233;0.0696728304029;1;True;28;1;77.96693459525969
231;231;1449489901;2.27590370178;0.88770788908;0.06968502700330001;1;True;28;1;77.96693459525969
232;232;1449489901;2.2759375572200002;0.88764756918;0.0696416273713;1;True;28;1;77.96693459525969
233;233;1449489901;2.27599167824;0.8876072168350001;0.0695651322603;1;True;28;1;77.96693459525969
234;234;1449489901;2.27607321739;0.88780105114;0.0694808363914;1;True;28;1;77.96693459525969
235;235;1449489901;2.27603626251;0.887803852558;0.0695436820388;1;True;28;1;77.96693459525969
236;236;1449489901;2.27594590187;0.8875949382780001;0.0695803239942;1;True;28;1;77.96693459525969
237;237;1449489901;2.27586722374;0.887590050697;0.0696487352252;1;True;28;1;77.96693459525969
238;238;1449489901;2.2759752273599996;0.8877303004260001;0.0696802213788;1;True;28;1;77.96693459525969
239;239;1449489901;2.27602458;0.8876371383670001;0.06955910474060001;1;True;28;1;77.96693459525969
240;240;1449489901;2.2760305404700003;0.887734949589;0.06956432014700001;1;True;28;1;77.96693459525969
241;241;1449489901;2.27590513229;0.8877011537549999;0.06973132491110001;1;True;28;1;77.96693459525969
242;242;1449489902;2.2757062912;0.887666046619;0.069774992764;2;True;28;1;77.96693459525969
243;243;1449489902;2.2760219574000002;0.8877303004260001;0.0696295127273;2;True;28;1;77.96693459525969
244;244;1449489902;2.27610635757;0.887816846371;0.06947758048769999;2;True;28;1;77.96693459525969
245;245;1449489902;2.27601647377;0.8877918124200002;0.0696425959468;2;True;28;1;77.96693459525969
246;246;1449489902;2.27591395378;0.887535989285;0.0696593895555;2;True;28;1;77.96693459525969
247;247;1449489902;2.2758779525799997;0.8876126408580001;0.0697013363242;2;True;28;1;77.96693459525969
248;248;1449489902;2.2758588790900003;0.8877173066140001;0.0697107240558;2;True;28;1;77.96693459525969
249;249;1449489902;2.276004076;0.8877325654029999;0.0697428584099;2;True;28;1;77.96693459525969
250;250;1449489902;2.27595210075;0.887706160545;0.0696686133742;2;True;28;1;77.96693459525969
251;251;1449489902;2.27583193779;0.887540102005;0.0697205215693;2;True;28;1;77.96693459525969
252;252;1449489902;2.2759449482;0.8876990675929999;0.06968883425;2;True;28;1;77.96693459525969
253;253;1449489902;2.27588033676;0.887625157833;0.0697104483843;2;True;28;1;77.96693459525969
254;254;1449489902;2.27591729164;0.887585282326;0.06972769647839999;2;True;28;1;77.96693459525969
255;255;1449489902;2.2759578228;0.887623250484;0.0696023851633;2;True;28;1;77.96693459525969
256;256;1449489902;2.27588796616;0.887619018555;0.069675758481;2;True;28;1;77.96693459525969
257;257;1449489902;2.27592492104;0.887697994709;0.06968383491039999;2;True;28;1;77.96693459525969
258;258;1449489902;2.27611279488;0.8878876566889999;0.0694821327925;2;True;28;1;77.96693459525969
259;259;1449489902;2.27602577209;0.887685656548;0.06958483159539999;2;True;28;1;77.96693459525969
260;260;1449489902;2.27596330643;0.8877350091930001;0.0696838796139;2;True;28;1;77.96693459525969
261;261;1449489902;2.2760174274400002;0.887678861618;0.06957461684939999;2;True;28;1;77.96693459525969
262;262;1449489902;2.27588558197;0.8879962563510001;0.06974201649430001;2;True;28;1;77.96693459525969
263;263;1449489902;2.27598643303;0.88782286644;0.0696993172169;2;True;28;1;77.96693459525969
264;264;1449489902;2.27604413033;0.887800574303;0.06960151344539998;2;True;28;1;77.96693459525969
265;265;1449489902;2.27586364746;0.8876516222949999;0.0696502476931;2;True;28;1;77.96693459525969
266;266;1449489902;2.2759566307099997;0.8875100612639999;0.0696314126253;2;True;28;1;77.96693459525969
267;267;1449489902;2.2760188579599996;0.8876911997799999;0.0695854276419;2;True;28;1;77.96693459525969
268;268;1449489902;2.27603912354;0.887796700001;0.06957424432039999;2;True;28;1;77.96693459525969
269;269;1449489902;2.27590990067;0.887584447861;0.069665953517;2;True;28;1;77.96693459525969
270;270;1449489902;2.27590537071;0.8876520991329999;0.0696653574705;2;True;28;1;77.96693459525969
271;271;1449489902;2.27592515945;0.8878541588779999;0.0696956068277;2;True;28;1;77.96693459525969
272;272;1449489902;2.2759640216799997;0.8877173066140001;0.06969208270310001;2;True;28;1;77.96693459525969
273;273;1449489902;2.2758886814099997;0.887665510178;0.0696457475424;2;True;28;1;77.96693459525969
274;274;1449489902;2.27588558197;0.8875616192820001;0.0696941167116;2;True;28;1;77.96693459525969
275;275;1449489902;2.2758607864400004;0.887645125389;0.0696908310056;2;True;28;1;77.96693459525969
276;276;1449489902;2.2759642601;0.8877227902410001;0.0696198567748;2;True;28;1;77.96693459525969
277;277;1449489902;2.27600455284;0.8878028392790001;0.0696256533265;2;True;28;1;77.96693459525969
278;278;1449489902;2.27597427368;0.887763738632;0.0696507021785;2;True;28;1;77.96693459525969
279;279;1449489902;2.27594184875;0.887895703316;0.06981059163810001;2;True;28;1;77.96693459525969
280;280;1449489902;2.27589988708;0.887653112411;0.0696963965893;2;True;28;1;77.96693459525969
281;281;1449489902;2.2758538723;0.8876147270200001;0.0696888938546;2;True;28;1;77.96693459525969
282;282;1449489902;2.27609419823;0.887870848179;0.0694728195667;2;True;28;1;77.96693459525969
283;283;1449489902;2.27588152885;0.8876268267630001;0.0696878358722;2;True;28;1;77.96693459525969
284;284;1449489902;2.27613520622;0.887904703617;0.0695232897997;2;True;28;1;77.96693459525969
285;285;1449489902;2.27604031563;0.8877931237219999;0.0695535764098;2;True;28;1;77.96693459525969
286;286;1449489902;2.2759175300599996;0.887932658195;0.06974236667160001;2;True;28;1;77.96693459525969
287;287;1449489902;2.2760071754499998;0.887687027454;0.0696358904243;2;True;28;1;77.96693459525969
288;288;1449489902;2.27590227127;0.887791633606;0.0696696341038;2;True;28;1;77.96693459525969
289;289;1449489902;2.2759130001099996;0.887683689594;0.0697127729654;2;True;28;1;77.96693459525969
290;290;1449489902;2.27600240707;0.8878256082529999;0.0696397796273;2;True;28;1;77.96693459525969
291;291;1449489902;2.27595257759;0.8877043724060001;0.0696742981672;2;True;28;1;77.96693459525969
292;292;1449489902;2.2759869098700003;0.887631297112;0.0695878639817;2;True;28;1;77.96693459525969
293;293;1449489902;2.27584838867;0.8875746130940001;0.06969132274389998;2;True;28;1;77.96693459525969
294;294;1449489902;2.27603602409;0.887785971165;0.06954066455360002;2;True;28;1;77.96693459525969
295;295;1449489902;2.27589058876;0.887631475925;0.069687269628;2;True;28;1;77.96693459525969
296;296;1449489902;2.2759203910799997;0.887645065784;0.06970155984160001;2;True;28;1;77.96693459525969
297;297;1449489902;2.27583122253;0.8876785039899999;0.0694368034601;2;True;28;1;77.96693459525969
298;298;1449489902;2.2760977745099997;0.887883484364;0.06963009387249999;2;True;28;1;77.96693459525969
299;299;1449489902;2.2758967876400003;0.887671887875;0.0698407515883;2;True;28;1;77.96693459525969
300;300;1449489902;2.2760334014900003;0.8877527117730001;0.06958165764810001;2;True;28;1;77.96693459525969
301;301;1449489902;2.27600979805;0.887652695179;0.06956367939710001;2;True;28;1;77.96693459525969
302;302;1449489902;2.275867939;0.887598633766;0.0696733593941;2;True;28;1;77.96693459525969
303;303;1449489902;2.27590370178;0.887606501579;0.0697683319449;2;True;28;1;77.96693459525969
304;304;1449489902;2.2759001255;0.887549340725;0.0697035491467;2;True;28;1;77.96693459525969
305;305;1449489902;2.27587199211;0.887653589249;0.06970100104810001;2;True;28;1;77.96693459525969
306;306;1449489902;2.27590584755;0.8875430822370001;0.0697008445859;2;True;28;1;77.96693459525969
307;307;1449489902;2.2760541439099997;0.887793242931;0.0695549547672;2;True;28;1;77.96693459525969
308;308;1449489902;2.2760326862299998;0.8876607418060001;0.069560430944;2;True;28;1;77.96693459525969
309;309;1449489902;2.27592968941;0.887826621532;0.0696811676025;2;True;28;1;77.96693459525969
310;310;1449489902;2.2760875225099997;0.887952506542;0.0695758983493;2;True;28;1;77.96693459525969
311;311;1449489902;2.2760498523700003;0.8877745866779999;0.06953478604560001;2;True;28;1;77.96693459525969
312;312;1449489902;2.2760162353499998;0.887620687485;0.06957665085789999;2;True;28;1;77.96693459525969
313;313;1449489902;2.27596592903;0.887722015381;0.0696640387177;2;True;28;1;77.96693459525969
314;314;1449489902;2.2759010791799996;0.88761895895;0.0696916803718;2;True;28;1;77.96693459525969
315;315;1449489902;2.27600955963;0.887663781643;0.06958492100239999;2;True;28;1;77.96693459525969
316;316;1449489902;2.27604103088;0.8877397775650001;0.0695850476623;2;True;28;1;77.96693459525969
317;317;1449489902;2.27598190308;0.8877976536750001;0.06970967352389999;2;True;28;1;77.96693459525969
318;318;1449489902;2.27605986595;0.887698531151;0.069536074996;2;True;28;1;77.96693459525969
319;319;1449489902;2.2760779857599998;0.8879248499869999;0.0695683211088;2;True;28;1;77.96693459525969
320;320;1449489902;2.27602291107;0.887621581554;0.0695864856243;2;True;28;1;77.96693459525969
321;321;1449489902;2.27603673935;0.887633979321;0.0695467293262;2;True;28;1;77.96693459525969
322;322;1449489902;2.2760541439099997;0.887758076191;0.0695516765118;2;True;28;1;77.96693459525969
323;323;1449489902;2.27596545219;0.887650072575;0.06969400495289998;2;True;28;1;77.96693459525969
324;324;1449489902;2.27601718903;0.8878161311149999;0.06965699046849999;2;True;28;1;77.96693459525969
325;325;1449489902;2.27591395378;0.887740254402;0.06967442482710001;2;True;28;1;77.96693459525969
326;326;1449489902;2.27592206001;0.887677133083;0.06968228518960001;2;True;28;1;77.96693459525969
327;327;1449489902;2.2759976387000003;0.887622535229;0.069616779685;2;True;28;1;77.96693459525969
328;328;1449489902;2.27606487274;0.887782514095;0.0695447996259;2;True;28;1;77.96693459525969
329;329;1449489902;2.27591633797;0.887503445148;0.06965602189299999;2;True;28;1;77.96693459525969
330;330;1449489902;2.27606487274;0.8876053094859999;0.0694972872734;2;True;28;1;77.96693459525969
331;331;1449489902;2.2759077549;0.887601554394;0.06969446688889999;2;True;28;1;77.96693459525969
332;332;1449489902;2.27593922615;0.8878208994869999;0.06968555599449999;2;True;28;1;77.96693459525969
333;333;1449489902;2.27602505684;0.887809455395;0.06964890658860001;2;True;28;1;77.96693459525969
334;334;1449489902;2.27591013908;0.887514710426;0.0696415454149;2;True;28;1;77.96693459525969
335;335;1449489902;2.2760343551599997;0.8876800537109999;0.06956721097230001;2;True;28;1;77.96693459525969
336;336;1449489902;2.2758834362;0.887641370296;0.0696964934468;2;True;28;1;77.96693459525969
337;337;1449489902;2.27594852448;0.887563288212;0.0696598514915;2;True;28;1;77.96693459525969
338;338;1449489902;2.2760381698599996;0.887745440006;0.06961312890049999;2;True;28;1;77.96693459525969
339;339;1449489902;2.27590584755;0.887677371502;0.0697003975511;2;True;28;1;77.96693459525969
340;340;1449489902;2.27592086792;0.8878120183939999;0.0696699023247;2;True;28;1;77.96693459525969
341;341;1449489902;2.2757725715599997;0.887796163559;0.06987195461989999;2;True;28;1;77.96693459525969
342;342;1449489902;2.27604174614;0.887848377228;0.0696094557643;2;True;28;1;77.96693459525969
343;343;1449489902;2.27605724335;0.887723863125;0.06962078064680001;2;True;28;1;77.96693459525969
344;344;1449489902;2.27590274811;0.8876135349269999;0.0696612298489;2;True;28;1;77.96693459525969
345;345;1449489902;2.2759137153599998;0.887610137463;0.0696803405881;2;True;28;1;77.96693459525969
346;346;1449489902;2.27590608597;0.887607634068;0.0696753636003;2;True;28;1;77.96693459525969
347;347;1449489902;2.2761125564599998;0.8878489136700002;0.0694762468338;2;True;28;1;77.96693459525969
348;348;1449489902;2.27605724335;0.887817025185;0.0695767775178;2;True;28;1;77.96693459525969
349;349;1449489902;2.2759897708900003;0.887687087059;0.06965328007939998;2;True;28;1;77.96693459525969
350;350;1449489902;2.27607083321;0.887776494026;0.0695266202092;2;True;28;1;77.96693459525969
351;351;1449489902;2.27602744102;0.887841701508;0.0696663632989;2;True;28;1;77.96693459525969
352;352;1449489902;2.2760689258599998;0.887792527676;0.0695563033223;2;True;28;1;77.96693459525969
353;353;1449489902;2.27592325211;0.887554585934;0.0696594417095;2;True;28;1;77.96693459525969
354;354;1449489902;2.2759461402900003;0.88786149025;0.0696849003434;2;True;28;1;77.96693459525969
355;355;1449489902;2.27612400055;0.887834668159;0.06947292387489999;2;True;28;1;77.96693459525969
356;356;1449489902;2.27601456642;0.887689948082;0.06962966173889999;2;True;28;1;77.96693459525969
357;357;1449489902;2.27612423897;0.887861430645;0.0694831684232;2;True;28;1;77.96693459525969
358;358;1449489902;2.27600669861;0.8877301812170001;0.0696469470859;2;True;28;1;77.96693459525969
359;359;1449489902;2.2760107517200003;0.887731730938;0.0696475729346;2;True;28;1;77.96693459525969
360;360;1449489902;2.2759912013999997;0.887555778027;0.06961204111580001;2;True;28;1;77.96693459525969
361;361;1449489902;2.27591633797;0.8875861167910001;0.069733440876;2;True;28;1;77.96693459525969
362;362;1449489902;2.2759320735900004;0.887552499771;0.0696545317769;2;True;28;1;77.96693459525969
363;363;1449489902;2.2760584354400004;0.887563347816;0.0695091709495;2;True;28;1;77.96693459525969
364;364;1449489902;2.2759518623400004;0.8876557350159999;0.0696835964918;2;True;28;1;77.96693459525969
365;365;1449489902;2.2759168148;0.8876815438269999;0.0697059929371;2;True;28;1;77.96693459525969
366;366;1449489902;2.2759077549;0.8876594305040001;0.0696640834212;2;True;28;1;77.96693459525969
367;367;1449489902;2.27602124214;0.887657880783;0.06962415575980001;2;True;28;1;77.96693459525969
368;368;1449489902;2.2761247158099995;0.887861251831;0.069485925138;2;True;28;1;77.96693459525969
369;369;1449489902;2.27603650093;0.8877555131910001;0.06957160681489999;2;True;28;1;77.96693459525969
370;370;1449489902;2.276004076;0.8877319693569999;0.0697001963854;2;True;28;1;77.96693459525969
371;371;1449489902;2.2759408950799997;0.8877906203270001;0.0696859061718;2;True;28;1;77.96693459525969
372;372;1449489902;2.2760643959;0.887794613838;0.0695937424898;2;True;28;1;77.96693459525969
373;373;1449489902;2.27598953247;0.887614071369;0.06963670998810001;2;True;28;1;77.96693459525969
374;374;1449489902;2.27600073814;0.887740254402;0.06967959553;2;True;28;1;77.96693459525969
375;375;1449489902;2.2760288715400003;0.8877724409100001;0.0696338042617;2;True;28;1;77.96693459525969
376;376;1449489902;2.27597355843;0.887868583202;0.06984603405;2;True;28;1;77.96693459525969
377;377;1449489902;2.27600455284;0.8875812888150001;0.0695824995637;2;True;28;1;77.96693459525969
378;378;1449489902;2.27606010437;0.887756645679;0.06957054138180001;2;True;28;1;77.96693459525969
379;379;1449489902;2.27592587471;0.887685239315;0.0695858299732;2;True;28;1;77.96693459525969
380;380;1449489902;2.27597618103;0.887666165829;0.0696508064866;2;True;28;1;77.96693459525969
381;381;1449489902;2.27603173256;0.887723445892;0.0695927292109;2;True;28;1;77.96693459525969
382;382;1449489902;2.27593708038;0.88765847683;0.06970033794639999;2;True;28;1;77.96693459525969
383;383;1449489902;2.27592015266;0.887617528439;0.0696857869625;2;True;28;1;77.96693459525969
384;384;1449489902;2.27589392662;0.887617409229;0.06968022882939999;2;True;28;1;77.96693459525969
385;385;1449489902;2.2759647369400002;0.8876631259919999;0.0696981325746;2;True;28;1;77.96693459525969
386;386;1449489902;2.27600598335;0.8877140879629999;0.0696707963943;2;True;28;1;77.96693459525969
387;387;1449489902;2.27607488632;0.887599766254;0.06951617449519999;2;True;28;1;77.96693459525969
388;388;1449489902;2.27598834038;0.887632489204;0.06967705488199999;2;True;28;1;77.96693459525969
389;389;1449489902;2.27606511116;0.887792170048;0.06959092617030001;2;True;28;1;77.96693459525969
390;390;1449489902;2.27596354485;0.887790322304;0.0697001665831;2;True;28;1;77.96693459525969
391;391;1449489902;2.27600932121;0.8876582980159999;0.06961255520580001;2;True;28;1;77.96693459525969
392;392;1449489902;2.27602910995;0.887629985809;0.06959703564639999;2;True;28;1;77.96693459525969
393;393;1449489902;2.27606654167;0.887781441212;0.0695652365685;2;True;28;1;77.96693459525969
394;394;1449489902;2.27592635155;0.887688279152;0.0696843415499;2;True;28;1;77.96693459525969
395;395;1449489902;2.27596640587;0.887666463852;0.0697289183736;2;True;28;1;77.96693459525969
396;396;1449489902;2.2760078907;0.8877071738240001;0.069659344852;2;True;28;1;77.96693459525969
397;397;1449489902;2.27588915825;0.88760226965;0.0696824938059;2;True;28;1;77.96693459525969
398;398;1449489902;2.2760591507;0.887743413448;0.0695806369185;2;True;28;1;77.96693459525969
399;399;1449489902;2.27602267265;0.8876758813860001;0.0696398317814;2;True;28;1;77.96693459525969
400;400;1449489902;2.27602386475;0.887578904629;0.069632820785;2;True;28;1;77.96693459525969
401;401;1449489902;2.27606582642;0.8877806067470001;0.0695761963725;2;True;28;1;77.96693459525969
402;402;1449489902;2.27593040466;0.887756943703;0.0696860849857;2;True;28;1;77.96693459525969
403;403;1449489902;2.27591729164;0.8876420259479999;0.0697549507022;2;True;28;1;77.96693459525969
404;404;1449489902;2.27590155602;0.887626051903;0.0697036981583;2;True;28;1;77.96693459525969
405;405;1449489902;2.27599024773;0.887654364109;0.06966442614789999;2;True;28;1;77.96693459525969
406;406;1449489902;2.27601575851;0.887724578381;0.0696514993906;2;True;28;1;77.96693459525969
407;407;1449489902;2.2759282589;0.8876682519910001;0.06980416923760001;2;True;28;1;77.96693459525969
408;408;1449489902;2.27602601051;0.887698829174;0.0696264952421;2;True;28;1;77.96693459525969
409;409;1449489902;2.2757782936099997;0.887332141399;0.0698676481843;2;True;28;1;77.96693459525969
410;410;1449489902;2.27590274811;0.8875963091850001;0.0697126835585;2;True;28;1;77.96693459525969
411;411;1449489902;2.27601456642;0.887799739838;0.0696461573243;2;True;28;1;77.96693459525969
412;412;1449489902;2.2758898735;0.887668788433;0.0697071775794;2;True;28;1;77.96693459525969
413;413;1449489902;2.27589488029;0.8875957727429999;0.0696644559503;2;True;28;1;77.96693459525969
414;414;1449489902;2.2760264873500002;0.887791275978;0.0696500763297;2;True;28;1;77.96693459525969
415;415;1449489902;2.27588558197;0.8875865936280001;0.0697130635381;2;True;28;1;77.96693459525969
416;416;1449489902;2.27602910995;0.887717723846;0.0696128383279;2;True;28;1;77.96693459525969
417;417;1449489902;2.2759323120099997;0.887851953506;0.0696886703372;2;True;28;1;77.96693459525969
418;418;1449489902;2.2760107517200003;0.8875553011890001;0.0696314945817;2;True;28;1;77.96693459525969
419;419;1449489902;2.27593922615;0.8876785039899999;0.0697176530957;2;True;28;1;77.96693459525969
420;420;1449489902;2.2759640216799997;0.887562692165;0.0696083009243;2;True;28;1;77.96693459525969
421;421;1449489902;2.27590274811;0.887685239315;0.0697999894619;2;True;28;1;77.96693459525969
422;422;1449489902;2.27606368065;0.8877708911900001;0.06955656409260001;2;True;28;1;77.96693459525969
423;423;1449489902;2.2759282589;0.887647986412;0.06967687606810001;2;True;28;1;77.96693459525969
424;424;1449489902;2.27607369423;0.887753844261;0.0696657821536;2;True;28;1;77.96693459525969
425;425;1449489902;2.27593851089;0.8875308036799998;0.0696344822645;2;True;28;1;77.96693459525969
426;426;1449489902;2.27602052689;0.887712001801;0.06963583827019999;2;True;28;1;77.96693459525969
427;427;1449489902;2.2759783268000002;0.887579679489;0.0696123093367;2;True;28;1;77.96693459525969
428;428;1449489902;2.27593708038;0.8875134587289999;0.0696573108435;2;True;28;1;77.96693459525969
429;429;1449489902;2.2760207653;0.8876595497130001;0.0696434304118;2;True;28;1;77.96693459525969
430;430;1449489902;2.2760553359999998;0.887655556202;0.0695704743266;2;True;28;1;77.96693459525969
431;431;1449489902;2.2758753299700003;0.887517988682;0.0697006583214;2;True;28;1;77.96693459525969
432;432;1449489902;2.2760689258599998;0.8876604437829999;0.0695777758956;2;True;28;1;77.96693459525969
433;433;1449489902;2.27596187592;0.887742221355;0.0697345435619;2;True;28;1;77.96693459525969
434;434;1449489902;2.27606010437;0.8876688480380001;0.069590382278;2;True;28;1;77.96693459525969
435;435;1449489902;2.27605676651;0.887657225132;0.06958127021789999;2;True;28;1;77.96693459525969
436;436;1449489902;2.27600431442;0.887782275677;0.06968172639610001;2;True;28;1;77.96693459525969
437;437;1449489902;2.27605772018;0.887724578381;0.0696282833815;2;True;28;1;77.96693459525969
438;438;1449489902;2.27606010437;0.8876536488529999;0.0695659592748;2;True;28;1;77.96693459525969
439;439;1449489902;2.27607178688;0.8877738714219999;0.0695855766535;2;True;28;1;77.96693459525969
440;440;1449489902;2.2760348319999997;0.8877046704289999;0.06963144242760001;2;True;28;1;77.96693459525969
441;441;1449489902;2.27610445023;0.887903392315;0.0695573166013;2;True;28;1;77.96693459525969
442;442;1449489902;2.27598929405;0.887648165226;0.06968920677899999;2;True;28;1;77.96693459525969
443;443;1449489902;2.27592539787;0.8875975012780001;0.0697819963098;2;True;28;1;77.96693459525969
444;444;1449489902;2.2759642601;0.887543618679;0.0696776658297;2;True;28;1;77.96693459525969
445;445;1449489902;2.27589774132;0.8875929713249999;0.0697136446834;2;True;28;1;77.96693459525969
446;446;1449489902;2.27597093582;0.887560606003;0.0696009024978;2;True;28;1;77.96693459525969
447;447;1449489902;2.27595996857;0.887647747993;0.0696682780981;2;True;28;1;77.96693459525969
448;448;1449489902;2.27595353127;0.887775480747;0.0697103813291;2;True;28;1;77.96693459525969
449;449;1449489902;2.27595043182;0.887636065483;0.0697211399674;2;True;28;1;77.96693459525969
450;450;1449489902;2.27595305443;0.887804389;0.06985282152889999;2;True;28;1;77.96693459525969
451;451;1449489902;2.27593255043;0.8875087499619999;0.0696381479502;2;True;28;1;77.96693459525969
452;452;1449489902;2.2760515213;0.887714385986;0.0695614144206;2;True;28;1;77.96693459525969
453;453;1449489902;2.27595806122;0.887696921825;0.06970768421889999;2;True;28;1;77.96693459525969
454;454;1449489902;2.27597546577;0.8876797556880001;0.0697169601917;2;True;28;1;77.96693459525969
455;455;1449489902;2.2760770320900003;0.887598097324;0.0694858431816;2;True;28;1;77.96693459525969
456;456;1449489902;2.276004076;0.887796461582;0.06967511773110001;2;True;28;1;77.96693459525969
457;457;1449489902;2.27598810196;0.8877065777779999;0.0696933194995;2;True;28;1;77.96693459525969
458;458;1449489902;2.2760474681900003;0.887771964073;0.0695728361607;2;True;28;1;77.96693459525969
459;459;1449489902;2.27603650093;0.887623548508;0.0695810317993;2;True;28;1;77.96693459525969
460;460;1449489902;2.2760412693000003;0.887740135193;0.06957257539030001;2;True;28;1;77.96693459525969
461;461;1449489902;2.27602314949;0.887785673141;0.06964278966189999;2;True;28;1;77.96693459525969
462;462;1449489902;2.27611541748;0.8877964019779999;0.0694677010179;2;True;28;1;77.96693459525969
463;463;1449489902;2.27588295937;0.887586951256;0.0697044208646;2;True;28;1;77.96693459525969
464;464;1449489902;2.27603840828;0.887647867203;0.0695593431592;2;True;28;1;77.96693459525969
465;465;1449489902;2.27601647377;0.887640357018;0.0696244090796;2;True;28;1;77.96693459525969
466;466;1449489902;2.27607917786;0.887881159782;0.0695333629847;2;True;28;1;77.96693459525969
467;467;1449489902;2.27600574493;0.887660503387;0.06961431354280001;2;True;28;1;77.96693459525969
468;468;1449489902;2.27597928047;0.887774288654;0.06965970247980001;2;True;28;1;77.96693459525969
469;469;1449489902;2.2760102748900004;0.8877118825910001;0.0696450769901;2;True;28;1;77.96693459525969
470;470;1449489902;2.27606916428;0.887773752213;0.0695550590754;2;True;28;1;77.96693459525969
471;471;1449489902;2.27600359917;0.887657761574;0.06962809711689999;2;True;28;1;77.96693459525969
472;472;1449489902;2.2759244441999997;0.887500286102;0.069634616375;2;True;28;1;77.96693459525969
473;473;1449489902;2.27601838112;0.887699484825;0.0696999430656;2;True;28;1;77.96693459525969
474;474;1449489902;2.27593874931;0.887855887413;0.06967692077160001;2;True;28;1;77.96693459525969
475;475;1449489902;2.27599191666;0.8876690268520001;0.069638684392;2;True;28;1;77.96693459525969
476;476;1449489902;2.27592015266;0.8876256942749999;0.0696402564645;2;True;28;1;77.96693459525969
477;477;1449489902;2.27604031563;0.887539029121;0.0695017054677;2;True;28;1;77.96693459525969
478;478;1449489902;2.2760498523700003;0.887730538845;0.0695479661226;2;True;28;1;77.96693459525969
479;479;1449489902;2.27606344223;0.887776434422;0.0695513635874;2;True;28;1;77.96693459525969
480;480;1449489902;2.2759671211200003;0.8876751661299999;0.0696313157678;2;True;28;1;77.96693459525969
481;481;1449489902;2.2759845256799998;0.887611150742;0.0696165934205;2;True;28;1;77.96693459525969
482;482;1449489903;2.27589154243;0.8876269459720001;0.06969885528089999;3;True;28;1;77.96693459525969
483;483;1449489903;2.27601194382;0.887634158134;0.06961449235679999;3;True;28;1;77.96693459525969
484;484;1449489903;2.2760174274400002;0.887799859047;0.0696366131306;3;True;28;1;77.96693459525969
485;485;1449489903;2.27598953247;0.887676239014;0.0696776434779;3;True;28;1;77.96693459525969
486;486;1449489903;2.27607607841;0.887609481812;0.06947404146189999;3;True;28;1;77.96693459525969
487;487;1449489903;2.27596092224;0.8876924514769999;0.0696539357305;3;True;28;1;77.96693459525969
488;488;1449489903;2.2758502960199998;0.887736439705;0.06965920329089999;3;True;28;1;77.96693459525969
489;489;1449489903;2.2760281562799998;0.8877297639849999;0.0696154087782;3;True;28;1;77.96693459525969
490;490;1449489903;2.2760453224200003;0.88776743412;0.06952927261589999;3;True;28;1;77.96693459525969
491;491;1449489903;2.2760188579599996;0.8877140283580001;0.0696057677269;3;True;28;1;77.96693459525969
492;492;1449489903;2.27585124969;0.8876132369040001;0.06970806419850001;3;True;28;1;77.96693459525969
493;493;1449489903;2.27595472336;0.8876022100450001;0.06962911039589999;3;True;28;1;77.96693459525969
494;494;1449489903;2.2759897708900003;0.8878115415569999;0.0696494877338;3;True;28;1;77.96693459525969
495;495;1449489903;2.27591490746;0.887663960457;0.0696975216269;3;True;28;1;77.96693459525969
496;496;1449489903;2.27595901489;0.887648046017;0.0696256682277;3;True;28;1;77.96693459525969
497;497;1449489903;2.27595806122;0.887757658958;0.0697103589773;3;True;28;1;77.96693459525969
498;498;1449489903;2.27582597733;0.8877704739569999;0.0696422234178;3;True;28;1;77.96693459525969
499;499;1449489903;2.27590203285;0.887510180473;0.06962612271310001;3;True;28;1;77.96693459525969
500;500;1449489903;2.27605938911;0.8876065611839999;0.06947376579049999;3;True;28;1;77.96693459525969
501;501;1449489903;2.2758810520200004;0.887618482113;0.0696566775441;3;True;28;1;77.96693459525969
502;502;1449489903;2.27601766586;0.887892723083;0.0696259513497;3;True;28;1;77.96693459525969
503;503;1449489903;2.27588939667;0.887622654438;0.06969553232189998;3;True;28;1;77.96693459525969
504;504;1449489903;2.27600240707;0.8875366449359999;0.069560430944;3;True;28;1;77.96693459525969
505;505;1449489903;2.27601122856;0.887629568577;0.0695471018553;3;True;28;1;77.96693459525969
506;506;1449489903;2.27602505684;0.8877148628229999;0.0695321038365;3;True;28;1;77.96693459525969
507;507;1449489903;2.27600216866;0.8876118063930001;0.0696058869362;3;True;28;1;77.96693459525969
508;508;1449489903;2.27601003647;0.887801170349;0.06965641677380001;3;True;28;1;77.96693459525969
509;509;1449489903;2.2758793830900004;0.887733101845;0.0696615278721;3;True;28;1;77.96693459525969
510;510;1449489903;2.27607917786;0.887926220894;0.0695508494973;3;True;28;1;77.96693459525969
511;511;1449489903;2.27601933479;0.887784421444;0.0696379169822;3;True;28;1;77.96693459525969
512;512;1449489903;2.27598404884;0.88759547472;0.06964019685980001;3;True;28;1;77.96693459525969
513;513;1449489903;2.27605509758;0.887776076794;0.0695912241936;3;True;28;1;77.96693459525969
514;514;1449489903;2.27611088753;0.887840211391;0.0694731026888;3;True;28;1;77.96693459525969
515;515;1449489903;2.27593278885;0.887745440006;0.06967160850760001;3;True;28;1;77.96693459525969
516;516;1449489903;2.27598810196;0.887611031532;0.0696288719773;3;True;28;1;77.96693459525969
517;517;1449489903;2.2760288715400003;0.887726843357;0.069610349834;3;True;28;1;77.96693459525969
518;518;1449489903;2.2761046886400003;0.8878241777420001;0.0694827735424;3;True;28;1;77.96693459525969
519;519;1449489903;2.27584981918;0.8876024484630001;0.06970743834969999;3;True;28;1;77.96693459525969
520;520;1449489903;2.27601671219;0.8876839876170001;0.0696050971746;3;True;28;1;77.96693459525969
521;521;1449489903;2.2759950161;0.887615442276;0.0696286782622;3;True;28;1;77.96693459525969
522;522;1449489903;2.27594280243;0.8875430822370001;0.0696259960532;3;True;28;1;77.96693459525969
523;523;1449489903;2.27593421936;0.887620091438;0.0696541592479;3;True;28;1;77.96693459525969
524;524;1449489903;2.2760467529299997;0.8877763152120001;0.0695486068726;3;True;28;1;77.96693459525969
525;525;1449489903;2.27601146698;0.8876903653139999;0.0696934014559;3;True;28;1;77.96693459525969
526;526;1449489903;2.27600193024;0.8875409364700001;0.0696019753814;3;True;28;1;77.96693459525969
527;527;1449489903;2.27590632439;0.887587368488;0.0696858838201;3;True;28;1;77.96693459525969
528;528;1449489903;2.27586245537;0.887448847294;0.06985404342410001;3;True;28;1;77.96693459525969
529;529;1449489903;2.27586722374;0.8876025080679999;0.0697023496032;3;True;28;1;77.96693459525969
530;530;1449489903;2.2759077549;0.887633979321;0.06971083581450001;3;True;28;1;77.96693459525969
531;531;1449489903;2.2759130001099996;0.8876302242280001;0.0696668326855;3;True;28;1;77.96693459525969
532;532;1449489903;2.2759206295;0.8874771595000001;0.0696357935667;3;True;28;1;77.96693459525969
533;533;1449489903;2.2759830951700004;0.887750446796;0.06961048394439999;3;True;28;1;77.96693459525969
534;534;1449489903;2.27596235275;0.8874346017839999;0.0696132853627;3;True;28;1;77.96693459525969
535;535;1449489903;2.2760264873500002;0.8876459598540001;0.0696330219507;3;True;28;1;77.96693459525969
536;536;1449489903;2.2759907245599997;0.887590765953;0.0695972144604;3;True;28;1;77.96693459525969
537;537;1449489903;2.27591109276;0.887542426586;0.06966594606639999;3;True;28;1;77.96693459525969
538;538;1449489903;2.2759511470800002;0.887706816196;0.0697171092033;3;True;28;1;77.96693459525969
539;539;1449489903;2.276014328;0.887655973434;0.06964877992869999;3;True;28;1;77.96693459525969
540;540;1449489903;2.27604293823;0.887630462646;0.0695673599839;3;True;28;1;77.96693459525969
541;541;1449489903;2.27608728409;0.887779414654;0.0695571303368;3;True;28;1;77.96693459525969
542;542;1449489903;2.27606058121;0.887774884701;0.0695659816265;3;True;28;1;77.96693459525969
543;543;1449489903;2.2761015892;0.8876201510430001;0.0694951415062;3;True;28;1;77.96693459525969
544;544;1449489903;2.27591347694;0.887667357922;0.06968166679139999;3;True;28;1;77.96693459525969
545;545;1449489903;2.27591133118;0.8876514434810001;0.069712266326;3;True;28;1;77.96693459525969
546;546;1449489903;2.2760071754499998;0.887652277946;0.0696387663484;3;True;28;1;77.96693459525969
547;547;1449489903;2.27599024773;0.887693107128;0.0696933493018;3;True;28;1;77.96693459525969
548;548;1449489903;2.2759120464300002;0.8876595497130001;0.0697133168578;3;True;28;1;77.96693459525969
549;549;1449489903;2.27611541748;0.887783586979;0.06950671225789999;3;True;28;1;77.96693459525969
550;550;1449489903;2.27607154846;0.8877835273739999;0.0695919841528;3;True;28;1;77.96693459525969
551;551;1449489903;2.27593708038;0.8876377344130001;0.0696947425604;3;True;28;1;77.96693459525969
552;552;1449489903;2.27601790428;0.8877032399179999;0.0696334093809;3;True;28;1;77.96693459525969
553;553;1449489903;2.27588677406;0.8876323699950001;0.06989527493719999;3;True;28;1;77.96693459525969
554;554;1449489903;2.27590370178;0.8875946998600001;0.0696621090174;3;True;28;1;77.96693459525969
555;555;1449489903;2.27607440948;0.8877604007719999;0.06959583610299999;3;True;28;1;77.96693459525969
556;556;1449489903;2.27591729164;0.8875914216040001;0.0697083026171;3;True;28;1;77.96693459525969
557;557;1449489903;2.2760117053999998;0.887698948383;0.06964731961489999;3;True;28;1;77.96693459525969
558;558;1449489903;2.27602028847;0.887838661671;0.069653943181;3;True;28;1;77.96693459525969
559;559;1449489903;2.27609801292;0.887623667717;0.0694837495685;3;True;28;1;77.96693459525969
560;560;1449489903;2.27606940269;0.887781083584;0.0695589631796;3;True;28;1;77.96693459525969
561;561;1449489903;2.2760848999000003;0.8876194357870001;0.0694801360369;3;True;28;1;77.96693459525969
562;562;1449489903;2.27603626251;0.887812793255;0.06965069472789999;3;True;28;1;77.96693459525969
563;563;1449489903;2.27592968941;0.8876031041150001;0.0696911662817;3;True;28;1;77.96693459525969
564;564;1449489903;2.2759726047499997;0.887711048126;0.06967398524280001;3;True;28;1;77.96693459525969
565;565;1449489903;2.27605772018;0.8877404928210001;0.0695720463991;3;True;28;1;77.96693459525969
566;566;1449489903;2.2759578228;0.887693524361;0.06968804448839999;3;True;28;1;77.96693459525969
567;567;1449489903;2.2760326862299998;0.8877663016320001;0.0695802345872;3;True;28;1;77.96693459525969
568;568;1449489903;2.2761125564599998;0.8879441022869999;0.0695352107286;3;True;28;1;77.96693459525969
569;569;1449489903;2.2759552002000003;0.887798011303;0.0696763917804;3;True;28;1;77.96693459525969
570;570;1449489903;2.27592539787;0.8876498341560001;0.06969553232189998;3;True;28;1;77.96693459525969
571;571;1449489903;2.27592992783;0.887694478035;0.06969181448219999;3;True;28;1;77.96693459525969
572;572;1449489903;2.27602386475;0.887632966042;0.0696053653955;3;True;28;1;77.96693459525969
573;573;1449489903;2.27600264549;0.8878064155580001;0.0696504563093;3;True;28;1;77.96693459525969
574;574;1449489903;2.27592945099;0.887605547905;0.0696523562074;3;True;28;1;77.96693459525969
575;575;1449489903;2.27590632439;0.887625575066;0.0696901977062;3;True;28;1;77.96693459525969
576;576;1449489903;2.27594637871;0.887818574905;0.06968784332280001;3;True;28;1;77.96693459525969
577;577;1449489903;2.2760162353499998;0.887701928616;0.06963021308180001;3;True;28;1;77.96693459525969
578;578;1449489903;2.27603769302;0.887707591057;0.0695897340775;3;True;28;1;77.96693459525969
579;579;1449489903;2.2761054039;0.887624502182;0.06947591900830001;3;True;28;1;77.96693459525969
580;580;1449489903;2.27590537071;0.88760393858;0.0696939900517;3;True;28;1;77.96693459525969
581;581;1449489903;2.2759647369400002;0.887707054615;0.0697101429105;3;True;28;1;77.96693459525969
582;582;1449489903;2.27591133118;0.8875921964650001;0.0696459934115;3;True;28;1;77.96693459525969
583;583;1449489903;2.27591538429;0.887609899044;0.0696816518903;3;True;28;1;77.96693459525969
584;584;1449489903;2.27605009079;0.8877881765369999;0.0695448070765;3;True;28;1;77.96693459525969
585;585;1449489903;2.27599310875;0.8876520991329999;0.0696417465806;3;True;28;1;77.96693459525969
586;586;1449489903;2.27599334717;0.887638568878;0.06961473822589999;3;True;28;1;77.96693459525969
587;587;1449489903;2.27599000931;0.887722551823;0.0696761831641;3;True;28;1;77.96693459525969
588;588;1449489903;2.27599239349;0.887702345848;0.069674141705;3;True;28;1;77.96693459525969
589;589;1449489903;2.27590060234;0.8877459168430001;0.06966277956960001;3;True;28;1;77.96693459525969
590;590;1449489903;2.2759335041;0.8877017498019999;0.0697004944086;3;True;28;1;77.96693459525969
591;591;1449489903;2.2760288715400003;0.887656986713;0.0696121677756;3;True;28;1;77.96693459525969
592;592;1449489903;2.27607059479;0.887797951698;0.0695695877075;3;True;28;1;77.96693459525969
593;593;1449489903;2.27594566345;0.887543022633;0.0696427971125;3;True;28;1;77.96693459525969
594;594;1449489903;2.27589201927;0.887632906437;0.069721698761;3;True;28;1;77.96693459525969
595;595;1449489903;2.27610659599;0.887818574905;0.0694950670004;3;True;28;1;77.96693459525969
596;596;1449489903;2.27604842186;0.8877496123309999;0.0696088150144;3;True;28;1;77.96693459525969
597;597;1449489903;2.2760422229799997;0.8878478407860001;0.069662116468;3;True;28;1;77.96693459525969
598;598;1449489903;2.2759790420500003;0.887883424759;0.06969310343270001;3;True;28;1;77.96693459525969
599;599;1449489903;2.2760105133099997;0.8876908421520001;0.0696338415146;3;True;28;1;77.96693459525969
600;600;1449489903;2.27600193024;0.887551963329;0.06961324065919999;3;True;28;1;77.96693459525969
601;601;1449489903;2.27613592148;0.887864470482;0.069467484951;3;True;28;1;77.96693459525969
602;602;1449489903;2.27611780167;0.887868583202;0.06946890801189999;3;True;28;1;77.96693459525969
603;603;1449489903;2.27593040466;0.887583732605;0.06968246400360001;3;True;28;1;77.96693459525969
604;604;1449489903;2.2760248184200003;0.887736856937;0.0696804299951;3;True;28;1;77.96693459525969
605;605;1449489903;2.27603173256;0.8877295851710001;0.06961569190030001;3;True;28;1;77.96693459525969
606;606;1449489903;2.27595043182;0.887802064419;0.06967768073080001;3;True;28;1;77.96693459525969
607;607;1449489903;2.2760491371200002;0.8877527713779999;0.0695738196373;3;True;28;1;77.96693459525969
