;Unnamed: 0;header_stamp_secs;pose_position_x;pose_position_y;pose_position_z;seconds;drop_values;flight_number;label;dtw
0;0;1449490388;2.1315660476700002;0.7986809611319999;0.0684983730316;0;True;31;1;79.73714540526426
1;1;1449490388;2.13166427612;0.7987068891529999;0.0684892609715;0;True;31;1;79.73714540526426
2;2;1449490388;2.1315009594;0.7984756827349999;0.0685311332345;0;True;31;1;79.73714540526426
3;3;1449490388;2.13158726692;0.798564732075;0.0685191228986;0;True;31;1;79.73714540526426
4;4;1449490388;2.13168334961;0.798650622368;0.0685102194548;0;True;31;1;79.73714540526426
5;5;1449490388;2.13164305687;0.7986965179440001;0.0684840530157;0;True;31;1;79.73714540526426
6;6;1449490388;2.13152599335;0.798506200314;0.06855066865680001;0;True;31;1;79.73714540526426
7;7;1449490388;2.1315677165999998;0.798561692238;0.0685509890318;0;True;31;1;79.73714540526426
8;8;1449490388;2.13158845901;0.798562884331;0.0684979707003;0;True;31;1;79.73714540526426
9;9;1449490388;2.13165926933;0.7987983822820001;0.0684321671724;0;True;31;1;79.73714540526426
10;10;1449490388;2.13165926933;0.798714637756;0.0684856623411;0;True;31;1;79.73714540526426
11;11;1449490388;2.13156843185;0.798634231091;0.0685471147299;0;True;31;1;79.73714540526426
12;12;1449490388;2.13163590431;0.798640429974;0.0684352889657;0;True;31;1;79.73714540526426
13;13;1449490388;2.13162612915;0.798576414585;0.0684492886066;0;True;31;1;79.73714540526426
14;14;1449490388;2.13155078888;0.7986278533939999;0.06847573071719999;0;True;31;1;79.73714540526426
15;15;1449490388;2.1317019462599998;0.798710405827;0.0683729276061;0;True;31;1;79.73714540526426
16;16;1449490388;2.1316177845;0.798694849014;0.0684885829687;0;True;31;1;79.73714540526426
17;17;1449490388;2.13161492348;0.798624694347;0.0684561803937;0;True;31;1;79.73714540526426
18;18;1449490388;2.13156032562;0.7985713481899999;0.0685214400291;0;True;31;1;79.73714540526426
19;19;1449490388;2.13161635399;0.7986788153650001;0.0684866309166;0;True;31;1;79.73714540526426
20;20;1449490388;2.13159918785;0.7986100316050001;0.0684722363949;0;True;31;1;79.73714540526426
21;21;1449490388;2.13156580925;0.798479139805;0.0684080272913;0;True;31;1;79.73714540526426
22;22;1449490388;2.13156676292;0.798681914806;0.06849174201489999;0;True;31;1;79.73714540526426
23;23;1449490388;2.13156270981;0.798571825027;0.06855686008930001;0;True;31;1;79.73714540526426
24;24;1449490388;2.13154935837;0.7986320257189999;0.0685443505645;0;True;31;1;79.73714540526426
25;25;1449490388;2.1315631866499998;0.798572957516;0.06851478666069999;0;True;31;1;79.73714540526426
26;26;1449490388;2.13156175613;0.798554182053;0.0684412792325;0;True;31;1;79.73714540526426
27;27;1449490388;2.13162398338;0.798596978188;0.0684943720698;0;True;31;1;79.73714540526426
28;28;1449490388;2.13160300255;0.798724889755;0.0684379637241;0;True;31;1;79.73714540526426
29;29;1449490388;2.131554842;0.7985693812369999;0.0685249939561;0;True;31;1;79.73714540526426
30;30;1449490388;2.13165068626;0.7986891865729999;0.068414837122;0;True;31;1;79.73714540526426
31;31;1449490388;2.13159894943;0.7985507249830001;0.0685041099787;0;True;31;1;79.73714540526426
32;32;1449490388;2.13155245781;0.798665583134;0.0684480294585;0;True;31;1;79.73714540526426
33;33;1449490388;2.1316413879400002;0.798705875874;0.0683916285634;0;True;31;1;79.73714540526426
34;34;1449490388;2.13161802292;0.798777282238;0.06841704994440001;0;True;31;1;79.73714540526426
35;35;1449490388;2.13159441948;0.798654735088;0.0684048607945;0;True;31;1;79.73714540526426
36;36;1449490388;2.13156914711;0.798457443714;0.0684354230762;0;True;31;1;79.73714540526426
37;37;1449490388;2.13151884079;0.798426687717;0.0685008466244;0;True;31;1;79.73714540526426
38;38;1449490388;2.13148403168;0.7984798550609999;0.068526647985;0;True;31;1;79.73714540526426
39;39;1449490388;2.13163423538;0.798767089844;0.0684330835938;0;True;31;1;79.73714540526426
40;40;1449490388;2.13156270981;0.798738777637;0.0684522390366;0;True;31;1;79.73714540526426
41;41;1449490388;2.13159132004;0.798601031303;0.0684230700135;0;True;31;1;79.73714540526426
42;42;1449490388;2.13157510757;0.798634827137;0.06846380233760001;0;True;31;1;79.73714540526426
43;43;1449490388;2.13155698776;0.798757255077;0.0684685558081;0;True;31;1;79.73714540526426
44;44;1449490388;2.13153815269;0.798480808735;0.06838619709009999;0;True;31;1;79.73714540526426
45;45;1449490388;2.13162279129;0.79865193367;0.06847036629919999;0;True;31;1;79.73714540526426
46;46;1449490388;2.1316173076599996;0.798600494862;0.0683584287763;0;True;31;1;79.73714540526426
47;47;1449490388;2.13159155846;0.798618078232;0.0684262141585;0;True;31;1;79.73714540526426
48;48;1449490388;2.13154029846;0.798409163952;0.0684894025326;0;True;31;1;79.73714540526426
49;49;1449490388;2.1315622329700004;0.798601925373;0.0684512332082;0;True;31;1;79.73714540526426
50;50;1449490388;2.13154911995;0.798453986645;0.0684805363417;0;True;31;1;79.73714540526426
51;51;1449490388;2.13164806366;0.7986854910850001;0.0683363899589;0;True;31;1;79.73714540526426
52;52;1449490388;2.13153672218;0.798565089703;0.0684945359826;0;True;31;1;79.73714540526426
53;53;1449490388;2.13162708282;0.798834264278;0.0683999061584;0;True;31;1;79.73714540526426
54;54;1449490388;2.1316192150099997;0.79861921072;0.0683659389615;0;True;31;1;79.73714540526426
55;55;1449490388;2.1315577030200004;0.7986052632330001;0.0684604495764;0;True;31;1;79.73714540526426
56;56;1449490388;2.13153076172;0.7985721230509999;0.06849646568300001;0;True;31;1;79.73714540526426
57;57;1449490388;2.13153362274;0.798574268818;0.06851512193680001;0;True;31;1;79.73714540526426
58;58;1449490388;2.1315710544599997;0.798508763313;0.0683690905571;0;True;31;1;79.73714540526426
59;59;1449490388;2.13154435158;0.798544049263;0.0684987306595;0;True;31;1;79.73714540526426
60;60;1449490388;2.13163208961;0.798695743084;0.0684352889657;0;True;31;1;79.73714540526426
61;61;1449490388;2.13162088394;0.798642337322;0.0683605223894;0;True;31;1;79.73714540526426
62;62;1449490388;2.1316027641299997;0.798619508743;0.06840061396359999;0;True;31;1;79.73714540526426
63;63;1449490388;2.1315650939900004;0.798649728298;0.0685044229031;0;True;31;1;79.73714540526426
64;64;1449490388;2.1316034793900003;0.798588812351;0.068391405046;0;True;31;1;79.73714540526426
65;65;1449490388;2.13157868385;0.798500299454;0.0684449225664;0;True;31;1;79.73714540526426
66;66;1449490388;2.13163471222;0.798600673676;0.0684644654393;0;True;31;1;79.73714540526426
67;67;1449490388;2.13155388832;0.798465669155;0.0683951228857;0;True;31;1;79.73714540526426
68;68;1449490388;2.1315710544599997;0.7985678315160001;0.06846396625040001;0;True;31;1;79.73714540526426
69;69;1449490388;2.13149166107;0.798369646072;0.0684937015176;0;True;31;1;79.73714540526426
70;70;1449490388;2.13165473938;0.798661410809;0.06843941658739999;0;True;31;1;79.73714540526426
71;71;1449490388;2.13149166107;0.7984911799429999;0.06847570836540001;0;True;31;1;79.73714540526426
72;72;1449490388;2.13163566589;0.798625171185;0.0683996230364;0;True;31;1;79.73714540526426
73;73;1449490388;2.1317110061599998;0.7987943887710001;0.0684088841081;0;True;31;1;79.73714540526426
74;74;1449490388;2.13161420822;0.798741400242;0.0684162154794;0;True;31;1;79.73714540526426
75;75;1449490388;2.13156962395;0.798528969288;0.06847940385340001;0;True;31;1;79.73714540526426
76;76;1449490388;2.13155150414;0.7984340190889999;0.0684636086226;0;True;31;1;79.73714540526426
77;77;1449490388;2.1315660476700002;0.7985594272609999;0.0685371980071;0;True;31;1;79.73714540526426
78;78;1449490388;2.13157320023;0.798612713814;0.0684439614415;0;True;31;1;79.73714540526426
79;79;1449490388;2.13155555725;0.798561275005;0.06853970140219999;0;True;31;1;79.73714540526426
80;80;1449490388;2.13156700134;0.798570513725;0.06849651783699999;0;True;31;1;79.73714540526426
81;81;1449490388;2.13164329529;0.7986211180689999;0.0683699846268;0;True;31;1;79.73714540526426
82;82;1449490388;2.13159370422;0.798515856266;0.06850647181269999;0;True;31;1;79.73714540526426
83;83;1449490388;2.13153409958;0.7984936833380001;0.0684763938189;0;True;31;1;79.73714540526426
84;84;1449490388;2.13156938553;0.798567354679;0.068550541997;0;True;31;1;79.73714540526426
85;85;1449490388;2.13167047501;0.798696815968;0.0684604495764;0;True;31;1;79.73714540526426
86;86;1449490388;2.1314060688;0.798332929611;0.0685893371701;0;True;31;1;79.73714540526426
87;87;1449490388;2.13158869743;0.798579752445;0.0684725344181;0;True;31;1;79.73714540526426
88;88;1449490388;2.1315710544599997;0.798557162285;0.06850699335339999;0;True;31;1;79.73714540526426
89;89;1449490388;2.13162469864;0.798596143723;0.0684247910976;0;True;31;1;79.73714540526426
90;90;1449490388;2.1316673755599997;0.798680663109;0.0683461502194;0;True;31;1;79.73714540526426
91;91;1449490388;2.1315202713;0.798503875732;0.06852953881030001;0;True;31;1;79.73714540526426
92;92;1449490388;2.1315639019;0.798703432083;0.0684775486588;0;True;31;1;79.73714540526426
93;93;1449490388;2.13163757324;0.798585295677;0.0684457793832;0;True;31;1;79.73714540526426
94;94;1449490388;2.1316537857099997;0.7987828254699999;0.0684330463409;0;True;31;1;79.73714540526426
95;95;1449490388;2.13166832924;0.798645615578;0.0683670267463;0;True;31;1;79.73714540526426
96;96;1449490388;2.1316628456099997;0.798702478409;0.06847351789469999;0;True;31;1;79.73714540526426
97;97;1449490388;2.1316370964099995;0.7987143993379999;0.0684561878443;0;True;31;1;79.73714540526426
98;98;1449490388;2.1316895484900003;0.7986794114110001;0.0684118941426;0;True;31;1;79.73714540526426
99;99;1449490388;2.1315784454299997;0.798458814621;0.0684948191047;0;True;31;1;79.73714540526426
100;100;1449490388;2.1316516399400003;0.798682391644;0.0685016661882;0;True;31;1;79.73714540526426
101;101;1449490388;2.13158273697;0.7985652685169999;0.0685323774815;0;True;31;1;79.73714540526426
102;102;1449490388;2.13157272339;0.798563122749;0.0685686916113;0;True;31;1;79.73714540526426
103;103;1449490388;2.13163161278;0.798610627651;0.0684983581305;0;True;31;1;79.73714540526426
104;104;1449490388;2.1314883232099997;0.798438489437;0.0685994029045;0;True;31;1;79.73714540526426
105;105;1449490388;2.1316800117500003;0.798779129982;0.0684458762407;0;True;31;1;79.73714540526426
106;106;1449490388;2.1316471099900003;0.798623800278;0.068521246314;0;True;31;1;79.73714540526426
107;107;1449490388;2.13157224655;0.798656046391;0.0685403198004;0;True;31;1;79.73714540526426
108;108;1449490388;2.13155698776;0.7985162734990001;0.06857138127090001;0;True;31;1;79.73714540526426
109;109;1449490388;2.13165688515;0.798728406429;0.0684615373611;0;True;31;1;79.73714540526426
110;110;1449490388;2.1316947937;0.798712670803;0.06839610636230001;0;True;31;1;79.73714540526426
111;111;1449490388;2.1316587925;0.7987164855;0.0684665888548;0;True;31;1;79.73714540526426
112;112;1449490388;2.13153290749;0.798561573029;0.0685499683022;0;True;31;1;79.73714540526426
113;113;1449490388;2.13163518906;0.7986178398129999;0.06846608966590001;0;True;31;1;79.73714540526426
114;114;1449490388;2.13164687157;0.798598945141;0.0684724375606;0;True;31;1;79.73714540526426
115;115;1449490388;2.13167405128;0.798643410206;0.06853155791759999;0;True;31;1;79.73714540526426
116;116;1449490388;2.13166046143;0.798683583736;0.06850942969320001;0;True;31;1;79.73714540526426
117;117;1449490388;2.13151311874;0.798499405384;0.0685270950198;0;True;31;1;79.73714540526426
118;118;1449490388;2.1316113472;0.798633813858;0.0685244202614;0;True;31;1;79.73714540526426
119;119;1449490388;2.13149571419;0.798536658287;0.0686470270157;0;True;31;1;79.73714540526426
120;120;1449490388;2.13159108162;0.7985599040989999;0.0685254111886;0;True;31;1;79.73714540526426
121;121;1449490388;2.1315896511099997;0.798647940159;0.0685243308544;0;True;31;1;79.73714540526426
122;122;1449490388;2.1316184997599996;0.7986425757410001;0.06853713095189999;0;True;31;1;79.73714540526426
123;123;1449490388;2.13167977333;0.798765659332;0.0684643909335;0;True;31;1;79.73714540526426
124;124;1449490388;2.1315999031099997;0.798671841621;0.0684921368957;0;True;31;1;79.73714540526426
125;125;1449490388;2.1315805912;0.79858237505;0.06855016201729999;0;True;31;1;79.73714540526426
126;126;1449490388;2.13164067268;0.798685312271;0.0684921368957;0;True;31;1;79.73714540526426
127;127;1449490388;2.13155150414;0.798557400703;0.06853696703909999;0;True;31;1;79.73714540526426
128;128;1449490388;2.13166975975;0.798774540424;0.068452693522;0;True;31;1;79.73714540526426
129;129;1449490388;2.13162755966;0.798621594906;0.0684663876891;0;True;31;1;79.73714540526426
130;130;1449490388;2.13161945343;0.798612594604;0.06848979741330001;0;True;31;1;79.73714540526426
131;131;1449490388;2.13150429726;0.7984862923620001;0.06856562942269999;0;True;31;1;79.73714540526426
132;132;1449490388;2.13161206245;0.7986901998520001;0.0684943497181;0;True;31;1;79.73714540526426
133;133;1449490388;2.1315939426400003;0.7984985113140001;0.0684869885445;0;True;31;1;79.73714540526426
134;134;1449490388;2.1315934658099995;0.798664033413;0.0684618651867;0;True;31;1;79.73714540526426
135;135;1449490388;2.1316220760299998;0.798554360867;0.0684954971075;0;True;31;1;79.73714540526426
136;136;1449490388;2.1314399242400004;0.7984013557430001;0.06857841461900001;0;True;31;1;79.73714540526426
137;137;1449490388;2.13165521622;0.798736870289;0.0684342831373;0;True;31;1;79.73714540526426
138;138;1449490388;2.1314935684200003;0.798461019993;0.0685428529978;0;True;31;1;79.73714540526426
139;139;1449490388;2.13140916824;0.798360168934;0.0685807019472;0;True;31;1;79.73714540526426
140;140;1449490388;2.13144207001;0.798399806023;0.0685793012381;0;True;31;1;79.73714540526426
141;141;1449490388;2.1315636634799997;0.798621952534;0.0684766918421;0;True;31;1;79.73714540526426
142;142;1449490388;2.13152813911;0.798452794552;0.06851565837859999;0;True;31;1;79.73714540526426
143;143;1449490388;2.13155531883;0.7985737323759999;0.0685055628419;0;True;31;1;79.73714540526426
144;144;1449490388;2.13161444664;0.79861497879;0.0684511959553;0;True;31;1;79.73714540526426
145;145;1449490388;2.13164162636;0.798617780209;0.0684807673097;0;True;31;1;79.73714540526426
146;146;1449490388;2.1314539909400003;0.798471927643;0.068608827889;0;True;31;1;79.73714540526426
147;147;1449490388;2.1316413879400002;0.798812448978;0.06841773539780001;0;True;31;1;79.73714540526426
148;148;1449490388;2.1314394474;0.7983909249310001;0.0685420557857;0;True;31;1;79.73714540526426
149;149;1449490388;2.13160657883;0.798766851425;0.0684500932693;0;True;31;1;79.73714540526426
150;150;1449490388;2.13146686554;0.798452615738;0.0685260370374;0;True;31;1;79.73714540526426
151;151;1449490388;2.13159704208;0.798541545868;0.0684067904949;0;True;31;1;79.73714540526426
152;152;1449490388;2.13155722618;0.798569262028;0.0684945359826;0;True;31;1;79.73714540526426
153;153;1449490388;2.13148283958;0.798497736454;0.0685115084052;0;True;31;1;79.73714540526426
154;154;1449490388;2.1315240859999998;0.79849922657;0.0684620812535;0;True;31;1;79.73714540526426
155;155;1449490388;2.13154387474;0.798697590828;0.0684434175491;0;True;31;1;79.73714540526426
156;156;1449490388;2.13164305687;0.7987654209139999;0.0683535560966;0;True;31;1;79.73714540526426
157;157;1449490388;2.13153338432;0.7984816431999999;0.0684691146016;0;True;31;1;79.73714540526426
158;158;1449490388;2.13160610199;0.798671483994;0.06844583153719999;0;True;31;1;79.73714540526426
159;159;1449490388;2.13139367104;0.79834741354;0.0685509368777;0;True;31;1;79.73714540526426
160;160;1449490388;2.1315908432;0.7986068129539999;0.06838944554330001;0;True;31;1;79.73714540526426
161;161;1449490388;2.13151693344;0.798470914364;0.0684681385756;0;True;31;1;79.73714540526426
162;162;1449490388;2.1315946579;0.7986161708830001;0.0684207975864;0;True;31;1;79.73714540526426
163;163;1449490388;2.13148212433;0.798392951488;0.06847950071100001;0;True;31;1;79.73714540526426
164;164;1449490388;2.1315896511099997;0.798611283302;0.068452514708;0;True;31;1;79.73714540526426
165;165;1449490388;2.13159680367;0.798536717892;0.0683392435312;0;True;31;1;79.73714540526426
166;166;1449490388;2.13155651093;0.7984590530399999;0.0684728249907;0;True;31;1;79.73714540526426
167;167;1449490388;2.1315376758599998;0.7986999154090001;0.0684446841478;0;True;31;1;79.73714540526426
168;168;1449490388;2.1314482688900003;0.7984800934790001;0.0684728845954;0;True;31;1;79.73714540526426
169;169;1449490388;2.13164663315;0.7986189723010001;0.0684721320868;0;True;31;1;79.73714540526426
170;170;1449490388;2.1315364837599997;0.798567593098;0.068505205214;0;True;31;1;79.73714540526426
171;171;1449490388;2.1315386295299996;0.798559606075;0.0685266703367;0;True;31;1;79.73714540526426
172;172;1449490388;2.13156747818;0.7986670732500001;0.06840918958190001;0;True;31;1;79.73714540526426
173;173;1449490388;2.13142037392;0.7983911633490001;0.068526275456;0;True;31;1;79.73714540526426
174;174;1449490388;2.13155388832;0.798661768436;0.0684088468552;0;True;31;1;79.73714540526426
175;175;1449490388;2.13161826134;0.7985988259319999;0.0684691369534;0;True;31;1;79.73714540526426
176;176;1449490388;2.13155722618;0.798576295376;0.068468824029;0;True;31;1;79.73714540526426
177;177;1449490388;2.13164281845;0.798812627792;0.0684107840061;0;True;31;1;79.73714540526426
178;178;1449490388;2.13155269623;0.798675000668;0.0684280619025;0;True;31;1;79.73714540526426
179;179;1449490388;2.13147735596;0.798510015011;0.0685123875737;0;True;31;1;79.73714540526426
180;180;1449490388;2.13149428368;0.798485219479;0.0685079097748;0;True;31;1;79.73714540526426
181;181;1449490388;2.13157773018;0.7986147403720001;0.0684682205319;0;True;31;1;79.73714540526426
182;182;1449490388;2.13157892227;0.79869812727;0.0685106664896;0;True;31;1;79.73714540526426
183;183;1449490388;2.13158202171;0.798644304276;0.068443864584;0;True;31;1;79.73714540526426
184;184;1449490388;2.13160681725;0.798640310764;0.0684395954013;0;True;31;1;79.73714540526426
185;185;1449490388;2.13149499893;0.7985603213310001;0.0685088187456;0;True;31;1;79.73714540526426
186;186;1449490388;2.1315240859999998;0.798589706421;0.0684713572264;0;True;31;1;79.73714540526426
187;187;1449490388;2.1315200328799997;0.7984910011290001;0.0684992820024;0;True;31;1;79.73714540526426
188;188;1449490388;2.1316101551099997;0.7986103296279999;0.068427503109;0;True;31;1;79.73714540526426
189;189;1449490388;2.1315896511099997;0.79873239994;0.0685307234526;0;True;31;1;79.73714540526426
190;190;1449490388;2.13146686554;0.7983675003049999;0.06853054463859999;0;True;31;1;79.73714540526426
191;191;1449490388;2.13156914711;0.798582196236;0.0684646815062;0;True;31;1;79.73714540526426
192;192;1449490388;2.13154196739;0.798514664173;0.0684934183955;0;True;31;1;79.73714540526426
193;193;1449490388;2.13154816628;0.7985796928409999;0.0685009583831;0;True;31;1;79.73714540526426
194;194;1449490388;2.1315574646;0.798669099808;0.0685810595751;0;True;31;1;79.73714540526426
195;195;1449490388;2.13155579567;0.798681020737;0.0685605332255;0;True;31;1;79.73714540526426
196;196;1449490388;2.13159298897;0.798622012138;0.0684879124165;0;True;31;1;79.73714540526426
197;197;1449490388;2.13156747818;0.7986835241320001;0.06857288628819999;0;True;31;1;79.73714540526426
198;198;1449490388;2.13152480125;0.7985026836399999;0.06851506233219999;0;True;31;1;79.73714540526426
199;199;1449490388;2.1315577030200004;0.7986238598819999;0.068497210741;0;True;31;1;79.73714540526426
200;200;1449490388;2.13159537315;0.7985944747920001;0.06851541250939999;0;True;31;1;79.73714540526426
201;201;1449490389;2.1315422058099998;0.798503816128;0.0684948936105;1;True;31;1;79.73714540526426
202;202;1449490389;2.1316049099;0.798648059368;0.0685024186969;1;True;31;1;79.73714540526426
203;203;1449490389;2.13147139549;0.7984837889669999;0.0685626044869;1;True;31;1;79.73714540526426
204;204;1449490389;2.13162517548;0.798612594604;0.06845558434719999;1;True;31;1;79.73714540526426
205;205;1449490389;2.13152933121;0.798546373844;0.0685189142823;1;True;31;1;79.73714540526426
206;206;1449490389;2.1315543651599995;0.7986523509029999;0.0685605853796;1;True;31;1;79.73714540526426
207;207;1449490389;2.13155603409;0.798634290695;0.068517036736;1;True;31;1;79.73714540526426
208;208;1449490389;2.13157200813;0.798654913902;0.068577311933;1;True;31;1;79.73714540526426
209;209;1449490389;2.13161826134;0.798715054989;0.0684843659401;1;True;31;1;79.73714540526426
210;210;1449490389;2.1315009594;0.798557400703;0.0685160979629;1;True;31;1;79.73714540526426
211;211;1449490389;2.13149619102;0.798545897007;0.0685363486409;1;True;31;1;79.73714540526426
212;212;1449490389;2.13163113594;0.798613250256;0.06844869256019999;1;True;31;1;79.73714540526426
213;213;1449490389;2.13157749176;0.798595368862;0.06851302087309999;1;True;31;1;79.73714540526426
214;214;1449490389;2.13162779808;0.798498928547;0.0684975683689;1;True;31;1;79.73714540526426
215;215;1449490389;2.13170385361;0.7988112568860001;0.06848189234730001;1;True;31;1;79.73714540526426
216;216;1449490389;2.13166832924;0.7987728118899999;0.0684601515532;1;True;31;1;79.73714540526426
217;217;1449490389;2.13159918785;0.7985783219339999;0.0685073137283;1;True;31;1;79.73714540526426
218;218;1449490389;2.13164305687;0.798636376858;0.0683753415942;1;True;31;1;79.73714540526426
219;219;1449490389;2.13162755966;0.798671364784;0.06848150491709999;1;True;31;1;79.73714540526426
220;220;1449490389;2.13155150414;0.7985361814499999;0.0684971511364;1;True;31;1;79.73714540526426
221;221;1449490389;2.13157224655;0.7985393404960001;0.0685519576073;1;True;31;1;79.73714540526426
222;222;1449490389;2.1316158771500002;0.798578619957;0.0685271546245;1;True;31;1;79.73714540526426
223;223;1449490389;2.13162636757;0.798699855804;0.0684900134802;1;True;31;1;79.73714540526426
224;224;1449490389;2.13152837753;0.7985448241230001;0.0685258284211;1;True;31;1;79.73714540526426
225;225;1449490389;2.1316151619;0.79855209589;0.0684085860848;1;True;31;1;79.73714540526426
226;226;1449490389;2.1315312385599996;0.798528730869;0.06850803643469999;1;True;31;1;79.73714540526426
227;227;1449490389;2.13162064552;0.798541665077;0.0684365779161;1;True;31;1;79.73714540526426
228;228;1449490389;2.13161563873;0.7984817624089999;0.06842376291749999;1;True;31;1;79.73714540526426
229;229;1449490389;2.1315343380000003;0.7984020113950001;0.0685270279646;1;True;31;1;79.73714540526426
230;230;1449490389;2.13164329529;0.798591971397;0.0684086382389;1;True;31;1;79.73714540526426
231;231;1449490389;2.1314444541900004;0.798403203487;0.06858121603730001;1;True;31;1;79.73714540526426
232;232;1449490389;2.13153600693;0.798556149006;0.06851381063459999;1;True;31;1;79.73714540526426
233;233;1449490389;2.13162875175;0.798608601093;0.0684665516019;1;True;31;1;79.73714540526426
234;234;1449490389;2.13150405884;0.7985416054729999;0.0685104653239;1;True;31;1;79.73714540526426
235;235;1449490389;2.13162708282;0.798690915108;0.0684763044119;1;True;31;1;79.73714540526426
236;236;1449490389;2.1316101551099997;0.798575878143;0.0684547871351;1;True;31;1;79.73714540526426
237;237;1449490389;2.13165044785;0.798604428768;0.0684565603733;1;True;31;1;79.73714540526426
238;238;1449490389;2.13153910637;0.798453092575;0.06850454211240001;1;True;31;1;79.73714540526426
239;239;1449490389;2.1315636634799997;0.7985519170759999;0.0685506463051;1;True;31;1;79.73714540526426
240;240;1449490389;2.13147521019;0.7984776496889999;0.06848110258580001;1;True;31;1;79.73714540526426
241;241;1449490389;2.1316075325;0.798570990562;0.0685113966465;1;True;31;1;79.73714540526426
242;242;1449490389;2.13152885437;0.798406660557;0.0685114040971;1;True;31;1;79.73714540526426
243;243;1449490389;2.13151526451;0.7984137535100001;0.0685179904103;1;True;31;1;79.73714540526426
244;244;1449490389;2.13159370422;0.798524856567;0.0684318840504;1;True;31;1;79.73714540526426
245;245;1449490389;2.13154816628;0.798474311829;0.0684912800789;1;True;31;1;79.73714540526426
246;246;1449490389;2.13148808479;0.798468112946;0.0685240030289;1;True;31;1;79.73714540526426
247;247;1449490389;2.13162183762;0.7986041307449999;0.06848368048669999;1;True;31;1;79.73714540526426
248;248;1449490389;2.13158655167;0.7985258698459999;0.0684146359563;1;True;31;1;79.73714540526426
249;249;1449490389;2.13143420219;0.7983876466750001;0.06856682151560001;1;True;31;1;79.73714540526426
250;250;1449490389;2.1314792633099997;0.798490941525;0.0685515552759;1;True;31;1;79.73714540526426
251;251;1449490389;2.13156747818;0.798602163792;0.0684991180897;1;True;31;1;79.73714540526426
252;252;1449490389;2.1314907074000002;0.7985205054279999;0.068526878953;1;True;31;1;79.73714540526426
253;253;1449490389;2.1315762996700003;0.79857558012;0.0684781596065;1;True;31;1;79.73714540526426
254;254;1449490389;2.13162469864;0.7986414432529999;0.06843113899230001;1;True;31;1;79.73714540526426
255;255;1449490389;2.13156819344;0.7985911369320001;0.0684859603643;1;True;31;1;79.73714540526426
256;256;1449490389;2.1316049099;0.798564612865;0.0684403404593;1;True;31;1;79.73714540526426
257;257;1449490389;2.13161683083;0.798694729805;0.0684685707092;1;True;31;1;79.73714540526426
258;258;1449490389;2.13164377213;0.798614084721;0.0684792026877;1;True;31;1;79.73714540526426
259;259;1449490389;2.13161063194;0.798608362675;0.0684307515621;1;True;31;1;79.73714540526426
260;260;1449490389;2.1316242218;0.7987204194069999;0.068459816277;1;True;31;1;79.73714540526426
261;261;1449490389;2.13160085678;0.798716008663;0.0684657841921;1;True;31;1;79.73714540526426
262;262;1449490389;2.1315941810599996;0.7986075282100001;0.0684724897146;1;True;31;1;79.73714540526426
263;263;1449490389;2.13162875175;0.798690021038;0.0684771537781;1;True;31;1;79.73714540526426
264;264;1449490389;2.1315503120400003;0.798667550087;0.06854338198900001;1;True;31;1;79.73714540526426
265;265;1449490389;2.13161206245;0.7987195253370001;0.0684594810009;1;True;31;1;79.73714540526426
266;266;1449490389;2.1315422058099998;0.798662006855;0.0685454234481;1;True;31;1;79.73714540526426
267;267;1449490389;2.13162088394;0.7986435294149999;0.06850106269119999;1;True;31;1;79.73714540526426
268;268;1449490389;2.1315622329700004;0.7986394166949999;0.0684864968061;1;True;31;1;79.73714540526426
269;269;1449490389;2.13160634041;0.798579871655;0.06840152293440001;1;True;31;1;79.73714540526426
270;270;1449490389;2.13148212433;0.7985348105429999;0.0685203224421;1;True;31;1;79.73714540526426
271;271;1449490389;2.13164687157;0.7988168597220001;0.06843206286430001;1;True;31;1;79.73714540526426
272;272;1449490389;2.13152480125;0.7985932827;0.068527624011;1;True;31;1;79.73714540526426
273;273;1449490389;2.13162231445;0.7986390590670001;0.0684279203415;1;True;31;1;79.73714540526426
274;274;1449490389;2.13150644302;0.798629999161;0.0684972852468;1;True;31;1;79.73714540526426
275;275;1449490389;2.1316220760299998;0.79874330759;0.0684553235769;1;True;31;1;79.73714540526426
276;276;1449490389;2.13160467148;0.798652768135;0.06849262118340001;1;True;31;1;79.73714540526426
277;277;1449490389;2.13155841827;0.7985904216769999;0.06850289553399999;1;True;31;1;79.73714540526426
278;278;1449490389;2.1315703392;0.7985591292380001;0.0684261396527;1;True;31;1;79.73714540526426
279;279;1449490389;2.1315114498099996;0.7985401153560001;0.0685048401356;1;True;31;1;79.73714540526426
280;280;1449490389;2.13149905205;0.798570454121;0.0684774294496;1;True;31;1;79.73714540526426
281;281;1449490389;2.1314718723299997;0.798505842686;0.0685283914208;1;True;31;1;79.73714540526426
282;282;1449490389;2.13156747818;0.7986162900920001;0.0684956759214;1;True;31;1;79.73714540526426
283;283;1449490389;2.1315987110099996;0.798633038998;0.0684613883495;1;True;31;1;79.73714540526426
284;284;1449490389;2.1315426826499997;0.79857057333;0.068484954536;1;True;31;1;79.73714540526426
285;285;1449490389;2.131513834;0.7984699606899999;0.0685199648142;1;True;31;1;79.73714540526426
286;286;1449490389;2.1316595077500002;0.7987910509110001;0.06843977421519999;1;True;31;1;79.73714540526426
287;287;1449490389;2.1316125392900003;0.798583328724;0.068411745131;1;True;31;1;79.73714540526426
288;288;1449490389;2.13149833679;0.7985121011730001;0.0684825703502;1;True;31;1;79.73714540526426
289;289;1449490389;2.13164401054;0.7986462712289999;0.0684904456139;1;True;31;1;79.73714540526426
290;290;1449490389;2.13162708282;0.798596858978;0.0684845075011;1;True;31;1;79.73714540526426
291;291;1449490389;2.13162255287;0.798633933067;0.0684480965137;1;True;31;1;79.73714540526426
292;292;1449490389;2.1316158771500002;0.798676609993;0.0684511438012;1;True;31;1;79.73714540526426
293;293;1449490389;2.13154435158;0.798646986485;0.06845352053640001;1;True;31;1;79.73714540526426
294;294;1449490389;2.1314120292700003;0.798367261887;0.0685772225261;1;True;31;1;79.73714540526426
295;295;1449490389;2.13155007362;0.798559069633;0.0684851482511;1;True;31;1;79.73714540526426
296;296;1449490389;2.13166928291;0.798807501793;0.0684233754873;1;True;31;1;79.73714540526426
297;297;1449490389;2.13150930405;0.798436522484;0.0684937909245;1;True;31;1;79.73714540526426
298;298;1449490389;2.1315598487900003;0.7986406683920001;0.0684660449624;1;True;31;1;79.73714540526426
299;299;1449490389;2.1316292285900005;0.798721849918;0.0684229433537;1;True;31;1;79.73714540526426
300;300;1449490389;2.13162231445;0.798703014851;0.0684496611357;1;True;31;1;79.73714540526426
301;301;1449490389;2.1315736770599996;0.7985993623729999;0.068468824029;1;True;31;1;79.73714540526426
302;302;1449490389;2.13162517548;0.798545241356;0.06839607656;1;True;31;1;79.73714540526426
303;303;1449490389;2.13155198097;0.798596382141;0.0684584677219;1;True;31;1;79.73714540526426
304;304;1449490389;2.1314992904700003;0.798488616943;0.0685238987207;1;True;31;1;79.73714540526426
305;305;1449490389;2.13150858879;0.798417210579;0.06851115822790001;1;True;31;1;79.73714540526426
306;306;1449490389;2.13162755966;0.7985715270039999;0.06842512637380001;1;True;31;1;79.73714540526426
307;307;1449490389;2.1315643787400003;0.79857558012;0.06847059726719999;1;True;31;1;79.73714540526426
308;308;1449490389;2.13157320023;0.798698842525;0.0684631988406;1;True;31;1;79.73714540526426
309;309;1449490389;2.13155674934;0.7985650300980001;0.06851657480000001;1;True;31;1;79.73714540526426
310;310;1449490389;2.13149142265;0.7984973788259999;0.0684848725796;1;True;31;1;79.73714540526426
311;311;1449490389;2.13146471977;0.79841786623;0.06856280565259999;1;True;31;1;79.73714540526426
312;312;1449490389;2.13156533241;0.798556149006;0.0685532465577;1;True;31;1;79.73714540526426
313;313;1449490389;2.13155603409;0.7984708547589999;0.0684832632542;1;True;31;1;79.73714540526426
314;314;1449490389;2.13162183762;0.798535645008;0.06848612427709999;1;True;31;1;79.73714540526426
315;315;1449490389;2.13162660599;0.7986027598379999;0.0684790089726;1;True;31;1;79.73714540526426
316;316;1449490389;2.1315762996700003;0.798567056656;0.0684778243303;1;True;31;1;79.73714540526426
317;317;1449490389;2.13148140907;0.798428416252;0.0685430988669;1;True;31;1;79.73714540526426
318;318;1449490389;2.13158512115;0.798721253872;0.0684771761298;1;True;31;1;79.73714540526426
319;319;1449490389;2.13149595261;0.798490464687;0.06852661818269999;1;True;31;1;79.73714540526426
320;320;1449490389;2.13163661957;0.798590481281;0.06842882186169999;1;True;31;1;79.73714540526426
321;321;1449490389;2.13167071342;0.798661589622;0.06841830164189999;1;True;31;1;79.73714540526426
322;322;1449490389;2.1315636634799997;0.798639893532;0.0684618353844;1;True;31;1;79.73714540526426
323;323;1449490389;2.1316010952;0.7985930442810001;0.0684459283948;1;True;31;1;79.73714540526426
324;324;1449490389;2.13164806366;0.7986661791799999;0.068411283195;1;True;31;1;79.73714540526426
325;325;1449490389;2.13148546219;0.798462927341;0.0685518532991;1;True;31;1;79.73714540526426
326;326;1449490389;2.13158464432;0.7985740303990001;0.0685334205627;1;True;31;1;79.73714540526426
327;327;1449490389;2.13167333603;0.798700928688;0.0684239566326;1;True;31;1;79.73714540526426
328;328;1449490389;2.13157725334;0.79860907793;0.0684479698539;1;True;31;1;79.73714540526426
329;329;1449490389;2.13164162636;0.798608422279;0.0684341415763;1;True;31;1;79.73714540526426
330;330;1449490389;2.13158869743;0.79856801033;0.06852865964169999;1;True;31;1;79.73714540526426
331;331;1449490389;2.1316113472;0.798588573933;0.0684752762318;1;True;31;1;79.73714540526426
332;332;1449490389;2.13158869743;0.798488080502;0.0684112384915;1;True;31;1;79.73714540526426
333;333;1449490389;2.1316628456099997;0.798598945141;0.0685050413013;1;True;31;1;79.73714540526426
334;334;1449490389;2.13157939911;0.798562288284;0.06857285648580001;1;True;31;1;79.73714540526426
335;335;1449490389;2.1315636634799997;0.798541367054;0.068570651114;1;True;31;1;79.73714540526426
336;336;1449490389;2.13164114952;0.798600196838;0.0684238001704;1;True;31;1;79.73714540526426
337;337;1449490389;2.13157510757;0.79854619503;0.0685288161039;1;True;31;1;79.73714540526426
338;338;1449490389;2.1316564083099996;0.798601686954;0.0685065314174;1;True;31;1;79.73714540526426
339;339;1449490389;2.13164424896;0.798602163792;0.0685110241175;1;True;31;1;79.73714540526426
340;340;1449490389;2.1316368579900002;0.7986462116240001;0.06851886212830001;1;True;31;1;79.73714540526426
341;341;1449490389;2.13163137436;0.7986795902249999;0.0685048699379;1;True;31;1;79.73714540526426
342;342;1449490389;2.13164615631;0.798629522324;0.0684290677309;1;True;31;1;79.73714540526426
343;343;1449490389;2.1316912174200002;0.798747181892;0.0684519633651;1;True;31;1;79.73714540526426
344;344;1449490389;2.1316339969599998;0.798652768135;0.0684738233685;1;True;31;1;79.73714540526426
345;345;1449490389;2.13150191307;0.798381388187;0.0685435533524;1;True;31;1;79.73714540526426
346;346;1449490389;2.13159656525;0.798776447773;0.068505614996;1;True;31;1;79.73714540526426
347;347;1449490389;2.13159608841;0.798770189285;0.0684953778982;1;True;31;1;79.73714540526426
348;348;1449490389;2.13163495064;0.798604547977;0.0684661567211;1;True;31;1;79.73714540526426
349;349;1449490389;2.13163018227;0.798593819141;0.0684641003609;1;True;31;1;79.73714540526426
350;350;1449490389;2.13168287277;0.7986828684810001;0.06843326985840001;1;True;31;1;79.73714540526426
351;351;1449490389;2.1315457820900003;0.798433601856;0.0685528516769;1;True;31;1;79.73714540526426
352;352;1449490389;2.13165307045;0.7987095117569999;0.0684536248446;1;True;31;1;79.73714540526426
353;353;1449490389;2.1316614151;0.798712253571;0.0684627592564;1;True;31;1;79.73714540526426
354;354;1449490389;2.13158988953;0.798519492149;0.0684699341655;1;True;31;1;79.73714540526426
355;355;1449490389;2.1315543651599995;0.798569858074;0.0685084164143;1;True;31;1;79.73714540526426
356;356;1449490389;2.1316623687700003;0.798803091049;0.0684309154749;1;True;31;1;79.73714540526426
357;357;1449490389;2.13156104088;0.798584699631;0.0685599893332;1;True;31;1;79.73714540526426
358;358;1449490389;2.13156843185;0.798638343811;0.0685057044029;1;True;31;1;79.73714540526426
359;359;1449490389;2.1316423416099997;0.7987121343610001;0.0684875622392;1;True;31;1;79.73714540526426
360;360;1449490389;2.13162231445;0.7985722422600001;0.0684628114104;1;True;31;1;79.73714540526426
361;361;1449490389;2.1316285133400004;0.7987189292910001;0.0684941411018;1;True;31;1;79.73714540526426
362;362;1449490389;2.13156175613;0.798494040966;0.0684849023819;1;True;31;1;79.73714540526426
363;363;1449490389;2.13167619705;0.798778355122;0.0684111863375;1;True;31;1;79.73714540526426
364;364;1449490389;2.13156700134;0.798669755459;0.0685575976968;1;True;31;1;79.73714540526426
365;365;1449490389;2.13162398338;0.798595547676;0.0684712156653;1;True;31;1;79.73714540526426
366;366;1449490389;2.1316010952;0.798634409904;0.0684418007731;1;True;31;1;79.73714540526426
367;367;1449490389;2.13156032562;0.79858070612;0.0685556456447;1;True;31;1;79.73714540526426
368;368;1449490389;2.1316576004;0.798803627491;0.0684442445636;1;True;31;1;79.73714540526426
369;369;1449490389;2.13156580925;0.798578560352;0.0685569792986;1;True;31;1;79.73714540526426
370;370;1449490389;2.13156056404;0.7986639738079999;0.0685601383448;1;True;31;1;79.73714540526426
371;371;1449490389;2.13162088394;0.798688173294;0.0684537440538;1;True;31;1;79.73714540526426
372;372;1449490389;2.1316213607799996;0.7985985875130001;0.0684991106391;1;True;31;1;79.73714540526426
373;373;1449490389;2.13152194023;0.79842710495;0.068509824574;1;True;31;1;79.73714540526426
374;374;1449490389;2.1315510273;0.7985822558399999;0.068571344018;1;True;31;1;79.73714540526426
375;375;1449490389;2.13145112991;0.7984639406199999;0.06856870651250001;1;True;31;1;79.73714540526426
376;376;1449490389;2.1315009594;0.7985489368440001;0.0685202628374;1;True;31;1;79.73714540526426
377;377;1449490389;2.13156104088;0.798607826233;0.0684911236167;1;True;31;1;79.73714540526426
378;378;1449490389;2.1315536499000003;0.798669040203;0.0684786364436;1;True;31;1;79.73714540526426
379;379;1449490389;2.13155579567;0.798533856869;0.0684758648276;1;True;31;1;79.73714540526426
380;380;1449490389;2.1315660476700002;0.798649013042;0.06847360730169999;1;True;31;1;79.73714540526426
381;381;1449490389;2.13163948059;0.7987923622130001;0.06841219961640001;1;True;31;1;79.73714540526426
382;382;1449490389;2.13161969185;0.798591673374;0.0684721767902;1;True;31;1;79.73714540526426
383;383;1449490389;2.13158893585;0.798644900322;0.0684608817101;1;True;31;1;79.73714540526426
384;384;1449490389;2.13162493706;0.7987773418430001;0.0684040635824;1;True;31;1;79.73714540526426
385;385;1449490389;2.13163042068;0.79864603281;0.0683554783463;1;True;31;1;79.73714540526426
386;386;1449490389;2.1315984726;0.7986147403720001;0.0684202238917;1;True;31;1;79.73714540526426
387;387;1449490389;2.13159227371;0.798602998257;0.068408049643;1;True;31;1;79.73714540526426
388;388;1449490389;2.1315836906400003;0.798603773117;0.06843554228540001;1;True;31;1;79.73714540526426
389;389;1449490389;2.1316766738900004;0.7987982630730001;0.0684751868248;1;True;31;1;79.73714540526426
390;390;1449490389;2.13145709038;0.7983612418170001;0.0684923827648;1;True;31;1;79.73714540526426
391;391;1449490389;2.1316330432900004;0.798613667488;0.0683651790023;1;True;31;1;79.73714540526426
392;392;1449490389;2.1316056251499997;0.798592329025;0.06845782697200001;1;True;31;1;79.73714540526426
393;393;1449490389;2.1315274238599997;0.798557579517;0.06851147860290001;1;True;31;1;79.73714540526426
394;394;1449490389;2.13148927689;0.7983877658840001;0.068492628634;1;True;31;1;79.73714540526426
395;395;1449490389;2.13152480125;0.7984862923620001;0.06846364587550001;1;True;31;1;79.73714540526426
396;396;1449490389;2.13152050972;0.798566579819;0.0684806108475;1;True;31;1;79.73714540526426
397;397;1449490389;2.13163018227;0.798704564571;0.06843286752700001;1;True;31;1;79.73714540526426
398;398;1449490389;2.13155412674;0.798619329929;0.0684008598328;1;True;31;1;79.73714540526426
399;399;1449490389;2.13163900375;0.798709630966;0.0684258416295;1;True;31;1;79.73714540526426
400;400;1449490389;2.1314496994;0.798462688923;0.0685182288289;1;True;31;1;79.73714540526426
401;401;1449490389;2.13152551651;0.798566281796;0.0684986636043;1;True;31;1;79.73714540526426
402;402;1449490389;2.13153958321;0.798566937447;0.0685122683644;1;True;31;1;79.73714540526426
403;403;1449490389;2.13154244423;0.798621952534;0.0684401094913;1;True;31;1;79.73714540526426
404;404;1449490389;2.13144230843;0.798436880112;0.0685330852866;1;True;31;1;79.73714540526426
405;405;1449490389;2.13159966469;0.7986903786660001;0.0684367790818;1;True;31;1;79.73714540526426
406;406;1449490389;2.13153672218;0.7985925078389999;0.0684663802385;1;True;31;1;79.73714540526426
407;407;1449490389;2.13153934479;0.798651397228;0.068517409265;1;True;31;1;79.73714540526426
408;408;1449490389;2.13151311874;0.798571646214;0.0684687867761;1;True;31;1;79.73714540526426
409;409;1449490389;2.1316220760299998;0.7986269593240001;0.0684693604708;1;True;31;1;79.73714540526426
410;410;1449490389;2.1315457820900003;0.798436462879;0.0684084221721;1;True;31;1;79.73714540526426
411;411;1449490389;2.13145661354;0.798461735249;0.06851784884930001;1;True;31;1;79.73714540526426
412;412;1449490389;2.13151979446;0.798560798168;0.06846915930509999;1;True;31;1;79.73714540526426
413;413;1449490389;2.1315014362299998;0.7984837889669999;0.0684775337577;1;True;31;1;79.73714540526426
414;414;1449490389;2.13157248497;0.798757374287;0.06844544410709999;1;True;31;1;79.73714540526426
415;415;1449490389;2.1316204071000002;0.798615753651;0.0684129968286;1;True;31;1;79.73714540526426
416;416;1449490389;2.13160204887;0.798596978188;0.06846492737530001;1;True;31;1;79.73714540526426
417;417;1449490389;2.13153004646;0.798508048058;0.06840711086989999;1;True;31;1;79.73714540526426
418;418;1449490389;2.13154864311;0.798667609692;0.0684582218528;1;True;31;1;79.73714540526426
419;419;1449490389;2.13164687157;0.798649191856;0.0684847310185;1;True;31;1;79.73714540526426
420;420;1449490389;2.1315426826499997;0.79864102602;0.0685214549303;1;True;31;1;79.73714540526426
421;421;1449490389;2.13155651093;0.798665344715;0.0684317275882;1;True;31;1;79.73714540526426
422;422;1449490389;2.13149738312;0.7985504865649999;0.0685092061758;1;True;31;1;79.73714540526426
423;423;1449490389;2.13152194023;0.7984205484389999;0.0685026571155;1;True;31;1;79.73714540526426
424;424;1449490389;2.1315464973400005;0.798569977283;0.0685638338327;1;True;31;1;79.73714540526426
425;425;1449490389;2.1315066814400003;0.7985576391220001;0.0685204416513;1;True;31;1;79.73714540526426
426;426;1449490389;2.13165974617;0.798826038837;0.06843387335540001;1;True;31;1;79.73714540526426
427;427;1449490389;2.13158106804;0.79858070612;0.0684030205011;1;True;31;1;79.73714540526426
428;428;1449490389;2.1314804553999998;0.798479735851;0.0685457363725;1;True;31;1;79.73714540526426
429;429;1449490389;2.1315779686000003;0.7985035777089999;0.0684183910489;1;True;31;1;79.73714540526426
430;430;1449490389;2.13154816628;0.798649430275;0.06847263872619999;1;True;31;1;79.73714540526426
431;431;1449490389;2.1316525936099997;0.7987972497939999;0.06842865794900001;1;True;31;1;79.73714540526426
432;432;1449490389;2.13162708282;0.798691928387;0.068478398025;1;True;31;1;79.73714540526426
433;433;1449490389;2.13160705566;0.798673212528;0.0684684365988;1;True;31;1;79.73714540526426
434;434;1449490389;2.13166618347;0.798662304878;0.06851483136419999;1;True;31;1;79.73714540526426
435;435;1449490389;2.1316914558400004;0.798825323582;0.0684664174914;1;True;31;1;79.73714540526426
436;436;1449490389;2.1315801143599997;0.79853785038;0.0684507712722;1;True;31;1;79.73714540526426
437;437;1449490389;2.1316051483200003;0.79860574007;0.0684816911817;1;True;31;1;79.73714540526426
438;438;1449490389;2.13153958321;0.798566281796;0.0685427933931;1;True;31;1;79.73714540526426
439;439;1449490389;2.1315853595700003;0.7986577749250001;0.0685627311468;1;True;31;1;79.73714540526426
440;440;1449490390;2.13164114952;0.79862678051;0.0684216916561;2;True;31;1;79.73714540526426
441;441;1449490390;2.13166546822;0.798643708229;0.0684081539512;2;True;31;1;79.73714540526426
442;442;1449490390;2.13164043427;0.798635482788;0.0685203075409;2;True;31;1;79.73714540526426
443;443;1449490390;2.1315977573400002;0.7986303567890001;0.0685070604086;2;True;31;1;79.73714540526426
444;444;1449490390;2.13158392906;0.79857635498;0.06853733211759999;2;True;31;1;79.73714540526426
445;445;1449490390;2.1316242218;0.7985737323759999;0.0684358924627;2;True;31;1;79.73714540526426
446;446;1449490390;2.13167619705;0.798663675785;0.0685203745961;2;True;31;1;79.73714540526426
447;447;1449490390;2.13161563873;0.798689544201;0.06849555671219999;2;True;31;1;79.73714540526426
448;448;1449490390;2.13157987595;0.798572003841;0.0685851052403;2;True;31;1;79.73714540526426
449;449;1449490390;2.13164258003;0.798696160316;0.0685005262494;2;True;31;1;79.73714540526426
450;450;1449490390;2.13162088394;0.798513412476;0.068404302001;2;True;31;1;79.73714540526426
451;451;1449490390;2.13159561157;0.798505544662;0.0685426592827;2;True;31;1;79.73714540526426
452;452;1449490390;2.13160824776;0.798577308655;0.06853299587969999;2;True;31;1;79.73714540526426
453;453;1449490390;2.13158154488;0.798653900623;0.06857012957330001;2;True;31;1;79.73714540526426
454;454;1449490390;2.13151979446;0.7985217571259999;0.068536773324;2;True;31;1;79.73714540526426
455;455;1449490390;2.1316373348199997;0.798611700535;0.0684669837356;2;True;31;1;79.73714540526426
456;456;1449490390;2.13170218468;0.7988251447679999;0.0684699937701;2;True;31;1;79.73714540526426
457;457;1449490390;2.13158845901;0.7985714077949999;0.06857655942440001;2;True;31;1;79.73714540526426
458;458;1449490390;2.13146924973;0.798306703568;0.0685598701239;2;True;31;1;79.73714540526426
459;459;1449490390;2.13167405128;0.7987183332439999;0.068451359868;2;True;31;1;79.73714540526426
460;460;1449490390;2.1316344738;0.798570930958;0.0684825852513;2;True;31;1;79.73714540526426
461;461;1449490390;2.1316695213299997;0.798770427704;0.06846393644809999;2;True;31;1;79.73714540526426
462;462;1449490390;2.13159966469;0.798654139042;0.0685696527362;2;True;31;1;79.73714540526426
463;463;1449490390;2.13160920143;0.798696637154;0.0684991106391;2;True;31;1;79.73714540526426
464;464;1449490390;2.13164615631;0.798542380333;0.068478628993;2;True;31;1;79.73714540526426
465;465;1449490390;2.13169503212;0.7986468672750001;0.0685201361775;2;True;31;1;79.73714540526426
466;466;1449490390;2.1316516399400003;0.798597514629;0.0684817954898;2;True;31;1;79.73714540526426
467;467;1449490390;2.13170218468;0.7987189292910001;0.0684964954853;2;True;31;1;79.73714540526426
468;468;1449490390;2.13156342506;0.798528015614;0.0686397626996;2;True;31;1;79.73714540526426
469;469;1449490390;2.13166928291;0.7985053062440001;0.06844259053469999;2;True;31;1;79.73714540526426
470;470;1449490390;2.1315126419099997;0.798446714878;0.06858941167589999;2;True;31;1;79.73714540526426
471;471;1449490390;2.13160085678;0.798577964306;0.06857689470049999;2;True;31;1;79.73714540526426
472;472;1449490390;2.1314444541900004;0.798399567604;0.068617939949;2;True;31;1;79.73714540526426
473;473;1449490390;2.1316423416099997;0.798589348793;0.06853791326280001;2;True;31;1;79.73714540526426
474;474;1449490390;2.13166594505;0.7985794544220001;0.0685233548284;2;True;31;1;79.73714540526426
475;475;1449490390;2.13165926933;0.798642218113;0.0684798806906;2;True;31;1;79.73714540526426
476;476;1449490390;2.13153529167;0.7984363436699999;0.0685254335403;2;True;31;1;79.73714540526426
477;477;1449490390;2.1316382885;0.798691213131;0.0684499293566;2;True;31;1;79.73714540526426
478;478;1449490390;2.13164615631;0.798689365387;0.0685696303844;2;True;31;1;79.73714540526426
479;479;1449490390;2.1316509246799997;0.798638939857;0.0684346482158;2;True;31;1;79.73714540526426
480;480;1449490390;2.13165211678;0.7985760569570001;0.0684846937656;2;True;31;1;79.73714540526426
481;481;1449490390;2.13158798218;0.798586010933;0.0684645548463;2;True;31;1;79.73714540526426
482;482;1449490390;2.1315643787400003;0.7985795140270001;0.06853026896719999;2;True;31;1;79.73714540526426
483;483;1449490390;2.1316561698900003;0.798698723316;0.0684705749154;2;True;31;1;79.73714540526426
484;484;1449490390;2.13146948814;0.7984749674799999;0.0685393661261;2;True;31;1;79.73714540526426
485;485;1449490390;2.13143086433;0.798407673836;0.0685807466507;2;True;31;1;79.73714540526426
486;486;1449490390;2.13158154488;0.7985047101970001;0.0684712380171;2;True;31;1;79.73714540526426
487;487;1449490390;2.1315550804099996;0.798577070236;0.06852268427609999;2;True;31;1;79.73714540526426
488;488;1449490390;2.1314771175400002;0.798481285572;0.0685358792543;2;True;31;1;79.73714540526426
489;489;1449490390;2.1314358711200003;0.7983619570730001;0.0685812756419;2;True;31;1;79.73714540526426
490;490;1449490390;2.13159656525;0.798710763454;0.0684668123722;2;True;31;1;79.73714540526426
491;491;1449490390;2.1316459178900002;0.798611938953;0.0684082433581;2;True;31;1;79.73714540526426
492;492;1449490390;2.13157296181;0.7985979318619999;0.0684602633119;2;True;31;1;79.73714540526426
493;493;1449490390;2.1315503120400003;0.7986713051800001;0.068437255919;2;True;31;1;79.73714540526426
494;494;1449490390;2.1315863132499997;0.7986310720440001;0.0684607923031;2;True;31;1;79.73714540526426
495;495;1449490390;2.13163423538;0.798741102219;0.0684300586581;2;True;31;1;79.73714540526426
496;496;1449490390;2.1314516067500002;0.798488616943;0.0684905573726;2;True;31;1;79.73714540526426
497;497;1449490390;2.1316332817099997;0.798739731312;0.06842596828940001;2;True;31;1;79.73714540526426
498;498;1449490390;2.13154387474;0.798666834831;0.06852465868;2;True;31;1;79.73714540526426
499;499;1449490390;2.1315972805000003;0.7986863851549999;0.0684586316347;2;True;31;1;79.73714540526426
500;500;1449490390;2.1316332817099997;0.798779726028;0.0684254094958;2;True;31;1;79.73714540526426
501;501;1449490390;2.13157010078;0.798602998257;0.0684520229697;2;True;31;1;79.73714540526426
502;502;1449490390;2.13163590431;0.798745572567;0.0684189423919;2;True;31;1;79.73714540526426
503;503;1449490390;2.1316037178;0.7986148595810001;0.06847524642939999;2;True;31;1;79.73714540526426
504;504;1449490390;2.13156986237;0.7985101938249999;0.0684875175357;2;True;31;1;79.73714540526426
505;505;1449490390;2.13157200813;0.79857635498;0.0684921219945;2;True;31;1;79.73714540526426
506;506;1449490390;2.13152837753;0.798579216003;0.06850361078980001;2;True;31;1;79.73714540526426
507;507;1449490390;2.13149142265;0.7985777258869999;0.0685666799545;2;True;31;1;79.73714540526426
508;508;1449490390;2.13146090508;0.7983753085140001;0.0685170516372;2;True;31;1;79.73714540526426
509;509;1449490390;2.13154602051;0.7986318469050001;0.0684511139989;2;True;31;1;79.73714540526426
510;510;1449490390;2.13152503967;0.798602283001;0.06856073439119999;2;True;31;1;79.73714540526426
511;511;1449490390;2.13163161278;0.798739731312;0.06844121217730001;2;True;31;1;79.73714540526426
512;512;1449490390;2.13159894943;0.798604846001;0.068476729095;2;True;31;1;79.73714540526426
513;513;1449490390;2.13156032562;0.798629045486;0.0684260055423;2;True;31;1;79.73714540526426
514;514;1449490390;2.13141179085;0.798404693604;0.06854555010800001;2;True;31;1;79.73714540526426
515;515;1449490390;2.1315844059;0.798591315746;0.0684223249555;2;True;31;1;79.73714540526426
516;516;1449490390;2.13158917427;0.798682332039;0.0684497505426;2;True;31;1;79.73714540526426
517;517;1449490390;2.13154482841;0.798565804958;0.0685137882829;2;True;31;1;79.73714540526426
518;518;1449490390;2.1314401626599997;0.798433482647;0.0685435608029;2;True;31;1;79.73714540526426
519;519;1449490390;2.13153290749;0.79864782095;0.0684249848127;2;True;31;1;79.73714540526426
520;520;1449490390;2.13162660599;0.798734426498;0.0684472471476;2;True;31;1;79.73714540526426
521;521;1449490390;2.13162326813;0.798788845539;0.0684024766088;2;True;31;1;79.73714540526426
522;522;1449490390;2.13159966469;0.798528373241;0.0683566182852;2;True;31;1;79.73714540526426
523;523;1449490390;2.1316125392900003;0.798644423485;0.06840975582600001;2;True;31;1;79.73714540526426
524;524;1449490390;2.13160538673;0.798654615879;0.0684155672789;2;True;31;1;79.73714540526426
525;525;1449490390;2.13160943985;0.79859817028;0.06846389174459999;2;True;31;1;79.73714540526426
526;526;1449490390;2.13154983521;0.7985685467720001;0.0684621036053;2;True;31;1;79.73714540526426
527;527;1449490390;2.13161182404;0.798607409;0.0684658288956;2;True;31;1;79.73714540526426
528;528;1449490390;2.13164043427;0.798679351807;0.06843186914919999;2;True;31;1;79.73714540526426
529;529;1449490390;2.1315298080400003;0.798603177071;0.06845140457150001;2;True;31;1;79.73714540526426
530;530;1449490390;2.13150334358;0.798564910889;0.0684511885047;2;True;31;1;79.73714540526426
531;531;1449490390;2.13159680367;0.798661589622;0.0684239417315;2;True;31;1;79.73714540526426
532;532;1449490390;2.13149166107;0.7984276413920001;0.0684959590435;2;True;31;1;79.73714540526426
533;533;1449490390;2.13160538673;0.798603355885;0.0684767961502;2;True;31;1;79.73714540526426
534;534;1449490390;2.13163971901;0.798756659031;0.06836011260750001;2;True;31;1;79.73714540526426
535;535;1449490390;2.1315195560499998;0.798619806767;0.06848679482940001;2;True;31;1;79.73714540526426
536;536;1449490390;2.13154983521;0.798559486866;0.0685288608074;2;True;31;1;79.73714540526426
537;537;1449490390;2.1314048767099996;0.798355638981;0.068586140871;2;True;31;1;79.73714540526426
538;538;1449490390;2.1315858364099998;0.79867964983;0.06847712397580001;2;True;31;1;79.73714540526426
539;539;1449490390;2.13156294823;0.798660933971;0.0684374645352;2;True;31;1;79.73714540526426
540;540;1449490390;2.1316418647799997;0.798737883568;0.0684368386865;2;True;31;1;79.73714540526426
541;541;1449490390;2.13159704208;0.798524200916;0.06840670853849999;2;True;31;1;79.73714540526426
542;542;1449490390;2.13142085075;0.7983701825139999;0.0685754716396;2;True;31;1;79.73714540526426
543;543;1449490390;2.13157510757;0.798653960228;0.0684466511011;2;True;31;1;79.73714540526426
544;544;1449490390;2.1316606998400003;0.798628032207;0.0685033872724;2;True;31;1;79.73714540526426
545;545;1449490390;2.13164281845;0.798626720905;0.0684781894088;2;True;31;1;79.73714540526426
546;546;1449490390;2.13160705566;0.79849344492;0.06837314367290001;2;True;31;1;79.73714540526426
547;547;1449490390;2.13163495064;0.798599123955;0.0684340596199;2;True;31;1;79.73714540526426
548;548;1449490390;2.13163471222;0.7986063361169999;0.06849812716249999;2;True;31;1;79.73714540526426
549;549;1449490390;2.13162183762;0.798612594604;0.0684657767415;2;True;31;1;79.73714540526426
550;550;1449490390;2.13155245781;0.798519730568;0.0684956461191;2;True;31;1;79.73714540526426
551;551;1449490390;2.13153362274;0.798453390598;0.0685174390674;2;True;31;1;79.73714540526426
552;552;1449490390;2.13161635399;0.7986099720000001;0.06846939772369999;2;True;31;1;79.73714540526426
553;553;1449490390;2.13163280487;0.79871326685;0.06848507374530001;2;True;31;1;79.73714540526426
554;554;1449490390;2.13160777092;0.798689424992;0.0684916898608;2;True;31;1;79.73714540526426
555;555;1449490390;2.1316409111000003;0.7986161708830001;0.0684505105019;2;True;31;1;79.73714540526426
556;556;1449490390;2.13161492348;0.798655450344;0.0685148239136;2;True;31;1;79.73714540526426
557;557;1449490390;2.13156342506;0.798561573029;0.0685722082853;2;True;31;1;79.73714540526426
558;558;1449490390;2.1316611766799998;0.7987802028659999;0.0684399604797;2;True;31;1;79.73714540526426
559;559;1449490390;2.13164687157;0.7987241745;0.0684892758727;2;True;31;1;79.73714540526426
560;560;1449490390;2.13149333;0.798442900181;0.068570740521;2;True;31;1;79.73714540526426
561;561;1449490390;2.13164544106;0.798615694046;0.06846926361320001;2;True;31;1;79.73714540526426
562;562;1449490390;2.1315279007;0.7985470890999999;0.06853643804790001;2;True;31;1;79.73714540526426
563;563;1449490390;2.1315689086900003;0.7986456751819999;0.0685090124607;2;True;31;1;79.73714540526426
564;564;1449490390;2.13169884682;0.7988109588619999;0.0684733241796;2;True;31;1;79.73714540526426
565;565;1449490390;2.13157439232;0.798576891422;0.0685659125447;2;True;31;1;79.73714540526426
566;566;1449490390;2.13160943985;0.7986794114110001;0.0684982091188;2;True;31;1;79.73714540526426
567;567;1449490390;2.13154101372;0.798525691032;0.0685306340456;2;True;31;1;79.73714540526426
568;568;1449490390;2.13163495064;0.798595547676;0.06845425069330001;2;True;31;1;79.73714540526426
569;569;1449490390;2.13157773018;0.7986420989040001;0.0685053989291;2;True;31;1;79.73714540526426
570;570;1449490390;2.13164997101;0.798671483994;0.0684941187501;2;True;31;1;79.73714540526426
571;571;1449490390;2.1315903663599998;0.798509180546;0.0684581026435;2;True;31;1;79.73714540526426
572;572;1449490390;2.13167071342;0.7986198663709999;0.0685369446874;2;True;31;1;79.73714540526426
573;573;1449490390;2.1316463947299997;0.7986392974850001;0.068524196744;2;True;31;1;79.73714540526426
574;574;1449490390;2.1316378116599997;0.798703849316;0.0685153156519;2;True;31;1;79.73714540526426
575;575;1449490390;2.1316051483200003;0.7986611723899999;0.0684860423207;2;True;31;1;79.73714540526426
576;576;1449490390;2.1316447258;0.7986369133;0.0684945136309;2;True;31;1;79.73714540526426
577;577;1449490390;2.13165974617;0.798628032207;0.06853844970459999;2;True;31;1;79.73714540526426
578;578;1449490390;2.1316087245900004;0.798509061337;0.06844508647919999;2;True;31;1;79.73714540526426
579;579;1449490390;2.13158845901;0.798694550991;0.0685269162059;2;True;31;1;79.73714540526426
580;580;1449490390;2.1315982341799997;0.7987765669820001;0.0684955343604;2;True;31;1;79.73714540526426
581;581;1449490390;2.13166975975;0.7986649870870001;0.0684123411775;2;True;31;1;79.73714540526426
582;582;1449490390;2.13157224655;0.7986679077150001;0.068567790091;2;True;31;1;79.73714540526426
583;583;1449490390;2.1316237449599997;0.798649907112;0.0685237199068;2;True;31;1;79.73714540526426
584;584;1449490390;2.1316344738;0.7985770106319999;0.0685395523906;2;True;31;1;79.73714540526426
585;585;1449490390;2.1315844059;0.7985918521879999;0.068526789546;2;True;31;1;79.73714540526426
586;586;1449490390;2.1315882206;0.798618674278;0.0685286745429;2;True;31;1;79.73714540526426
587;587;1449490390;2.13152432442;0.798541486263;0.0685341879725;2;True;31;1;79.73714540526426
588;588;1449490390;2.13161540031;0.798604786396;0.06849350035190001;2;True;31;1;79.73714540526426
589;589;1449490390;2.13161659241;0.798581898212;0.0684618353844;2;True;31;1;79.73714540526426
590;590;1449490390;2.1315577030200004;0.798544585705;0.0685518458486;2;True;31;1;79.73714540526426
591;591;1449490390;2.13160824776;0.798607409;0.06850441545250001;2;True;31;1;79.73714540526426
592;592;1449490390;2.13155579567;0.798506915569;0.0685189291835;2;True;31;1;79.73714540526426
593;593;1449490390;2.13150191307;0.7984904050830001;0.06853546947240001;2;True;31;1;79.73714540526426
594;594;1449490390;2.1315767765;0.7986068129539999;0.0685044229031;2;True;31;1;79.73714540526426
595;595;1449490390;2.1316037178;0.798563659191;0.06842859089369999;2;True;31;1;79.73714540526426
596;596;1449490390;2.13155603409;0.798571050167;0.0685794055462;2;True;31;1;79.73714540526426
597;597;1449490390;2.13159751892;0.798699557781;0.068499930203;2;True;31;1;79.73714540526426
598;598;1449490390;2.1316151619;0.7986871004100001;0.0684443563223;2;True;31;1;79.73714540526426
599;599;1449490390;2.1314215660099998;0.798293054104;0.0685390904546;2;True;31;1;79.73714540526426
600;600;1449490390;2.13166046143;0.7988876700399999;0.06842147558930001;2;True;31;1;79.73714540526426
601;601;1449490390;2.13155841827;0.798471927643;0.06845454126600001;2;True;31;1;79.73714540526426
602;602;1449490390;2.13151812553;0.798557281494;0.0685057267547;2;True;31;1;79.73714540526426
603;603;1449490390;2.1314702034;0.7984753847120001;0.068503446877;2;True;31;1;79.73714540526426
604;604;1449490390;2.1315762996700003;0.798655509949;0.0684403255582;2;True;31;1;79.73714540526426
605;605;1449490390;2.13144803047;0.798389256001;0.0685626864433;2;True;31;1;79.73714540526426
606;606;1449490390;2.1315510273;0.798643410206;0.0685210078955;2;True;31;1;79.73714540526426
607;607;1449490390;2.13154482841;0.7985653281209999;0.0685231462121;2;True;31;1;79.73714540526426
608;608;1449490390;2.13150858879;0.7985435724259999;0.06848643720150001;2;True;31;1;79.73714540526426
609;609;1449490390;2.13160824776;0.798613190651;0.0684101358056;2;True;31;1;79.73714540526426
610;610;1449490390;2.13163375854;0.798801481724;0.0684031024575;2;True;31;1;79.73714540526426
611;611;1449490390;2.13153982162;0.79863768816;0.0684203803539;2;True;31;1;79.73714540526426
