;Unnamed: 0;header_stamp_secs;pose_position_x;pose_position_y;pose_position_z;seconds;drop_values;flight_number;label;dtw
0;0;1449490713;2.1507530212400003;0.7895989418029999;0.0687576755881;0;True;33;1;77.6056113243105
1;1;1449490713;2.1510426998099996;0.7894476652150001;0.0688155591488;0;True;33;1;77.6056113243105
2;2;1449490713;2.15051913261;0.7896075844760001;0.0686802268028;0;True;33;1;77.6056113243105
3;3;1449490713;2.15089941025;0.789477646351;0.0687412545085;0;True;33;1;77.6056113243105
4;4;1449490713;2.15065932274;0.789423584938;0.06879918277260001;0;True;33;1;77.6056113243105
5;5;1449490713;2.15105938911;0.7896687984469999;0.06874932348730001;0;True;33;1;77.6056113243105
6;6;1449490713;2.1508295536;0.789368271828;0.0689538791776;0;True;33;1;77.6056113243105
7;7;1449490713;2.1510107517200003;0.789623737335;0.0687738284469;0;True;33;1;77.6056113243105
8;8;1449490713;2.15102577209;0.789616167545;0.0687533766031;0;True;33;1;77.6056113243105
9;9;1449490713;2.15092492104;0.789873957634;0.0687976852059;0;True;33;1;77.6056113243105
10;10;1449490713;2.1511425972;0.789458692074;0.0688157603145;0;True;33;1;77.6056113243105
11;11;1449490713;2.15110063553;0.789719939232;0.06876616925;0;True;33;1;77.6056113243105
12;12;1449490713;2.1511919498400003;0.7897469401360001;0.0687671601772;0;True;33;1;77.6056113243105
13;13;1449490713;2.15076398849;0.789563834667;0.068738900125;0;True;33;1;77.6056113243105
14;14;1449490713;2.15074849129;0.789526164532;0.0687782466412;0;True;33;1;77.6056113243105
15;15;1449490713;2.1509039402;0.789800822735;0.0687763020396;0;True;33;1;77.6056113243105
16;16;1449490713;2.1507866382599996;0.789753735065;0.0687638148665;0;True;33;1;77.6056113243105
17;17;1449490713;2.1507251262700002;0.7895851731300001;0.0687838569283;0;True;33;1;77.6056113243105
18;18;1449490713;2.15118646622;0.7897059321400001;0.0687902346253;0;True;33;1;77.6056113243105
19;19;1449490713;2.15065741539;0.789497077465;0.06876529008150001;0;True;33;1;77.6056113243105
20;20;1449490713;2.15106272697;0.789464533329;0.06894744187589999;0;True;33;1;77.6056113243105
21;21;1449490713;2.1504921913099997;0.7897794842720001;0.06866005808119999;0;True;33;1;77.6056113243105
22;22;1449490713;2.15085983276;0.7894638776780001;0.0687729418278;0;True;33;1;77.6056113243105
23;23;1449490713;2.15100216866;0.789622306824;0.0688183233142;0;True;33;1;77.6056113243105
24;24;1449490713;2.15090584755;0.789715945721;0.0687832608819;0;True;33;1;77.6056113243105
25;25;1449490713;2.1509313583400003;0.7895959615710001;0.0687559321523;0;True;33;1;77.6056113243105
26;26;1449490713;2.15111041069;0.789698123932;0.06879535317419999;0;True;33;1;77.6056113243105
27;27;1449490713;2.15115761757;0.789440631866;0.06882122159;0;True;33;1;77.6056113243105
28;28;1449490713;2.15124607086;0.789750993252;0.0687818601727;0;True;33;1;77.6056113243105
29;29;1449490713;2.15095973015;0.789663016796;0.06875020265580001;0;True;33;1;77.6056113243105
30;30;1449490713;2.1506953239400004;0.789533257484;0.06870193034409999;0;True;33;1;77.6056113243105
31;31;1449490713;2.1510515213;0.7896204590800001;0.068775638938;0;True;33;1;77.6056113243105
32;32;1449490713;2.1511051654799997;0.789679169655;0.06879241019489998;0;True;33;1;77.6056113243105
33;33;1449490713;2.1511168479900005;0.7897550463680001;0.06875991821289999;0;True;33;1;77.6056113243105
34;34;1449490713;2.1505405902900003;0.789576053619;0.0690992474556;0;True;33;1;77.6056113243105
35;35;1449490713;2.15097928047;0.7896655797959999;0.06873525679110001;0;True;33;1;77.6056113243105
36;36;1449490713;2.15080308914;0.7894327640530001;0.0692363753915;0;True;33;1;77.6056113243105
37;37;1449490713;2.15091395378;0.789257764816;0.0689847692847;0;True;33;1;77.6056113243105
38;38;1449490713;2.15075111389;0.789861619473;0.0688659399748;0;True;33;1;77.6056113243105
39;39;1449490713;2.1509244441999997;0.789711177349;0.06876978278160001;0;True;33;1;77.6056113243105
40;40;1449490713;2.1505942344699998;0.789564073086;0.0688319280744;0;True;33;1;77.6056113243105
41;41;1449490713;2.1508846283;0.7897253036499999;0.06875714659689999;0;True;33;1;77.6056113243105
42;42;1449490713;2.15094447136;0.789634644985;0.0687302276492;0;True;33;1;77.6056113243105
43;43;1449490713;2.15081119537;0.7894887924189999;0.068744212389;0;True;33;1;77.6056113243105
44;44;1449490713;2.15098428726;0.7895417213439999;0.06876847147939999;0;True;33;1;77.6056113243105
45;45;1449490713;2.1508071422599997;0.789525449276;0.068711400032;0;True;33;1;77.6056113243105
46;46;1449490713;2.15079545975;0.789579093456;0.06874834001060001;0;True;33;1;77.6056113243105
47;47;1449490713;2.15070319176;0.789575695992;0.0687273219228;0;True;33;1;77.6056113243105
48;48;1449490713;2.15089797974;0.7899132967;0.0686851888895;0;True;33;1;77.6056113243105
49;49;1449490713;2.15100288391;0.789671242237;0.0687109977007;0;True;33;1;77.6056113243105
50;50;1449490713;2.15110564232;0.7898147702220001;0.0687580481172;0;True;33;1;77.6056113243105
51;51;1449490713;2.1507103443099997;0.7895869612690001;0.0687514841557;0;True;33;1;77.6056113243105
52;52;1449490713;2.1510818004599996;0.7897831797600001;0.06873644888399999;0;True;33;1;77.6056113243105
53;53;1449490713;2.15095424652;0.7896932959559999;0.0687128528953;0;True;33;1;77.6056113243105
54;54;1449490713;2.1511690616599997;0.78972953558;0.06874105334280001;0;True;33;1;77.6056113243105
55;55;1449490713;2.15089797974;0.79039978981;0.0684063434601;0;True;33;1;77.6056113243105
56;56;1449490713;2.1509640216799997;0.7896451950069999;0.0687272325158;0;True;33;1;77.6056113243105
57;57;1449490713;2.15107870102;0.789363205433;0.0687534734607;0;True;33;1;77.6056113243105
58;58;1449490713;2.15100359917;0.7897495627399999;0.0687183365226;0;True;33;1;77.6056113243105
59;59;1449490713;2.15052294731;0.789326310158;0.0689177587628;0;True;33;1;77.6056113243105
60;60;1449490713;2.15096902847;0.78959184885;0.06872283667330001;0;True;33;1;77.6056113243105
61;61;1449490713;2.1508853435499997;0.789504468441;0.0687230750918;0;True;33;1;77.6056113243105
62;62;1449490713;2.1506242752099998;0.789589107037;0.06869511306289999;0;True;33;1;77.6056113243105
63;63;1449490713;2.1508793830900004;0.7898544073100001;0.0687582567334;0;True;33;1;77.6056113243105
64;64;1449490713;2.1511948108700003;0.789790213108;0.0687309578061;0;True;33;1;77.6056113243105
65;65;1449490713;2.15100646019;0.789601325989;0.0687422305346;0;True;33;1;77.6056113243105
66;66;1449490713;2.15081119537;0.789709806442;0.0686807483435;0;True;33;1;77.6056113243105
67;67;1449490713;2.1507670879400003;0.789540946484;0.06871856004;0;True;33;1;77.6056113243105
68;68;1449490713;2.15094065666;0.789710760117;0.06869783252480001;0;True;33;1;77.6056113243105
69;69;1449490713;2.15096569061;0.789671361446;0.0689104869962;0;True;33;1;77.6056113243105
70;70;1449490713;2.15076065063;0.789724111557;0.0685954093933;0;True;33;1;77.6056113243105
71;71;1449490713;2.1508646011400003;0.7895765304569999;0.06870096921919999;0;True;33;1;77.6056113243105
72;72;1449490713;2.1508607864400004;0.789503514767;0.06871300935750001;0;True;33;1;77.6056113243105
73;73;1449490713;2.15042352676;0.789357542992;0.0689232647419;0;True;33;1;77.6056113243105
74;74;1449490713;2.1505506038699997;0.789388000965;0.06887313723560001;0;True;33;1;77.6056113243105
75;75;1449490713;2.1506938934299997;0.789429843426;0.06878832727669999;0;True;33;1;77.6056113243105
76;76;1449490713;2.1506946086900003;0.789660334587;0.06871147453780001;0;True;33;1;77.6056113243105
77;77;1449490713;2.15085268021;0.7895735502240001;0.0686870664358;0;True;33;1;77.6056113243105
78;78;1449490713;2.15046262741;0.790087759495;0.0684636086226;0;True;33;1;77.6056113243105
79;79;1449490713;2.1509313583400003;0.7896729707719999;0.0686392560601;0;True;33;1;77.6056113243105
80;80;1449490713;2.1510512828799997;0.789720594883;0.0687089711428;0;True;33;1;77.6056113243105
81;81;1449490713;2.15095043182;0.7895953059199999;0.0688149929047;0;True;33;1;77.6056113243105
82;82;1449490713;2.15084815025;0.789735913277;0.0687179416418;0;True;33;1;77.6056113243105
83;83;1449490713;2.15062713623;0.789680838585;0.0685919076204;0;True;33;1;77.6056113243105
84;84;1449490713;2.15117168427;0.789766430855;0.0687022134662;0;True;33;1;77.6056113243105
85;85;1449490713;2.15109682083;0.789815962315;0.0686936452985;0;True;33;1;77.6056113243105
86;86;1449490713;2.1509990692099996;0.789790153503;0.06878394633530001;0;True;33;1;77.6056113243105
87;87;1449490713;2.1508500576;0.789724230766;0.0687123015523;0;True;33;1;77.6056113243105
88;88;1449490713;2.15079283714;0.7895087003710001;0.0686985701323;0;True;33;1;77.6056113243105
89;89;1449490713;2.1509475708;0.789613366127;0.0687301158905;0;True;33;1;77.6056113243105
90;90;1449490713;2.1509127616900003;0.789659261703;0.0686793997884;0;True;33;1;77.6056113243105
91;91;1449490713;2.15097284317;0.78965741396;0.0687132179737;0;True;33;1;77.6056113243105
92;92;1449490713;2.15064883232;0.789320647717;0.06888666749;0;True;33;1;77.6056113243105
93;93;1449490713;2.15061020851;0.789476573467;0.0687741711736;0;True;33;1;77.6056113243105
94;94;1449490713;2.1504254341099998;0.789681375027;0.0684628635645;0;True;33;1;77.6056113243105
95;95;1449490713;2.1506409645099995;0.7895938754080001;0.0686802342534;0;True;33;1;77.6056113243105
96;96;1449490713;2.1509511470800002;0.789601802826;0.0687533169985;0;True;33;1;77.6056113243105
97;97;1449490713;2.1509737968400002;0.7895076870919999;0.0688363462687;0;True;33;1;77.6056113243105
98;98;1449490713;2.15083289146;0.789588391781;0.0686787888408;0;True;33;1;77.6056113243105
99;99;1449490713;2.15085124969;0.7894968986509999;0.0687097162008;0;True;33;1;77.6056113243105
100;100;1449490713;2.15099167824;0.789633631706;0.06870710849759999;0;True;33;1;77.6056113243105
101;101;1449490713;2.15060353279;0.789599835873;0.0686722919345;0;True;33;1;77.6056113243105
102;102;1449490713;2.1507053375200003;0.789599776268;0.0687061622739;0;True;33;1;77.6056113243105
103;103;1449490713;2.15111327171;0.789705693722;0.0687124580145;0;True;33;1;77.6056113243105
104;104;1449490713;2.15088033676;0.789558231831;0.0687082186341;0;True;33;1;77.6056113243105
105;105;1449490713;2.15104484558;0.789706468582;0.0687237381935;0;True;33;1;77.6056113243105
106;106;1449490713;2.15111732483;0.7898041009899999;0.0687225088477;0;True;33;1;77.6056113243105
107;107;1449490713;2.1505670547499998;0.7892064452169999;0.068518280983;0;True;33;1;77.6056113243105
108;108;1449490713;2.15115404129;0.7897313237190001;0.0687439963222;0;True;33;1;77.6056113243105
109;109;1449490713;2.15076494217;0.789439857006;0.0688375979662;0;True;33;1;77.6056113243105
110;110;1449490713;2.1511731147799997;0.7895530462270001;0.06873717904089999;0;True;33;1;77.6056113243105
111;111;1449490713;2.15086317062;0.789446473122;0.0689506828785;0;True;33;1;77.6056113243105
112;112;1449490713;2.1511285305000003;0.789694845676;0.0687378942966;0;True;33;1;77.6056113243105
113;113;1449490714;2.150847435;0.789778590202;0.0687467753887;1;True;33;1;77.6056113243105
114;114;1449490714;2.15100002289;0.789731800556;0.06880670040850001;1;True;33;1;77.6056113243105
115;115;1449490714;2.15059375763;0.7896950244900001;0.0685320869088;1;True;33;1;77.6056113243105
116;116;1449490714;2.1508288383500003;0.789697468281;0.06863747537140001;1;True;33;1;77.6056113243105
117;117;1449490714;2.1509749889400003;0.789600491524;0.0687674060464;1;True;33;1;77.6056113243105
118;118;1449490714;2.15093517303;0.789584755898;0.06875955313439999;1;True;33;1;77.6056113243105
119;119;1449490714;2.1506614685099996;0.789649248123;0.06876203417780001;1;True;33;1;77.6056113243105
120;120;1449490714;2.15114283562;0.789689064026;0.06881629675630001;1;True;33;1;77.6056113243105
121;121;1449490714;2.15105056763;0.789603590965;0.068770609796;1;True;33;1;77.6056113243105
122;122;1449490714;2.15094518661;0.789815247059;0.06870388984680001;1;True;33;1;77.6056113243105
123;123;1449490714;2.15088224411;0.789366662502;0.0690165683627;1;True;33;1;77.6056113243105
124;124;1449490714;2.15079712868;0.7895897626880001;0.0687732920051;1;True;33;1;77.6056113243105
125;125;1449490714;2.15088295937;0.789660155773;0.0687425360084;1;True;33;1;77.6056113243105
126;126;1449490714;2.1508784294099996;0.789478838444;0.0689316242933;1;True;33;1;77.6056113243105
127;127;1449490714;2.1510088443799997;0.789617717266;0.0688752233982;1;True;33;1;77.6056113243105
128;128;1449490714;2.15115594864;0.789400577545;0.06878440082069999;1;True;33;1;77.6056113243105
129;129;1449490714;2.1509759426099997;0.7896279692649999;0.0687654465437;1;True;33;1;77.6056113243105
130;130;1449490714;2.1510536670700002;0.789712667465;0.0687666982412;1;True;33;1;77.6056113243105
131;131;1449490714;2.15114188194;0.78969758749;0.06884543597699999;1;True;33;1;77.6056113243105
132;132;1449490714;2.15121769905;0.7895219922069999;0.0688469260931;1;True;33;1;77.6056113243105
133;133;1449490714;2.15115451813;0.789524912834;0.0688406974077;1;True;33;1;77.6056113243105
134;134;1449490714;2.1511168479900005;0.7894749045370001;0.068881817162;1;True;33;1;77.6056113243105
135;135;1449490714;2.15085792542;0.789503455162;0.06878956407310001;1;True;33;1;77.6056113243105
136;136;1449490714;2.15115642548;0.7894828915600001;0.0688709393144;1;True;33;1;77.6056113243105
137;137;1449490714;2.1510515213;0.7896951437;0.068776011467;1;True;33;1;77.6056113243105
138;138;1449490714;2.1511340141299997;0.7895393371580001;0.06887815147639999;1;True;33;1;77.6056113243105
139;139;1449490714;2.15108418465;0.789652168751;0.06879884004589999;1;True;33;1;77.6056113243105
140;140;1449490714;2.15121889114;0.789817094803;0.06880979985;1;True;33;1;77.6056113243105
141;141;1449490714;2.1508004665400002;0.7895897626880001;0.0687640532851;1;True;33;1;77.6056113243105
142;142;1449490714;2.1511759758;0.78950124979;0.0688658356667;1;True;33;1;77.6056113243105
143;143;1449490714;2.15110564232;0.789472401142;0.06887556612489999;1;True;33;1;77.6056113243105
144;144;1449490714;2.1512298584000002;0.789517700672;0.0688559487462;1;True;33;1;77.6056113243105
145;145;1449490714;2.15124416351;0.789795696735;0.0687984898686;1;True;33;1;77.6056113243105
146;146;1449490714;2.15109658241;0.789423465729;0.06889358907939999;1;True;33;1;77.6056113243105
147;147;1449490714;2.15116405487;0.789522886276;0.06885281950239999;1;True;33;1;77.6056113243105
148;148;1449490714;2.15099692345;0.7896171808239999;0.06877177208660001;1;True;33;1;77.6056113243105
149;149;1449490714;2.1512336731;0.789563715458;0.0687894746661;1;True;33;1;77.6056113243105
150;150;1449490714;2.15091991425;0.789501845837;0.0687809661031;1;True;33;1;77.6056113243105
151;151;1449490714;2.15077590942;0.789599299431;0.068753182888;1;True;33;1;77.6056113243105
152;152;1449490714;2.1509714126599997;0.7896252870559999;0.06876243650910001;1;True;33;1;77.6056113243105
153;153;1449490714;2.15092492104;0.789412736893;0.06878711283210001;1;True;33;1;77.6056113243105
154;154;1449490714;2.15077853203;0.7894660830500001;0.06909627467389999;1;True;33;1;77.6056113243105
155;155;1449490714;2.15050387383;0.7898640036579999;0.0686180815101;1;True;33;1;77.6056113243105
156;156;1449490714;2.15109705925;0.789468646049;0.06886444240810001;1;True;33;1;77.6056113243105
157;157;1449490714;2.15110945702;0.7894210815430001;0.0688631162047;1;True;33;1;77.6056113243105
158;158;1449490714;2.15100955963;0.789616823196;0.0687708035111;1;True;33;1;77.6056113243105
159;159;1449490714;2.15084695816;0.789786219597;0.0687482357025;1;True;33;1;77.6056113243105
160;160;1449490714;2.15115785599;0.789494991302;0.06883527338499999;1;True;33;1;77.6056113243105
161;161;1449490714;2.15107607841;0.7894389629359999;0.06885605305430001;1;True;33;1;77.6056113243105
162;162;1449490714;2.15115380287;0.7895734906199999;0.06879196316000001;1;True;33;1;77.6056113243105
163;163;1449490714;2.15112805367;0.7895016074179999;0.0688349306583;1;True;33;1;77.6056113243105
164;164;1449490714;2.15114402771;0.789468944073;0.0688408911228;1;True;33;1;77.6056113243105
165;165;1449490714;2.1509652137799997;0.7895309329029999;0.0687417462468;1;True;33;1;77.6056113243105
166;166;1449490714;2.151045084;0.789403676987;0.0688242316246;1;True;33;1;77.6056113243105
167;167;1449490714;2.15104055405;0.7895137667659999;0.06876233220099999;1;True;33;1;77.6056113243105
168;168;1449490714;2.1509652137799997;0.789456188679;0.0689341649413;1;True;33;1;77.6056113243105
169;169;1449490714;2.15104103088;0.789395093918;0.0689025148749;1;True;33;1;77.6056113243105
170;170;1449490714;2.15059089661;0.7894654273989999;0.0689185783267;1;True;33;1;77.6056113243105
171;171;1449490714;2.1511483192400003;0.7896082401279999;0.0687159597874;1;True;33;1;77.6056113243105
172;172;1449490714;2.15066456795;0.7897587418559999;0.0686246082187;1;True;33;1;77.6056113243105
173;173;1449490714;2.1509282589;0.7896497845649999;0.0686997175217;1;True;33;1;77.6056113243105
174;174;1449490714;2.15091109276;0.789700984955;0.0686098486185;1;True;33;1;77.6056113243105
175;175;1449490714;2.1508097648599995;0.78975892067;0.06868250668050001;1;True;33;1;77.6056113243105
176;176;1449490714;2.15102291107;0.7897719740870001;0.0687933936715;1;True;33;1;77.6056113243105
177;177;1449490714;2.1509137153599998;0.789615511894;0.0686815679073;1;True;33;1;77.6056113243105
178;178;1449490714;2.1506443023700004;0.7892622351649999;0.0688326209784;1;True;33;1;77.6056113243105
179;179;1449490714;2.1510889530200004;0.7894902825360001;0.068761780858;1;True;33;1;77.6056113243105
180;180;1449490714;2.15081143379;0.789268672466;0.06895481050010001;1;True;33;1;77.6056113243105
181;181;1449490714;2.15097665787;0.789581418037;0.0686808601022;1;True;33;1;77.6056113243105
182;182;1449490714;2.15101122856;0.78955155611;0.0688304528594;1;True;33;1;77.6056113243105
183;183;1449490714;2.1509718895;0.789623439312;0.068671002984;1;True;33;1;77.6056113243105
184;184;1449490714;2.15083241463;0.789662718773;0.068685516715;1;True;33;1;77.6056113243105
185;185;1449490714;2.15039896965;0.789522230625;0.068570189178;1;True;33;1;77.6056113243105
186;186;1449490714;2.1510090827900004;0.7895238399510001;0.0688014477491;1;True;33;1;77.6056113243105
187;187;1449490714;2.1507039070099996;0.789387702942;0.0688295736909;1;True;33;1;77.6056113243105
188;188;1449490714;2.15115809441;0.7897483706470001;0.0686814412475;1;True;33;1;77.6056113243105
189;189;1449490714;2.1507999897;0.789777874947;0.06863311678169999;1;True;33;1;77.6056113243105
190;190;1449490714;2.15113806725;0.7897348403929999;0.06867523491380001;1;True;33;1;77.6056113243105
191;191;1449490714;2.15049028397;0.789504766464;0.06860935688019999;1;True;33;1;77.6056113243105
192;192;1449490714;2.1506278514900004;0.789573073387;0.068608418107;1;True;33;1;77.6056113243105
193;193;1449490714;2.15072655678;0.789581298828;0.0686526894569;1;True;33;1;77.6056113243105
194;194;1449490714;2.15092730522;0.7895063161849999;0.0690827667713;1;True;33;1;77.6056113243105
195;195;1449490714;2.15081787109;0.789540350437;0.06865265965459999;1;True;33;1;77.6056113243105
196;196;1449490714;2.1507101059;0.789581477642;0.0686630234122;1;True;33;1;77.6056113243105
197;197;1449490714;2.1508145332299997;0.789545357227;0.06882558017969999;1;True;33;1;77.6056113243105
198;198;1449490714;2.1509461402900003;0.7895968556399999;0.06870657950640001;1;True;33;1;77.6056113243105
199;199;1449490714;2.15098142624;0.789763689041;0.06876007467510001;1;True;33;1;77.6056113243105
200;200;1449490714;2.15072774887;0.78946095705;0.068834207952;1;True;33;1;77.6056113243105
201;201;1449490714;2.1508243084;0.789754092693;0.06859125196930001;1;True;33;1;77.6056113243105
202;202;1449490714;2.15110993385;0.789727449417;0.0686680674553;1;True;33;1;77.6056113243105
203;203;1449490714;2.15082216263;0.789551258087;0.0688132271171;1;True;33;1;77.6056113243105
204;204;1449490714;2.1511635780300002;0.7897579669949999;0.0686779543757;1;True;33;1;77.6056113243105
205;205;1449490714;2.15053200722;0.789702296257;0.0685187354684;1;True;33;1;77.6056113243105
206;206;1449490714;2.15069127083;0.789468288422;0.0686740577221;1;True;33;1;77.6056113243105
207;207;1449490714;2.1508388519299997;0.789336323738;0.0689091458917;1;True;33;1;77.6056113243105
208;208;1449490714;2.15045046806;0.7894544005390001;0.0686625763774;1;True;33;1;77.6056113243105
209;209;1449490714;2.15047025681;0.7896552681919999;0.068629719317;1;True;33;1;77.6056113243105
210;210;1449490714;2.15106487274;0.7896749973299999;0.06871978938579999;1;True;33;1;77.6056113243105
211;211;1449490714;2.15094709396;0.7896528840070001;0.0686675384641;1;True;33;1;77.6056113243105
212;212;1449490714;2.15081858635;0.7895598411560001;0.06869554519650001;1;True;33;1;77.6056113243105
213;213;1449490714;2.15106964111;0.789679348469;0.0687402188778;1;True;33;1;77.6056113243105
214;214;1449490714;2.15110707283;0.789808630943;0.0687070786953;1;True;33;1;77.6056113243105
215;215;1449490714;2.15092182159;0.7897177338600001;0.06878644973039999;1;True;33;1;77.6056113243105
216;216;1449490714;2.1506900787400003;0.789242148399;0.0691388621926;1;True;33;1;77.6056113243105
217;217;1449490714;2.15105772018;0.7895306348800001;0.06888271123169999;1;True;33;1;77.6056113243105
218;218;1449490714;2.15037298203;0.78993678093;0.0682729706168;1;True;33;1;77.6056113243105
219;219;1449490714;2.1506090164200002;0.78957849741;0.0686934813857;1;True;33;1;77.6056113243105
220;220;1449490714;2.15110301971;0.7894594669339999;0.0687470659614;1;True;33;1;77.6056113243105
221;221;1449490714;2.15058684349;0.7898638248440001;0.0685578659177;1;True;33;1;77.6056113243105
222;222;1449490714;2.15089988708;0.7895781397820001;0.0688504427671;1;True;33;1;77.6056113243105
223;223;1449490714;2.15088415146;0.7896034717560001;0.06875266134739999;1;True;33;1;77.6056113243105
224;224;1449490714;2.1507382392900003;0.789579689503;0.0687519535422;1;True;33;1;77.6056113243105
225;225;1449490714;2.1508693695099996;0.789609849453;0.06887125968930001;1;True;33;1;77.6056113243105
226;226;1449490714;2.15087270737;0.78958272934;0.06875008344650001;1;True;33;1;77.6056113243105
227;227;1449490714;2.15110445023;0.78950804472;0.0688461586833;1;True;33;1;77.6056113243105
228;228;1449490714;2.15049028397;0.7892675399779999;0.0688448026776;1;True;33;1;77.6056113243105
229;229;1449490714;2.15114665031;0.789587020874;0.0688288211823;1;True;33;1;77.6056113243105
230;230;1449490714;2.15112185478;0.789415895939;0.06879241764550001;1;True;33;1;77.6056113243105
231;231;1449490714;2.15113949776;0.789452433586;0.0688052177429;1;True;33;1;77.6056113243105
232;232;1449490714;2.1511900425;0.789584815502;0.06879730522630001;1;True;33;1;77.6056113243105
233;233;1449490714;2.15099596977;0.78954321146;0.06882513314489999;1;True;33;1;77.6056113243105
234;234;1449490714;2.1511118412;0.7895101308820001;0.0688549280167;1;True;33;1;77.6056113243105
235;235;1449490714;2.15107941628;0.78940320015;0.06887408345939999;1;True;33;1;77.6056113243105
236;236;1449490714;2.15109944344;0.789465069771;0.0688988491893;1;True;33;1;77.6056113243105
237;237;1449490714;2.15116930008;0.789522171021;0.06879983097310001;1;True;33;1;77.6056113243105
238;238;1449490714;2.15113186836;0.789413094521;0.06879654526710001;1;True;33;1;77.6056113243105
239;239;1449490714;2.15108513832;0.7894816994670001;0.06888283044099999;1;True;33;1;77.6056113243105
240;240;1449490714;2.15109610558;0.789449036121;0.0688681080937;1;True;33;1;77.6056113243105
241;241;1449490714;2.15095472336;0.789611518383;0.06877674162389999;1;True;33;1;77.6056113243105
242;242;1449490714;2.15111851692;0.78950458765;0.06886353343729999;1;True;33;1;77.6056113243105
243;243;1449490714;2.15070939064;0.7895971536640001;0.068788766861;1;True;33;1;77.6056113243105
244;244;1449490714;2.15093946457;0.7896219491959999;0.0687714144588;1;True;33;1;77.6056113243105
245;245;1449490714;2.15120315552;0.7897870540620001;0.0687948614359;1;True;33;1;77.6056113243105
246;246;1449490714;2.15072774887;0.78959017992;0.06877014786010001;1;True;33;1;77.6056113243105
247;247;1449490714;2.15114045143;0.789585292339;0.0688382685184;1;True;33;1;77.6056113243105
248;248;1449490714;2.15093255043;0.7896220684049999;0.0687572434545;1;True;33;1;77.6056113243105
249;249;1449490714;2.1510348319999997;0.789562880993;0.0688141956925;1;True;33;1;77.6056113243105
250;250;1449490714;2.15098547935;0.789670526981;0.068758957088;1;True;33;1;77.6056113243105
251;251;1449490714;2.15086627007;0.789558768272;0.0687527433038;1;True;33;1;77.6056113243105
252;252;1449490714;2.15092372894;0.7897408604620001;0.06878970563410002;1;True;33;1;77.6056113243105
253;253;1449490714;2.15098023415;0.78966653347;0.06875164806839999;1;True;33;1;77.6056113243105
254;254;1449490714;2.15051364899;0.789673805237;0.0687133967876;1;True;33;1;77.6056113243105
255;255;1449490714;2.15120458603;0.789760529995;0.06876543909310001;1;True;33;1;77.6056113243105
256;256;1449490714;2.15085434914;0.789751887321;0.0687683597207;1;True;33;1;77.6056113243105
257;257;1449490714;2.15114021301;0.789405286312;0.0691419541836;1;True;33;1;77.6056113243105
258;258;1449490714;2.1509752273599996;0.78943413496;0.06895728409289999;1;True;33;1;77.6056113243105
259;259;1449490714;2.15073728561;0.7895293235780001;0.0687040165067;1;True;33;1;77.6056113243105
260;260;1449490714;2.15049266815;0.789434432983;0.06884405761960001;1;True;33;1;77.6056113243105
261;261;1449490714;2.15083932877;0.789546191692;0.06872957944869999;1;True;33;1;77.6056113243105
262;262;1449490714;2.15082859993;0.7895945906640001;0.0687187761068;1;True;33;1;77.6056113243105
263;263;1449490714;2.1506938934299997;0.789483129978;0.0688359960914;1;True;33;1;77.6056113243105
264;264;1449490714;2.1509830951700004;0.789609193802;0.06873160600660001;1;True;33;1;77.6056113243105
265;265;1449490714;2.15093851089;0.7894783020020001;0.0687387064099;1;True;33;1;77.6056113243105
266;266;1449490714;2.15062046051;0.789587557316;0.0686792805791;1;True;33;1;77.6056113243105
267;267;1449490714;2.15090584755;0.789527893066;0.0687268599868;1;True;33;1;77.6056113243105
268;268;1449490714;2.1512451171900002;0.789865195751;0.0687789171934;1;True;33;1;77.6056113243105
269;269;1449490714;2.15092992783;0.7897211313249999;0.0687120780349;1;True;33;1;77.6056113243105
270;270;1449490714;2.15081143379;0.789647817612;0.0686878487468;1;True;33;1;77.6056113243105
271;271;1449490714;2.15063929558;0.7895389199259999;0.06867337226869999;1;True;33;1;77.6056113243105
272;272;1449490714;2.15087127686;0.789543449879;0.0688030868769;1;True;33;1;77.6056113243105
273;273;1449490714;2.15106511116;0.789665162563;0.0687330812216;1;True;33;1;77.6056113243105
274;274;1449490714;2.15093302727;0.7895443439480001;0.0687006264925;1;True;33;1;77.6056113243105
275;275;1449490714;2.15096569061;0.789671778679;0.06870297342540001;1;True;33;1;77.6056113243105
276;276;1449490714;2.15096187592;0.789572119713;0.0688229128718;1;True;33;1;77.6056113243105
277;277;1449490714;2.15087342262;0.789455115795;0.0688981488347;1;True;33;1;77.6056113243105
278;278;1449490714;2.15073037148;0.7895765304569999;0.0687002912164;1;True;33;1;77.6056113243105
279;279;1449490714;2.1510083675400002;0.789632916451;0.0687302276492;1;True;33;1;77.6056113243105
280;280;1449490714;2.1507487297099996;0.7895468473430001;0.0687150508165;1;True;33;1;77.6056113243105
281;281;1449490714;2.1511054039;0.789664566517;0.06872042268510001;1;True;33;1;77.6056113243105
282;282;1449490714;2.15079450607;0.789446115494;0.0686872527003;1;True;33;1;77.6056113243105
283;283;1449490714;2.15068912506;0.789799034595;0.06877511739730001;1;True;33;1;77.6056113243105
284;284;1449490714;2.15112829208;0.7897510528560001;0.0687924399972;1;True;33;1;77.6056113243105
285;285;1449490714;2.15109181404;0.7894830107690001;0.0687551498413;1;True;33;1;77.6056113243105
286;286;1449490714;2.15070009232;0.789495766163;0.0688395053148;1;True;33;1;77.6056113243105
287;287;1449490714;2.1507337093400003;0.789414584637;0.0688681304455;1;True;33;1;77.6056113243105
288;288;1449490714;2.15095591545;0.7896040678020001;0.0686810314655;1;True;33;1;77.6056113243105
289;289;1449490714;2.1507103443099997;0.7895627021789999;0.0686930269003;1;True;33;1;77.6056113243105
290;290;1449490714;2.15098500252;0.7896437644959999;0.0687235817313;1;True;33;1;77.6056113243105
291;291;1449490714;2.15116882324;0.789759099483;0.0686970204115;1;True;33;1;77.6056113243105
292;292;1449490714;2.15105581284;0.789368271828;0.0687019899487;1;True;33;1;77.6056113243105
293;293;1449490714;2.15100073814;0.789768397808;0.06879739463330001;1;True;33;1;77.6056113243105
294;294;1449490714;2.15089774132;0.789663434029;0.06866022944450001;1;True;33;1;77.6056113243105
295;295;1449490714;2.1508538723;0.789435088634;0.0687125101686;1;True;33;1;77.6056113243105
296;296;1449490714;2.15061330795;0.7895632386210001;0.0687078237534;1;True;33;1;77.6056113243105
297;297;1449490714;2.15115642548;0.789778828621;0.0686978697777;1;True;33;1;77.6056113243105
298;298;1449490714;2.15114045143;0.789764404297;0.0686951726675;1;True;33;1;77.6056113243105
299;299;1449490714;2.1509869098700003;0.7895768284800001;0.0687786340714;1;True;33;1;77.6056113243105
300;300;1449490714;2.1510536670700002;0.789563894272;0.06883849948639999;1;True;33;1;77.6056113243105
301;301;1449490714;2.15077280998;0.789761304855;0.0686969831586;1;True;33;1;77.6056113243105
302;302;1449490714;2.15088319778;0.78961199522;0.06867511570450001;1;True;33;1;77.6056113243105
303;303;1449490714;2.15091991425;0.7895381450650001;0.06870687007899999;1;True;33;1;77.6056113243105
304;304;1449490714;2.15078139305;0.789578020573;0.0686951428652;1;True;33;1;77.6056113243105
305;305;1449490714;2.15097308159;0.789616644382;0.06876704841850001;1;True;33;1;77.6056113243105
306;306;1449490714;2.15076637268;0.7894253134729999;0.06882444769139999;1;True;33;1;77.6056113243105
307;307;1449490714;2.1509203910799997;0.7896959781649999;0.0686994418502;1;True;33;1;77.6056113243105
308;308;1449490714;2.15086197853;0.789600193501;0.06868857145309999;1;True;33;1;77.6056113243105
309;309;1449490714;2.15107369423;0.7894859910009999;0.0687606558204;1;True;33;1;77.6056113243105
310;310;1449490714;2.15077543259;0.789559364319;0.0686551332474;1;True;33;1;77.6056113243105
311;311;1449490714;2.1508641243;0.7895091176029999;0.06889638304710001;1;True;33;1;77.6056113243105
312;312;1449490714;2.15107822418;0.789616644382;0.0687666162848;1;True;33;1;77.6056113243105
313;313;1449490714;2.15067386627;0.789516627789;0.06887909024950001;1;True;33;1;77.6056113243105
314;314;1449490714;2.15079474449;0.789926052094;0.06863045692440001;1;True;33;1;77.6056113243105
315;315;1449490714;2.1506481170700003;0.789588868618;0.0688293874264;1;True;33;1;77.6056113243105
316;316;1449490714;2.15089392662;0.7896279692649999;0.0687010213733;1;True;33;1;77.6056113243105
317;317;1449490714;2.15101599693;0.7894115448000001;0.06879652291539999;1;True;33;1;77.6056113243105
318;318;1449490714;2.15095424652;0.7893047928810001;0.06910308450460001;1;True;33;1;77.6056113243105
319;319;1449490714;2.15100193024;0.7897723317149999;0.0688198804855;1;True;33;1;77.6056113243105
320;320;1449490714;2.15051174164;0.789470434189;0.06873928755520001;1;True;33;1;77.6056113243105
321;321;1449490714;2.1510591507;0.7894812822339999;0.06878764182330001;1;True;33;1;77.6056113243105
322;322;1449490714;2.15082669258;0.789240181446;0.0691939070821;1;True;33;1;77.6056113243105
323;323;1449490714;2.1504395008099997;0.789544045925;0.0686729848385;1;True;33;1;77.6056113243105
324;324;1449490714;2.15092921257;0.789729893208;0.0687109231949;1;True;33;1;77.6056113243105
325;325;1449490714;2.15101408958;0.789774417877;0.0688121914864;1;True;33;1;77.6056113243105
326;326;1449490714;2.15110659599;0.7894065380099999;0.06879645586010001;1;True;33;1;77.6056113243105
327;327;1449490714;2.1511485576599996;0.789798915386;0.0687212273479;1;True;33;1;77.6056113243105
328;328;1449490714;2.15114688873;0.789788603783;0.0687353536487;1;True;33;1;77.6056113243105
329;329;1449490714;2.15090322495;0.789629042149;0.0687151476741;1;True;33;1;77.6056113243105
330;330;1449490714;2.15058898926;0.789483964443;0.0687754452229;1;True;33;1;77.6056113243105
331;331;1449490714;2.15040326118;0.789576113224;0.0689923912287;1;True;33;1;77.6056113243105
332;332;1449490714;2.15113568306;0.7897395491600001;0.0687097162008;1;True;33;1;77.6056113243105
333;333;1449490714;2.1511213779400005;0.789501130581;0.0687832981348;1;True;33;1;77.6056113243105
334;334;1449490714;2.15121364594;0.789897918701;0.0687782987952;1;True;33;1;77.6056113243105
335;335;1449490714;2.15114617348;0.789744198322;0.0687352046371;1;True;33;1;77.6056113243105
336;336;1449490714;2.1510283947;0.789760112762;0.06880895793439999;1;True;33;1;77.6056113243105
337;337;1449490714;2.1509308815;0.789556264877;0.0687162056565;1;True;33;1;77.6056113243105
338;338;1449490714;2.1507151126900004;0.789824128151;0.0686259195209;1;True;33;1;77.6056113243105
339;339;1449490714;2.1511690616599997;0.789753615856;0.0687352046371;1;True;33;1;77.6056113243105
340;340;1449490714;2.15118122101;0.789773106575;0.0687344819307;1;True;33;1;77.6056113243105
341;341;1449490714;2.1509130001099996;0.7896823287010001;0.0686918795109;1;True;33;1;77.6056113243105
342;342;1449490714;2.15118908882;0.7897678613660001;0.06873405724760001;1;True;33;1;77.6056113243105
343;343;1449490714;2.15069127083;0.789666116238;0.0686588808894;1;True;33;1;77.6056113243105
344;344;1449490714;2.15070676804;0.789583325386;0.0687085166574;1;True;33;1;77.6056113243105
345;345;1449490714;2.1509811878200003;0.789593398571;0.0687438249588;1;True;33;1;77.6056113243105
346;346;1449490714;2.15099525452;0.7896538972849999;0.0687227100134;1;True;33;1;77.6056113243105
347;347;1449490714;2.15095090866;0.7896023392679999;0.0687310695648;1;True;33;1;77.6056113243105
348;348;1449490714;2.15078163147;0.78956079483;0.0687494203448;1;True;33;1;77.6056113243105
349;349;1449490714;2.15087199211;0.789553999901;0.06874217838050001;1;True;33;1;77.6056113243105
350;350;1449490714;2.1506562233;0.789523363113;0.0687876194715;1;True;33;1;77.6056113243105
351;351;1449490714;2.15069890022;0.78945761919;0.0688995867968;1;True;33;1;77.6056113243105
352;352;1449490715;2.15115833282;0.789766788483;0.0687572732568;2;True;33;1;77.6056113243105
353;353;1449490715;2.1510047912599997;0.7895949482919999;0.06876546889539999;2;True;33;1;77.6056113243105
354;354;1449490715;2.1510903835299997;0.789565265179;0.0688863247633;2;True;33;1;77.6056113243105
355;355;1449490715;2.1508123874700003;0.78969347477;0.0687495321035;2;True;33;1;77.6056113243105
356;356;1449490715;2.15090298653;0.789563596249;0.068742595613;2;True;33;1;77.6056113243105
357;357;1449490715;2.1507973671;0.789295077324;0.069076731801;2;True;33;1;77.6056113243105
358;358;1449490715;2.15092396736;0.789487361908;0.06875513494010001;2;True;33;1;77.6056113243105
359;359;1449490715;2.15097212791;0.789709925652;0.0687478929758;2;True;33;1;77.6056113243105
360;360;1449490715;2.15105438232;0.7894211411480001;0.06904792040589999;2;True;33;1;77.6056113243105
361;361;1449490715;2.15120887756;0.789760947227;0.0687711760402;2;True;33;1;77.6056113243105
362;362;1449490715;2.15086650848;0.789503633976;0.06879321485760001;2;True;33;1;77.6056113243105
363;363;1449490715;2.1507470607799997;0.7895666956899999;0.0686440318823;2;True;33;1;77.6056113243105
364;364;1449490715;2.1509757041900004;0.789645671844;0.06872211396689999;2;True;33;1;77.6056113243105
365;365;1449490715;2.15094733238;0.789584696293;0.0687376633286;2;True;33;1;77.6056113243105
366;366;1449490715;2.1509375572200002;0.789672195911;0.0687400773168;2;True;33;1;77.6056113243105
367;367;1449490715;2.15098786354;0.789710462093;0.0687522739172;2;True;33;1;77.6056113243105
368;368;1449490715;2.15096282959;0.789581179619;0.06873548030849999;2;True;33;1;77.6056113243105
369;369;1449490715;2.15092277527;0.789563298225;0.068780362606;2;True;33;1;77.6056113243105
370;370;1449490715;2.15092992783;0.7895736098289999;0.0687358230352;2;True;33;1;77.6056113243105
371;371;1449490715;2.15045905113;0.7892458438869999;0.06896021962169999;2;True;33;1;77.6056113243105
372;372;1449490715;2.1507110595700003;0.7894145250319999;0.0688713863492;2;True;33;1;77.6056113243105
373;373;1449490715;2.15108299255;0.789482653141;0.0689687430859;2;True;33;1;77.6056113243105
374;374;1449490715;2.15098357201;0.789544045925;0.06877207756039999;2;True;33;1;77.6056113243105
375;375;1449490715;2.15088510513;0.789649188519;0.0687131732702;2;True;33;1;77.6056113243105
376;376;1449490715;2.15087342262;0.789597630501;0.068717084825;2;True;33;1;77.6056113243105
377;377;1449490715;2.15076470375;0.7895272970199999;0.06883041560650001;2;True;33;1;77.6056113243105
378;378;1449490715;2.15089154243;0.78964984417;0.06874018162489999;2;True;33;1;77.6056113243105
379;379;1449490715;2.1508932113599997;0.78947865963;0.06875289976599999;2;True;33;1;77.6056113243105
380;380;1449490715;2.15118932724;0.789754807949;0.06875964254139999;2;True;33;1;77.6056113243105
381;381;1449490715;2.15115356445;0.789696514606;0.0687556490302;2;True;33;1;77.6056113243105
382;382;1449490715;2.1511511802700003;0.789731562138;0.06876339018339998;2;True;33;1;77.6056113243105
383;383;1449490715;2.15051698685;0.7895680665970001;0.0686943382025;2;True;33;1;77.6056113243105
384;384;1449490715;2.1508145332299997;0.789454162121;0.0687459856272;2;True;33;1;77.6056113243105
385;385;1449490715;2.15104103088;0.789570450783;0.06876577436919999;2;True;33;1;77.6056113243105
386;386;1449490715;2.15087890625;0.7895502448080001;0.0687178373337;2;True;33;1;77.6056113243105
387;387;1449490715;2.15102434158;0.7894675731659999;0.06893206387760001;2;True;33;1;77.6056113243105
388;388;1449490715;2.15093851089;0.78959697485;0.06872408092019999;2;True;33;1;77.6056113243105
389;389;1449490715;2.1507024765000002;0.789261937141;0.068998105824;2;True;33;1;77.6056113243105
390;390;1449490715;2.15081882477;0.789452373981;0.0687330365181;2;True;33;1;77.6056113243105
391;391;1449490715;2.15089035034;0.789492845535;0.06874558329580001;2;True;33;1;77.6056113243105
392;392;1449490715;2.15116620064;0.789761900902;0.06874635815619999;2;True;33;1;77.6056113243105
393;393;1449490715;2.15058374405;0.7896186709399999;0.0686881840229;2;True;33;1;77.6056113243105
394;394;1449490715;2.15076494217;0.7895445227619999;0.068790577352;2;True;33;1;77.6056113243105
395;395;1449490715;2.15065598488;0.789470136166;0.0688514783978;2;True;33;1;77.6056113243105
396;396;1449490715;2.15086150169;0.7894162535670001;0.06890059262510001;2;True;33;1;77.6056113243105
397;397;1449490715;2.15115070343;0.789573669434;0.0687826648355;2;True;33;1;77.6056113243105
398;398;1449490715;2.1509790420500003;0.789620935917;0.06872326135639999;2;True;33;1;77.6056113243105
399;399;1449490715;2.15058588982;0.7893654704090001;0.068726144731;2;True;33;1;77.6056113243105
400;400;1449490715;2.1508495807599997;0.789578378201;0.0687004327774;2;True;33;1;77.6056113243105
401;401;1449490715;2.15084457397;0.789809167385;0.06886915117499999;2;True;33;1;77.6056113243105
402;402;1449490715;2.15106678009;0.7894376516339999;0.06880733370780001;2;True;33;1;77.6056113243105
403;403;1449490715;2.1511023044599997;0.789508461952;0.06879055500030001;2;True;33;1;77.6056113243105
404;404;1449490715;2.1510283947;0.789680182934;0.0687489435077;2;True;33;1;77.6056113243105
405;405;1449490715;2.15083456039;0.7896543145180001;0.0688092857599;2;True;33;1;77.6056113243105
406;406;1449490715;2.15079975128;0.789489746094;0.0687208548188;2;True;33;1;77.6056113243105
407;407;1449490715;2.15104413033;0.789472460747;0.0689617022872;2;True;33;1;77.6056113243105
408;408;1449490715;2.15050506592;0.7896037697789999;0.0686583071947;2;True;33;1;77.6056113243105
409;409;1449490715;2.15097618103;0.789629638195;0.0687549635768;2;True;33;1;77.6056113243105
410;410;1449490715;2.1508824825299997;0.789749860764;0.0687325000763;2;True;33;1;77.6056113243105
411;411;1449490715;2.1504113674200003;0.789309203625;0.06868070364000001;2;True;33;1;77.6056113243105
412;412;1449490715;2.150411129;0.789485037327;0.0687045156956;2;True;33;1;77.6056113243105
413;413;1449490715;2.1508071422599997;0.789501667023;0.068706125021;2;True;33;1;77.6056113243105
414;414;1449490715;2.1511385440799997;0.7898537516590001;0.0687066465616;2;True;33;1;77.6056113243105
415;415;1449490715;2.15071463585;0.789730191231;0.0684748962522;2;True;33;1;77.6056113243105
416;416;1449490715;2.15079402924;0.7896035313609999;0.0686693489552;2;True;33;1;77.6056113243105
417;417;1449490715;2.15094947815;0.789630889893;0.06871861964459999;2;True;33;1;77.6056113243105
418;418;1449490715;2.1507053375200003;0.7894576787950001;0.06875915080310001;2;True;33;1;77.6056113243105
419;419;1449490715;2.15075922012;0.789389908314;0.0688346996903;2;True;33;1;77.6056113243105
420;420;1449490715;2.15063786507;0.789400398731;0.0686730742455;2;True;33;1;77.6056113243105
421;421;1449490715;2.15008425713;0.7896074652670001;0.06840853393080001;2;True;33;1;77.6056113243105
422;422;1449490715;2.15071153641;0.789582073689;0.0686986520886;2;True;33;1;77.6056113243105
423;423;1449490715;2.15061903;0.789703965187;0.0684007108212;2;True;33;1;77.6056113243105
424;424;1449490715;2.15081548691;0.789719462395;0.0685151442885;2;True;33;1;77.6056113243105
425;425;1449490715;2.15067458153;0.7897300124169999;0.0685680434108;2;True;33;1;77.6056113243105
426;426;1449490715;2.15059876442;0.7896694540979999;0.0686155557632;2;True;33;1;77.6056113243105
427;427;1449490715;2.1509752273599996;0.7895949482919999;0.0686905160546;2;True;33;1;77.6056113243105
428;428;1449490715;2.15065121651;0.7898390889169999;0.0686708837748;2;True;33;1;77.6056113243105
429;429;1449490715;2.15072917938;0.789571583271;0.06869029253719999;2;True;33;1;77.6056113243105
430;430;1449490715;2.15104842186;0.7897236347200001;0.0687059983611;2;True;33;1;77.6056113243105
431;431;1449490715;2.15084266663;0.789792597294;0.068724475801;2;True;33;1;77.6056113243105
432;432;1449490715;2.1511459350599997;0.7897613644600001;0.06868969649079999;2;True;33;1;77.6056113243105
433;433;1449490715;2.15085482597;0.7893373966220001;0.0690206512809;2;True;33;1;77.6056113243105
434;434;1449490715;2.15114212036;0.789852797985;0.0686950534582;2;True;33;1;77.6056113243105
435;435;1449490715;2.1508071422599997;0.789661645889;0.0687083080411;2;True;33;1;77.6056113243105
436;436;1449490715;2.15066933632;0.789696991444;0.0688358321786;2;True;33;1;77.6056113243105
437;437;1449490715;2.15054631233;0.789724171162;0.06850775331259999;2;True;33;1;77.6056113243105
438;438;1449490715;2.15073800087;0.7894762754440001;0.068740516901;2;True;33;1;77.6056113243105
439;439;1449490715;2.1507344245900004;0.7898039817810001;0.0687519982457;2;True;33;1;77.6056113243105
440;440;1449490715;2.1504282951400002;0.789643228054;0.0685921162367;2;True;33;1;77.6056113243105
441;441;1449490715;2.15112233162;0.789488911629;0.06875903159380001;2;True;33;1;77.6056113243105
442;442;1449490715;2.1510038375900002;0.789463698864;0.0687802657485;2;True;33;1;77.6056113243105
443;443;1449490715;2.15112042427;0.789684355259;0.0687226057053;2;True;33;1;77.6056113243105
444;444;1449490715;2.15096187592;0.789645969868;0.0687629058957;2;True;33;1;77.6056113243105
445;445;1449490715;2.15103673935;0.789151132107;0.069342687726;2;True;33;1;77.6056113243105
446;446;1449490715;2.15027713776;0.789996922016;0.06849770992990001;2;True;33;1;77.6056113243105
447;447;1449490715;2.15109825134;0.789420902729;0.0687713995576;2;True;33;1;77.6056113243105
448;448;1449490715;2.15089297295;0.789604127407;0.0686748251319;2;True;33;1;77.6056113243105
449;449;1449490715;2.15051817894;0.789782762527;0.0685320645571;2;True;33;1;77.6056113243105
450;450;1449490715;2.1511409282700003;0.7894284725190001;0.0688243359327;2;True;33;1;77.6056113243105
451;451;1449490715;2.15050506592;0.789818704128;0.0685010999441;2;True;33;1;77.6056113243105
452;452;1449490715;2.15106582642;0.789671957493;0.0687296614051;2;True;33;1;77.6056113243105
453;453;1449490715;2.1508691310900003;0.789545416832;0.0687089338899;2;True;33;1;77.6056113243105
454;454;1449490715;2.15081429482;0.789594292641;0.0689161643386;2;True;33;1;77.6056113243105
455;455;1449490715;2.150796175;0.7896049618719999;0.0687758997083;2;True;33;1;77.6056113243105
456;456;1449490715;2.15112423897;0.789408922195;0.0688006356359;2;True;33;1;77.6056113243105
457;457;1449490715;2.1507999897;0.789550125599;0.0687240213156;2;True;33;1;77.6056113243105
458;458;1449490715;2.15104579926;0.789730429649;0.0688542276621;2;True;33;1;77.6056113243105
459;459;1449490715;2.1510539054900004;0.7894843816760001;0.0689773708582;2;True;33;1;77.6056113243105
460;460;1449490715;2.15108346939;0.789441287518;0.0688020586967;2;True;33;1;77.6056113243105
461;461;1449490715;2.15114760399;0.7894892096520001;0.0687799528241;2;True;33;1;77.6056113243105
462;462;1449490715;2.15065956116;0.7896320819850001;0.0688292458653;2;True;33;1;77.6056113243105
463;463;1449490715;2.15084147453;0.789759814739;0.06886821985239999;2;True;33;1;77.6056113243105
464;464;1449490715;2.1511135101299996;0.789525330067;0.06883186101910001;2;True;33;1;77.6056113243105
465;465;1449490715;2.15115427971;0.7894847989079999;0.0688053444028;2;True;33;1;77.6056113243105
466;466;1449490715;2.15109372139;0.789534807205;0.0689550042152;2;True;33;1;77.6056113243105
467;467;1449490715;2.15106797218;0.789661288261;0.06878571957349999;2;True;33;1;77.6056113243105
468;468;1449490715;2.15110039711;0.789724588394;0.06880537420510001;2;True;33;1;77.6056113243105
469;469;1449490715;2.15095305443;0.789390921593;0.0690253973007;2;True;33;1;77.6056113243105
470;470;1449490715;2.1510655880000003;0.789469540119;0.0688367709517;2;True;33;1;77.6056113243105
471;471;1449490715;2.1508593559299998;0.789551794529;0.0687644332647;2;True;33;1;77.6056113243105
472;472;1449490715;2.1509478092200003;0.789744377136;0.0686817839742;2;True;33;1;77.6056113243105
473;473;1449490715;2.1511285305000003;0.789364874363;0.0688231512904;2;True;33;1;77.6056113243105
474;474;1449490715;2.1511571407299996;0.789496421814;0.06885732710360001;2;True;33;1;77.6056113243105
475;475;1449490715;2.15091824532;0.7895955443379999;0.0687640979886;2;True;33;1;77.6056113243105
476;476;1449490715;2.15084218979;0.78954654932;0.0687752664089;2;True;33;1;77.6056113243105
477;477;1449490715;2.15115237236;0.7894769310950001;0.0688432902098;2;True;33;1;77.6056113243105
478;478;1449490715;2.15103602409;0.789664983749;0.0687725618482;2;True;33;1;77.6056113243105
479;479;1449490715;2.150837183;0.789484918118;0.0687732920051;2;True;33;1;77.6056113243105
480;480;1449490715;2.15104937553;0.789181768894;0.0693263560534;2;True;33;1;77.6056113243105
481;481;1449490715;2.15080308914;0.789742469788;0.0687845721841;2;True;33;1;77.6056113243105
482;482;1449490715;2.1508502960199998;0.789569973946;0.0687762871385;2;True;33;1;77.6056113243105
483;483;1449490715;2.15120124817;0.7897902727130001;0.0687895268202;2;True;33;1;77.6056113243105
484;484;1449490715;2.15118455887;0.789480626583;0.068804487586;2;True;33;1;77.6056113243105
485;485;1449490715;2.1509594917299997;0.7896134853360001;0.06879822909830001;2;True;33;1;77.6056113243105
486;486;1449490715;2.1510438919099997;0.7895753383640001;0.0688483417034;2;True;33;1;77.6056113243105
487;487;1449490715;2.15104079247;0.789531648159;0.0689080059528;2;True;33;1;77.6056113243105
488;488;1449490715;2.1510581970200002;0.789626955986;0.0687772333622;2;True;33;1;77.6056113243105
489;489;1449490715;2.15096211433;0.789629936218;0.06873537600039999;2;True;33;1;77.6056113243105
490;490;1449490715;2.1510052681;0.7897579669949999;0.06880979985;2;True;33;1;77.6056113243105
491;491;1449490715;2.15089297295;0.7895967364309999;0.06875642389060001;2;True;33;1;77.6056113243105
492;492;1449490715;2.15103244781;0.7896490693089999;0.0687581673265;2;True;33;1;77.6056113243105
493;493;1449490715;2.15073156357;0.789556086063;0.0685341358185;2;True;33;1;77.6056113243105
494;494;1449490715;2.1506800651599995;0.7895693778990001;0.0687795057893;2;True;33;1;77.6056113243105
495;495;1449490715;2.15082621574;0.7897438406939999;0.0686713010073;2;True;33;1;77.6056113243105
496;496;1449490715;2.15102434158;0.789728343487;0.0687312483788;2;True;33;1;77.6056113243105
497;497;1449490715;2.15104627609;0.789633095264;0.0687680020928;2;True;33;1;77.6056113243105
498;498;1449490715;2.15048456192;0.789802193642;0.0684928968549;2;True;33;1;77.6056113243105
499;499;1449490715;2.15069031715;0.7893701195720001;0.0689063817263;2;True;33;1;77.6056113243105
500;500;1449490715;2.15122461319;0.78978395462;0.0687713027;2;True;33;1;77.6056113243105
501;501;1449490715;2.1511907577500002;0.7894926071170001;0.0687458589673;2;True;33;1;77.6056113243105
502;502;1449490715;2.15090942383;0.789537370205;0.06876429170369999;2;True;33;1;77.6056113243105
503;503;1449490715;2.1506628990200003;0.7894912958149999;0.0687449648976;2;True;33;1;77.6056113243105
504;504;1449490715;2.15114283562;0.7895062565800001;0.06881091743710001;2;True;33;1;77.6056113243105
505;505;1449490715;2.15115690231;0.789651989937;0.069076269865;2;True;33;1;77.6056113243105
506;506;1449490715;2.1504476070400003;0.789196074009;0.0689461752772;2;True;33;1;77.6056113243105
507;507;1449490715;2.15108132362;0.789355158806;0.0687852278352;2;True;33;1;77.6056113243105
508;508;1449490715;2.15078806877;0.7899014353749999;0.0687435492873;2;True;33;1;77.6056113243105
509;509;1449490715;2.15094065666;0.7896460890770001;0.06888810545210002;2;True;33;1;77.6056113243105
510;510;1449490715;2.1511216163599998;0.78966486454;0.06887596845630001;2;True;33;1;77.6056113243105
511;511;1449490715;2.15095353127;0.789565563202;0.06874638795850001;2;True;33;1;77.6056113243105
512;512;1449490715;2.1508388519299997;0.789530217648;0.06873176991939998;2;True;33;1;77.6056113243105
513;513;1449490715;2.15110945702;0.789686143398;0.06874708086249999;2;True;33;1;77.6056113243105
514;514;1449490715;2.1509411335;0.7896252870559999;0.06871458142999999;2;True;33;1;77.6056113243105
515;515;1449490715;2.1509275436400004;0.789634943008;0.0687095150352;2;True;33;1;77.6056113243105
516;516;1449490715;2.15098214149;0.789631009102;0.068841509521;2;True;33;1;77.6056113243105
517;517;1449490715;2.15109968185;0.789658844471;0.0687307938933;2;True;33;1;77.6056113243105
518;518;1449490715;2.15082502365;0.7896217703820001;0.06874538958069999;2;True;33;1;77.6056113243105
519;519;1449490715;2.15089583397;0.7896727919580001;0.0686871632934;2;True;33;1;77.6056113243105
520;520;1449490715;2.15050411224;0.789612710476;0.0684733986855;2;True;33;1;77.6056113243105
521;521;1449490715;2.1506214141799997;0.789388477802;0.06886552274230001;2;True;33;1;77.6056113243105
522;522;1449490715;2.15078353882;0.789492845535;0.06870236992840001;2;True;33;1;77.6056113243105
523;523;1449490715;2.15080142021;0.789636552334;0.0687896832824;2;True;33;1;77.6056113243105
524;524;1449490715;2.1505727767900003;0.78943246603;0.06870068609709999;2;True;33;1;77.6056113243105
525;525;1449490715;2.15047240257;0.7895444035529999;0.0686910077929;2;True;33;1;77.6056113243105
526;526;1449490715;2.1506633758500002;0.789285838604;0.0687783062458;2;True;33;1;77.6056113243105
527;527;1449490715;2.15079760551;0.789558887482;0.068681679666;2;True;33;1;77.6056113243105
528;528;1449490715;2.15089035034;0.7897577285770001;0.068518280983;2;True;33;1;77.6056113243105
529;529;1449490715;2.15068674088;0.789674758911;0.068647287786;2;True;33;1;77.6056113243105
530;530;1449490715;2.15043020248;0.789570271969;0.06872356683019999;2;True;33;1;77.6056113243105
531;531;1449490715;2.1507966518400004;0.789669632912;0.06883151829239999;2;True;33;1;77.6056113243105
532;532;1449490715;2.15089821815;0.7895476818080001;0.06882669031619999;2;True;33;1;77.6056113243105
533;533;1449490715;2.15082526207;0.7896422147750001;0.0686054751277;2;True;33;1;77.6056113243105
534;534;1449490715;2.1508808136;0.7895153164859999;0.0686991140246;2;True;33;1;77.6056113243105
535;535;1449490715;2.15111589432;0.789775311947;0.0687037631869;2;True;33;1;77.6056113243105
536;536;1449490715;2.15086126328;0.789558172226;0.0686770379543;2;True;33;1;77.6056113243105
537;537;1449490715;2.1501257419599997;0.7892147302629999;0.0686675831676;2;True;33;1;77.6056113243105
538;538;1449490715;2.15069484711;0.7894273400309999;0.0688138380647;2;True;33;1;77.6056113243105
539;539;1449490715;2.15094995499;0.789597690105;0.06878711283210001;2;True;33;1;77.6056113243105
540;540;1449490715;2.1508347988099996;0.7897094488140001;0.0687078684568;2;True;33;1;77.6056113243105
541;541;1449490715;2.15035462379;0.7895374298100001;0.0683615282178;2;True;33;1;77.6056113243105
542;542;1449490715;2.15100932121;0.7896800041200001;0.0687062516809;2;True;33;1;77.6056113243105
543;543;1449490715;2.15092086792;0.7896271348;0.068877376616;2;True;33;1;77.6056113243105
544;544;1449490715;2.15069770813;0.789567232132;0.0686450004578;2;True;33;1;77.6056113243105
545;545;1449490715;2.15111303329;0.789515435696;0.06872223317619999;2;True;33;1;77.6056113243105
546;546;1449490715;2.1509757041900004;0.789666831493;0.0687156319618;2;True;33;1;77.6056113243105
547;547;1449490715;2.15074324608;0.789717853069;0.0686448588967;2;True;33;1;77.6056113243105
548;548;1449490715;2.1506106853499998;0.7895292043690001;0.0687897875905;2;True;33;1;77.6056113243105
549;549;1449490715;2.1506752967800002;0.7893335819239999;0.0687295123935;2;True;33;1;77.6056113243105
550;550;1449490715;2.15100455284;0.789651751518;0.0686989873648;2;True;33;1;77.6056113243105
551;551;1449490715;2.1506614685099996;0.789473176003;0.0688398554921;2;True;33;1;77.6056113243105
552;552;1449490715;2.15069270134;0.789805352688;0.0684239119291;2;True;33;1;77.6056113243105
553;553;1449490715;2.15082859993;0.789721548557;0.068715043366;2;True;33;1;77.6056113243105
554;554;1449490715;2.15085434914;0.7895987033840001;0.0686781257391;2;True;33;1;77.6056113243105
555;555;1449490715;2.1503341198;0.789563179016;0.06863042712209999;2;True;33;1;77.6056113243105
556;556;1449490715;2.1505935192099996;0.7896184921259999;0.0686893388629;2;True;33;1;77.6056113243105
557;557;1449490715;2.1509323120099997;0.789613902569;0.0686939433217;2;True;33;1;77.6056113243105
558;558;1449490715;2.15102553368;0.789603948593;0.0687360838056;2;True;33;1;77.6056113243105
559;559;1449490715;2.1511335372900002;0.789733827114;0.068711809814;2;True;33;1;77.6056113243105
560;560;1449490715;2.15090560913;0.789650559425;0.0687014535069;2;True;33;1;77.6056113243105
561;561;1449490715;2.15074253082;0.7896660566329999;0.0685451179743;2;True;33;1;77.6056113243105
562;562;1449490715;2.15115594864;0.789758682251;0.06872268766160002;2;True;33;1;77.6056113243105
563;563;1449490715;2.1509482860599998;0.789583444595;0.0687295868993;2;True;33;1;77.6056113243105
564;564;1449490715;2.15108966827;0.7896816134450001;0.0687419772148;2;True;33;1;77.6056113243105
565;565;1449490715;2.1510379314400003;0.78953576088;0.06889299303289999;2;True;33;1;77.6056113243105
566;566;1449490715;2.1506242752099998;0.789530336857;0.0687358304858;2;True;33;1;77.6056113243105
567;567;1449490715;2.1509799957299998;0.78966486454;0.0687613859773;2;True;33;1;77.6056113243105
568;568;1449490715;2.1511001586900003;0.789382874966;0.068749755621;2;True;33;1;77.6056113243105
569;569;1449490715;2.1509816646599997;0.789718747139;0.06874673068519999;2;True;33;1;77.6056113243105
570;570;1449490715;2.1507139205900003;0.789602398872;0.0686397254467;2;True;33;1;77.6056113243105
571;571;1449490715;2.15102171898;0.789500355721;0.0687771961093;2;True;33;1;77.6056113243105
572;572;1449490715;2.15099000931;0.789630413055;0.0687313452363;2;True;33;1;77.6056113243105
573;573;1449490715;2.1510972976700002;0.7897545099259999;0.0688433796167;2;True;33;1;77.6056113243105
574;574;1449490715;2.15086483955;0.789480686188;0.0687375590205;2;True;33;1;77.6056113243105
575;575;1449490715;2.15104722977;0.789613842964;0.068776473403;2;True;33;1;77.6056113243105
576;576;1449490715;2.15060400963;0.789494395256;0.0687759593129;2;True;33;1;77.6056113243105
577;577;1449490715;2.1509552002000003;0.789661765099;0.06874691694969999;2;True;33;1;77.6056113243105
578;578;1449490715;2.15050315857;0.789650797844;0.0684310421348;2;True;33;1;77.6056113243105
579;579;1449490715;2.1504988670299996;0.7893546819689999;0.0689032822847;2;True;33;1;77.6056113243105
580;580;1449490715;2.15091395378;0.789603710175;0.0687712803483;2;True;33;1;77.6056113243105
581;581;1449490715;2.15056753159;0.789613902569;0.0686368271708;2;True;33;1;77.6056113243105
582;582;1449490715;2.1510610580400003;0.789674043655;0.06872189790010001;2;True;33;1;77.6056113243105
583;583;1449490715;2.15062975883;0.789583563805;0.0687326714396;2;True;33;1;77.6056113243105
584;584;1449490715;2.15038204193;0.7895994186399999;0.06858446449040001;2;True;33;1;77.6056113243105
585;585;1449490715;2.15100336075;0.7895707488060001;0.06877866387369999;2;True;33;1;77.6056113243105
586;586;1449490715;2.1508264541599997;0.789579868317;0.06875906139610001;2;True;33;1;77.6056113243105
587;587;1449490715;2.15097546577;0.789702475071;0.0687546506524;2;True;33;1;77.6056113243105
588;588;1449490715;2.15119767189;0.789731383324;0.0687997490168;2;True;33;1;77.6056113243105
589;589;1449490715;2.1506361961400002;0.789490461349;0.06895542144780001;2;True;33;1;77.6056113243105
590;590;1449490715;2.15103745461;0.789669632912;0.0687904059887;2;True;33;1;77.6056113243105
591;591;1449490716;2.1511049270599996;0.7897307276729999;0.0687628164887;3;True;33;1;77.6056113243105
592;592;1449490716;2.15072154999;0.789410710335;0.068882972002;3;True;33;1;77.6056113243105
593;593;1449490716;2.1505901813499997;0.7898048758509999;0.0687869787216;3;True;33;1;77.6056113243105
594;594;1449490716;2.15083670616;0.789475381374;0.06891045719389999;3;True;33;1;77.6056113243105
595;595;1449490716;2.15052032471;0.789576113224;0.0685693472624;3;True;33;1;77.6056113243105
596;596;1449490716;2.15098023415;0.789770483971;0.0688040852547;3;True;33;1;77.6056113243105
597;597;1449490716;2.1510515213;0.789669275284;0.0687966570258;3;True;33;1;77.6056113243105
598;598;1449490716;2.1511487960799998;0.789578080177;0.068805128336;3;True;33;1;77.6056113243105
599;599;1449490716;2.1509692668900002;0.789666831493;0.06891466677189999;3;True;33;1;77.6056113243105
600;600;1449490716;2.15111804008;0.78938293457;0.0687906444073;3;True;33;1;77.6056113243105
601;601;1449490716;2.15095424652;0.789534687996;0.06885625422;3;True;33;1;77.6056113243105
602;602;1449490716;2.15106368065;0.789681553841;0.0687865763903;3;True;33;1;77.6056113243105
603;603;1449490716;2.15117573738;0.7897720932960001;0.06876733154060001;3;True;33;1;77.6056113243105
604;604;1449490716;2.15081119537;0.789763689041;0.0687677636743;3;True;33;1;77.6056113243105
605;605;1449490716;2.15078043938;0.789391875267;0.06892640888689999;3;True;33;1;77.6056113243105
606;606;1449490716;2.15105891228;0.7894579172130001;0.0688602998853;3;True;33;1;77.6056113243105
607;607;1449490716;2.15077757835;0.789682865143;0.06893809884789999;3;True;33;1;77.6056113243105
608;608;1449490716;2.15073180199;0.789388000965;0.06888648122550001;3;True;33;1;77.6056113243105
609;609;1449490716;2.15122532845;0.789628267288;0.0690175965428;3;True;33;1;77.6056113243105
610;610;1449490716;2.15097856522;0.7896327376369999;0.0687496736646;3;True;33;1;77.6056113243105
611;611;1449490716;2.15105938911;0.789371669292;0.0690017268062;3;True;33;1;77.6056113243105
612;612;1449490716;2.15092492104;0.789510071278;0.0687583461404;3;True;33;1;77.6056113243105
613;613;1449490716;2.1508784294099996;0.789730846882;0.06870482116940001;3;True;33;1;77.6056113243105
614;614;1449490716;2.1508810520200004;0.7895694375040001;0.06874163448810001;3;True;33;1;77.6056113243105
