;Unnamed: 0;header_stamp_secs;pose_position_x;pose_position_y;pose_position_z;seconds;drop_values;flight_number;label;dtw
0;0;1449490857;2.13951945305;0.972949504852;0.06696815043689999;0;True;34;1;72.12732091173832
1;1;1449490857;2.13951539993;0.9729250669480001;0.06696113199;0;True;34;1;72.12732091173832
2;2;1449490857;2.1397526264200004;0.973080813885;0.0669582784176;0;True;34;1;72.12732091173832
3;3;1449490857;2.13979125023;0.973092198372;0.0669603869319;0;True;34;1;72.12732091173832
4;4;1449490857;2.1392331123400004;0.973016679287;0.0671332627535;0;True;34;1;72.12732091173832
5;5;1449490857;2.13962936401;0.9730141162870001;0.066953510046;0;True;34;1;72.12732091173832
6;6;1449490857;2.1394846439400004;0.9730224013330001;0.06692267954350001;0;True;34;1;72.12732091173832
7;7;1449490857;2.1396665573099996;0.9729638695720001;0.0670476928353;0;True;34;1;72.12732091173832
8;8;1449490857;2.1395461559299997;0.972949504852;0.0669374391437;0;True;34;1;72.12732091173832
9;9;1449490857;2.13939929008;0.9730327129359999;0.06695198267699999;0;True;34;1;72.12732091173832
10;10;1449490857;2.13932728767;0.9731414914129999;0.0669737160206;0;True;34;1;72.12732091173832
11;11;1449490857;2.1394007206;0.973031103611;0.06695529073480001;0;True;34;1;72.12732091173832
12;12;1449490857;2.13935303688;0.973071694374;0.06692690402269999;0;True;34;1;72.12732091173832
13;13;1449490857;2.13923072815;0.972972452641;0.0669690668583;0;True;34;1;72.12732091173832
14;14;1449490857;2.13946962357;0.9730601310729999;0.066996909678;0;True;34;1;72.12732091173832
15;15;1449490857;2.1394495964099995;0.9728499054909999;0.0669408887625;0;True;34;1;72.12732091173832
16;16;1449490857;2.1394648551900004;0.973024904728;0.0669497475028;0;True;34;1;72.12732091173832
17;17;1449490857;2.13959646225;0.9729931354520001;0.0669484436512;0;True;34;1;72.12732091173832
18;18;1449490857;2.13940548897;0.972966909409;0.06714916974309999;0;True;34;1;72.12732091173832
19;19;1449490857;2.13970398903;0.9730993509289999;0.0669528692961;0;True;34;1;72.12732091173832
20;20;1449490857;2.13944530487;0.9728505015369999;0.0669382438064;0;True;34;1;72.12732091173832
21;21;1449490857;2.13931846619;0.972865998745;0.066924251616;0;True;34;1;72.12732091173832
22;22;1449490857;2.1394820213299997;0.972861528397;0.0669401958585;0;True;34;1;72.12732091173832
23;23;1449490857;2.1396083831799997;0.9729726910590001;0.0669423490763;0;True;34;1;72.12732091173832
24;24;1449490857;2.1394944191;0.9729642272;0.0669369474053;0;True;34;1;72.12732091173832
25;25;1449490858;2.13940906525;0.973015248775;0.0669500678778;1;True;34;1;72.12732091173832
26;26;1449490858;2.13958382607;0.9728245735169999;0.06712481379509999;1;True;34;1;72.12732091173832
27;27;1449490858;2.13971328735;0.9727407693860001;0.0673381239176;1;True;34;1;72.12732091173832
28;28;1449490858;2.13906812668;0.973077178001;0.0670780539513;1;True;34;1;72.12732091173832
29;29;1449490858;2.1397550106;0.9730993509289999;0.0669741332531;1;True;34;1;72.12732091173832
30;30;1449490858;2.13965988159;0.972993671894;0.0669542998075;1;True;34;1;72.12732091173832
31;31;1449490858;2.1395721435499997;0.972882032394;0.06695791333909999;1;True;34;1;72.12732091173832
32;32;1449490858;2.13955402374;0.9728892445559999;0.0669306889176;1;True;34;1;72.12732091173832
33;33;1449490858;2.13967561722;0.97293806076;0.0670751407743;1;True;34;1;72.12732091173832
34;34;1449490858;2.13973021507;0.972780644894;0.0672243013978;1;True;34;1;72.12732091173832
35;35;1449490858;2.1396780013999996;0.9730358123780001;0.0669468268752;1;True;34;1;72.12732091173832
36;36;1449490858;2.13963842392;0.972805380821;0.06716659665109999;1;True;34;1;72.12732091173832
37;37;1449490858;2.13977956772;0.9731013774869999;0.06695088744160001;1;True;34;1;72.12732091173832
38;38;1449490858;2.13980197906;0.972980737686;0.0671747103333;1;True;34;1;72.12732091173832
39;39;1449490858;2.13920593262;0.972984552383;0.06688129156830001;1;True;34;1;72.12732091173832
40;40;1449490858;2.13924264908;0.972856044769;0.0669452473521;1;True;34;1;72.12732091173832
41;41;1449490858;2.13925123215;0.972796142101;0.0671736076474;1;True;34;1;72.12732091173832
42;42;1449490858;2.1392657756799998;0.973077058792;0.0669109970331;1;True;34;1;72.12732091173832
43;43;1449490858;2.13944792747;0.9731150269509999;0.0669319853187;1;True;34;1;72.12732091173832
44;44;1449490858;2.1396617889400003;0.9729398489;0.0669586136937;1;True;34;1;72.12732091173832
45;45;1449490858;2.13951802254;0.972882211208;0.06695494055750001;1;True;34;1;72.12732091173832
46;46;1449490858;2.13918113708;0.9731990695;0.0669070407748;1;True;34;1;72.12732091173832
47;47;1449490858;2.13945055008;0.972925662994;0.066934376955;1;True;34;1;72.12732091173832
48;48;1449490858;2.1396586895;0.972870469093;0.0671454742551;1;True;34;1;72.12732091173832
49;49;1449490858;2.1395471096;0.973179340363;0.0671553984284;1;True;34;1;72.12732091173832
50;50;1449490858;2.13965940475;0.972956597805;0.066948197782;1;True;34;1;72.12732091173832
51;51;1449490858;2.1390399932900004;0.973025083542;0.0670013874769;1;True;34;1;72.12732091173832
52;52;1449490858;2.13917779922;0.972899079323;0.06690026819709999;1;True;34;1;72.12732091173832
53;53;1449490858;2.13904166222;0.973250508308;0.0665014758706;1;True;34;1;72.12732091173832
54;54;1449490858;2.1394748687700003;0.972854077816;0.0669409781694;1;True;34;1;72.12732091173832
55;55;1449490858;2.13976454735;0.973064959049;0.0669553652406;1;True;34;1;72.12732091173832
56;56;1449490858;2.1396911144299997;0.973040282726;0.0669639408588;1;True;34;1;72.12732091173832
57;57;1449490858;2.13960146904;0.972958266735;0.066947735846;1;True;34;1;72.12732091173832
58;58;1449490858;2.1391637325299997;0.972977340221;0.0669709965587;1;True;34;1;72.12732091173832
59;59;1449490858;2.13954949379;0.973153412342;0.06694090366359999;1;True;34;1;72.12732091173832
60;60;1449490858;2.13965845108;0.972801625729;0.0672798156738;1;True;34;1;72.12732091173832
61;61;1449490858;2.13959217072;0.97300863266;0.0669925287366;1;True;34;1;72.12732091173832
62;62;1449490858;2.13923764229;0.973009824753;0.0669201090932;1;True;34;1;72.12732091173832
63;63;1449490858;2.13961172104;0.972920298576;0.06695073842999999;1;True;34;1;72.12732091173832
64;64;1449490858;2.139503479;0.972817122936;0.0670689567924;1;True;34;1;72.12732091173832
65;65;1449490858;2.1395816803;0.973117113113;0.0670001655817;1;True;34;1;72.12732091173832
66;66;1449490858;2.13961791992;0.9729747772220001;0.0669418349862;1;True;34;1;72.12732091173832
67;67;1449490858;2.1395182609599996;0.973048567772;0.0669305920601;1;True;34;1;72.12732091173832
68;68;1449490858;2.13946056366;0.9730319380760001;0.0669357031584;1;True;34;1;72.12732091173832
69;69;1449490858;2.13953495026;0.973158836365;0.06694651395080001;1;True;34;1;72.12732091173832
70;70;1449490858;2.1398434638999997;0.972543478012;0.0673294812441;1;True;34;1;72.12732091173832
71;71;1449490858;2.13949561119;0.9732075333600001;0.0670087412;1;True;34;1;72.12732091173832
72;72;1449490858;2.13968133926;0.972996652126;0.0670428723097;1;True;34;1;72.12732091173832
73;73;1449490858;2.13923931122;0.972829639912;0.0670111551881;1;True;34;1;72.12732091173832
74;74;1449490858;2.1394298076599996;0.972883939743;0.0671705380082;1;True;34;1;72.12732091173832
75;75;1449490858;2.13929700851;0.97295486927;0.0669898465276;1;True;34;1;72.12732091173832
76;76;1449490858;2.13957357407;0.9727923870090001;0.0671533718705;1;True;34;1;72.12732091173832
77;77;1449490858;2.1397931575799998;0.973061561584;0.0669744610786;1;True;34;1;72.12732091173832
78;78;1449490858;2.13936400414;0.972732484341;0.0671788826585;1;True;34;1;72.12732091173832
79;79;1449490858;2.13944292068;0.9731204509739999;0.0670434013009;1;True;34;1;72.12732091173832
80;80;1449490858;2.13932228088;0.972928881645;0.0669285282493;1;True;34;1;72.12732091173832
81;81;1449490858;2.13942027092;0.972922563553;0.06701671332119999;1;True;34;1;72.12732091173832
82;82;1449490858;2.13944029808;0.972993314266;0.0669237524271;1;True;34;1;72.12732091173832
83;83;1449490858;2.13932442665;0.972876369953;0.0669259056449;1;True;34;1;72.12732091173832
84;84;1449490858;2.13900160789;0.9732291698459999;0.06653110682959999;1;True;34;1;72.12732091173832
85;85;1449490858;2.1397602558099997;0.9727940559389999;0.0673911198974;1;True;34;1;72.12732091173832
86;86;1449490858;2.13958716393;0.9729349613189999;0.0669416487217;1;True;34;1;72.12732091173832
87;87;1449490858;2.1395196914700003;0.9729341268539999;0.0669917836785;1;True;34;1;72.12732091173832
88;88;1449490858;2.1393983364099998;0.9728434085850001;0.06709257513280001;1;True;34;1;72.12732091173832
89;89;1449490858;2.13941454887;0.973154127598;0.0669499784708;1;True;34;1;72.12732091173832
90;90;1449490858;2.13925433159;0.972883760929;0.0669423490763;1;True;34;1;72.12732091173832
91;91;1449490858;2.13979029655;0.973075807095;0.0669573917985;1;True;34;1;72.12732091173832
92;92;1449490858;2.1395382881200002;0.972989439964;0.06695647537709999;1;True;34;1;72.12732091173832
93;93;1449490858;2.13945579529;0.972967147827;0.0669712126255;1;True;34;1;72.12732091173832
94;94;1449490858;2.13941454887;0.972960948944;0.0669592320919;1;True;34;1;72.12732091173832
95;95;1449490858;2.13954925537;0.972982227802;0.0669179111719;1;True;34;1;72.12732091173832
96;96;1449490858;2.1394803524;0.9729999303820001;0.0670510604978;1;True;34;1;72.12732091173832
97;97;1449490858;2.13953018188;0.973013997078;0.0669073462486;1;True;34;1;72.12732091173832
98;98;1449490858;2.13907670975;0.972895801067;0.0669393539429;1;True;34;1;72.12732091173832
99;99;1449490858;2.13941574097;0.9729066491130001;0.0669634640217;1;True;34;1;72.12732091173832
100;100;1449490858;2.1392323970800002;0.972850441933;0.0670262873173;1;True;34;1;72.12732091173832
101;101;1449490858;2.13967490196;0.973075926304;0.0669400766492;1;True;34;1;72.12732091173832
102;102;1449490858;2.13965272903;0.9729849100110001;0.0669393911958;1;True;34;1;72.12732091173832
103;103;1449490858;2.1394734382599996;0.972832977772;0.0670778676867;1;True;34;1;72.12732091173832
104;104;1449490858;2.13958287239;0.9729784727099999;0.0669421628118;1;True;34;1;72.12732091173832
105;105;1449490858;2.13969612122;0.973057508469;0.06694459170099999;1;True;34;1;72.12732091173832
106;106;1449490858;2.13952612877;0.9724581837649999;0.06764716655019999;1;True;34;1;72.12732091173832
107;107;1449490858;2.1394701004;0.973069608212;0.0669699311256;1;True;34;1;72.12732091173832
108;108;1449490858;2.1395592689500003;0.9731475710870001;0.0669404938817;1;True;34;1;72.12732091173832
109;109;1449490858;2.13935351372;0.972819745541;0.06712215393780001;1;True;34;1;72.12732091173832
110;110;1449490858;2.13947916031;0.9730925559999999;0.0669590458274;1;True;34;1;72.12732091173832
111;111;1449490858;2.1395637989;0.9729546904559999;0.0669436231256;1;True;34;1;72.12732091173832
112;112;1449490858;2.13950133324;0.9729632735250001;0.06695237755780001;1;True;34;1;72.12732091173832
113;113;1449490858;2.13923501968;0.972905576229;0.0670143440366;1;True;34;1;72.12732091173832
114;114;1449490858;2.1397557258599997;0.973113119602;0.06695438176389999;1;True;34;1;72.12732091173832
115;115;1449490858;2.13935756683;0.973133444786;0.06688792258500001;1;True;34;1;72.12732091173832
116;116;1449490858;2.13928675652;0.9729264378550001;0.0669226571918;1;True;34;1;72.12732091173832
117;117;1449490858;2.1389343738599997;0.972925841808;0.0667977258563;1;True;34;1;72.12732091173832
118;118;1449490858;2.1395406723;0.973145246506;0.0669449493289;1;True;34;1;72.12732091173832
119;119;1449490858;2.1389811039;0.973012685776;0.06671573221680001;1;True;34;1;72.12732091173832
120;120;1449490858;2.1396214962;0.972815513611;0.0671963170171;1;True;34;1;72.12732091173832
121;121;1449490858;2.1395020484900003;0.9729446768760001;0.066965252161;1;True;34;1;72.12732091173832
122;122;1449490858;2.1396420002000003;0.9729923009870001;0.06694510579110001;1;True;34;1;72.12732091173832
123;123;1449490858;2.13969230652;0.973050773144;0.0669425576925;1;True;34;1;72.12732091173832
124;124;1449490858;2.1396214962;0.97277867794;0.067224368453;1;True;34;1;72.12732091173832
125;125;1449490858;2.13957238197;0.972988724709;0.0669212862849;1;True;34;1;72.12732091173832
126;126;1449490858;2.13934326172;0.9729280471799999;0.0668637901545;1;True;34;1;72.12732091173832
127;127;1449490858;2.13917279243;0.9729066491130001;0.0669857412577;1;True;34;1;72.12732091173832
128;128;1449490858;2.13928627968;0.97267049551;0.0669482648373;1;True;34;1;72.12732091173832
129;129;1449490858;2.1395037174200002;0.97313195467;0.06693524122240001;1;True;34;1;72.12732091173832
130;130;1449490858;2.13960242271;0.97304135561;0.0669076368213;1;True;34;1;72.12732091173832
131;131;1449490858;2.13938331604;0.9729834795000001;0.0669114515185;1;True;34;1;72.12732091173832
132;132;1449490858;2.1395998001099996;0.97298592329;0.0669261440635;1;True;34;1;72.12732091173832
133;133;1449490858;2.13954091072;0.972945094109;0.0669148415327;1;True;34;1;72.12732091173832
134;134;1449490858;2.13967442513;0.973128795624;0.0669716075063;1;True;34;1;72.12732091173832
135;135;1449490858;2.13949370384;0.972785413265;0.06742811203;1;True;34;1;72.12732091173832
136;136;1449490858;2.1398513317099996;0.9731293320659999;0.0669426545501;1;True;34;1;72.12732091173832
137;137;1449490858;2.13910198212;0.972812891006;0.06708582490680001;1;True;34;1;72.12732091173832
138;138;1449490858;2.13948965073;0.973077893257;0.0669731199741;1;True;34;1;72.12732091173832
139;139;1449490858;2.13973641396;0.973059117794;0.0669635757804;1;True;34;1;72.12732091173832
140;140;1449490858;2.1394867897;0.9732992053030001;0.0668323338032;1;True;34;1;72.12732091173832
141;141;1449490858;2.13963747025;0.973057091236;0.0670359581709;1;True;34;1;72.12732091173832
142;142;1449490858;2.1396613121;0.973045229912;0.06695032864810001;1;True;34;1;72.12732091173832
143;143;1449490858;2.13946437836;0.973096966743;0.0670583024621;1;True;34;1;72.12732091173832
144;144;1449490858;2.13928198814;0.972936928272;0.0669926926494;1;True;34;1;72.12732091173832
145;145;1449490858;2.13951134682;0.9728245139120001;0.0669515579939;1;True;34;1;72.12732091173832
146;146;1449490858;2.1391592025799997;0.972871363163;0.0668930336833;1;True;34;1;72.12732091173832
147;147;1449490858;2.13922405243;0.972869873047;0.0670325756073;1;True;34;1;72.12732091173832
148;148;1449490858;2.1394803524;0.9731450676919999;0.06699692457909999;1;True;34;1;72.12732091173832
149;149;1449490858;2.13957643509;0.972967386246;0.06704046577219999;1;True;34;1;72.12732091173832
150;150;1449490858;2.13949179649;0.9726871848109999;0.06706079840660001;1;True;34;1;72.12732091173832
151;151;1449490858;2.1395585537;0.9728998541830001;0.0669583752751;1;True;34;1;72.12732091173832
152;152;1449490858;2.13940501213;0.9728164672849999;0.0670882463455;1;True;34;1;72.12732091173832
153;153;1449490858;2.13911724091;0.973052084446;0.0668493509293;1;True;34;1;72.12732091173832
154;154;1449490858;2.1396229267099995;0.972656369209;0.067362383008;1;True;34;1;72.12732091173832
155;155;1449490858;2.13951063156;0.97295832634;0.0669924691319;1;True;34;1;72.12732091173832
156;156;1449490858;2.13951778412;0.972844183445;0.0669512972236;1;True;34;1;72.12732091173832
157;157;1449490858;2.13943433762;0.973104000092;0.0669486969709;1;True;34;1;72.12732091173832
158;158;1449490858;2.13945770264;0.9729053378110001;0.0669530183077;1;True;34;1;72.12732091173832
159;159;1449490858;2.13955330849;0.972859203815;0.0669550448656;1;True;34;1;72.12732091173832
160;160;1449490858;2.13956522942;0.972830653191;0.06695008277890001;1;True;34;1;72.12732091173832
161;161;1449490858;2.13974499702;0.973077237606;0.0670998245478;1;True;34;1;72.12732091173832
162;162;1449490858;2.13920211792;0.9730370044709999;0.06696100533009999;1;True;34;1;72.12732091173832
163;163;1449490858;2.13908553123;0.972865462303;0.0668564289808;1;True;34;1;72.12732091173832
164;164;1449490858;2.13957595825;0.973079919815;0.0669967606664;1;True;34;1;72.12732091173832
165;165;1449490858;2.13953852654;0.972935795784;0.0669443756342;1;True;34;1;72.12732091173832
166;166;1449490858;2.13936114311;0.972926199436;0.0669521912932;1;True;34;1;72.12732091173832
167;167;1449490858;2.13924431801;0.972905576229;0.06713547557590001;1;True;34;1;72.12732091173832
168;168;1449490858;2.1395156383500002;0.972855091095;0.0669478103518;1;True;34;1;72.12732091173832
169;169;1449490858;2.13909387589;0.972934901714;0.06692571192980001;1;True;34;1;72.12732091173832
170;170;1449490858;2.13966703415;0.9729521870610001;0.0669619739056;1;True;34;1;72.12732091173832
171;171;1449490858;2.13945794106;0.9729837179180001;0.0669549554586;1;True;34;1;72.12732091173832
172;172;1449490858;2.13967108727;0.9729952216150001;0.0669572278857;1;True;34;1;72.12732091173832
173;173;1449490858;2.1395182609599996;0.973067462444;0.0669692456722;1;True;34;1;72.12732091173832
174;174;1449490858;2.13933634758;0.9729354381559999;0.0669725835323;1;True;34;1;72.12732091173832
175;175;1449490858;2.13977813721;0.973059654236;0.0669654011726;1;True;34;1;72.12732091173832
176;176;1449490858;2.13957834244;0.972868442535;0.066982857883;1;True;34;1;72.12732091173832
177;177;1449490858;2.13956665993;0.972781538963;0.0671549141407;1;True;34;1;72.12732091173832
178;178;1449490858;2.1392438411700003;0.9727709293369999;0.0669868141413;1;True;34;1;72.12732091173832
179;179;1449490858;2.1390779018400004;0.972658813;0.0673107430339;1;True;34;1;72.12732091173832
180;180;1449490858;2.1395637989;0.9731251001360001;0.0669348165393;1;True;34;1;72.12732091173832
181;181;1449490858;2.1397652626;0.9730549454690001;0.0669912472367;1;True;34;1;72.12732091173832
182;182;1449490858;2.13939547539;0.972810268402;0.06718139350409999;1;True;34;1;72.12732091173832
183;183;1449490858;2.13951635361;0.972846865654;0.066951520741;1;True;34;1;72.12732091173832
184;184;1449490858;2.1395125389099996;0.9729449152949999;0.06695260852580001;1;True;34;1;72.12732091173832
185;185;1449490858;2.1396198272699998;0.973041772842;0.066943153739;1;True;34;1;72.12732091173832
186;186;1449490858;2.1395523548099997;0.972851991653;0.0669581145048;1;True;34;1;72.12732091173832
187;187;1449490858;2.13954639435;0.972827613354;0.06699663400650001;1;True;34;1;72.12732091173832
188;188;1449490858;2.13946533203;0.973109781742;0.06701365858319999;1;True;34;1;72.12732091173832
189;189;1449490858;2.13971018791;0.973043859005;0.0669797882438;1;True;34;1;72.12732091173832
190;190;1449490858;2.13974618912;0.972970724106;0.066979251802;1;True;34;1;72.12732091173832
191;191;1449490858;2.13928937912;0.9729387760160001;0.066981755197;1;True;34;1;72.12732091173832
192;192;1449490858;2.13939356804;0.972914636135;0.0670596435666;1;True;34;1;72.12732091173832
193;193;1449490858;2.13961100578;0.9730088114740001;0.06691870838399999;1;True;34;1;72.12732091173832
194;194;1449490858;2.13923478127;0.972781121731;0.0672012791038;1;True;34;1;72.12732091173832
195;195;1449490858;2.13936853409;0.973027169704;0.0668230131269;1;True;34;1;72.12732091173832
196;196;1449490858;2.1398472785900005;0.973130226135;0.0669512674212;1;True;34;1;72.12732091173832
197;197;1449490858;2.1397757530200003;0.9728544950489999;0.0674086585641;1;True;34;1;72.12732091173832
198;198;1449490858;2.1398630142200004;0.9731183052060001;0.06695835292340001;1;True;34;1;72.12732091173832
199;199;1449490858;2.13939714432;0.973143815994;0.06655852496619999;1;True;34;1;72.12732091173832
200;200;1449490858;2.1392083168;0.973279118538;0.0667639747262;1;True;34;1;72.12732091173832
201;201;1449490858;2.1397697925599997;0.973078787327;0.0670247152448;1;True;34;1;72.12732091173832
202;202;1449490858;2.13921046257;0.9727561473849999;0.06695839017630001;1;True;34;1;72.12732091173832
203;203;1449490858;2.13967990875;0.9726016521449999;0.0674306750298;1;True;34;1;72.12732091173832
204;204;1449490858;2.13938903809;0.9733560085299998;0.0666743218899;1;True;34;1;72.12732091173832
205;205;1449490858;2.13955569267;0.9729850888249999;0.0669546350837;1;True;34;1;72.12732091173832
206;206;1449490858;2.1398215293900003;0.972679138184;0.0673341602087;1;True;34;1;72.12732091173832
207;207;1449490858;2.13948225975;0.973046779633;0.0671487748623;1;True;34;1;72.12732091173832
208;208;1449490858;2.13959407806;0.9729775786399999;0.0669361501932;1;True;34;1;72.12732091173832
209;209;1449490858;2.1395606994599996;0.972939789295;0.0673730075359;1;True;34;1;72.12732091173832
210;210;1449490858;2.13947439194;0.972906887531;0.066990852356;1;True;34;1;72.12732091173832
211;211;1449490858;2.13966107368;0.9729968905449999;0.0669426098466;1;True;34;1;72.12732091173832
212;212;1449490858;2.13943362236;0.97296410799;0.0669347494841;1;True;34;1;72.12732091173832
213;213;1449490858;2.13953590393;0.9729373455050001;0.06695839017630001;1;True;34;1;72.12732091173832
214;214;1449490858;2.13954949379;0.9728760719299999;0.0669397190213;1;True;34;1;72.12732091173832
215;215;1449490858;2.13965678215;0.972815215588;0.067307703197;1;True;34;1;72.12732091173832
216;216;1449490858;2.13948249817;0.9729429483409999;0.0669263973832;1;True;34;1;72.12732091173832
217;217;1449490858;2.1397843360900004;0.973090052605;0.0669372305274;1;True;34;1;72.12732091173832
218;218;1449490858;2.1392884254499998;0.9730849862100001;0.06700184941290001;1;True;34;1;72.12732091173832
219;219;1449490858;2.1397116184200002;0.972493648529;0.06735796481369999;1;True;34;1;72.12732091173832
220;220;1449490858;2.1395406723;0.972922027111;0.0669321343303;1;True;34;1;72.12732091173832
221;221;1449490858;2.1392755508400003;0.9729559421539999;0.06694578379390001;1;True;34;1;72.12732091173832
222;222;1449490858;2.13972735405;0.9729421734810001;0.0671631023288;1;True;34;1;72.12732091173832
223;223;1449490858;2.1394107341799997;0.9729557037350001;0.0669076368213;1;True;34;1;72.12732091173832
224;224;1449490858;2.13957834244;0.97294741869;0.0669827386737;1;True;34;1;72.12732091173832
225;225;1449490858;2.13961935043;0.9731604456899999;0.0672114863992;1;True;34;1;72.12732091173832
226;226;1449490858;2.1395471096;0.972822129726;0.0670481473207;1;True;34;1;72.12732091173832
227;227;1449490858;2.13962244987;0.9729909300799998;0.06692961603400001;1;True;34;1;72.12732091173832
228;228;1449490858;2.13931035995;0.972966134548;0.0669365823269;1;True;34;1;72.12732091173832
229;229;1449490858;2.1393353939099997;0.972850203514;0.0669245272875;1;True;34;1;72.12732091173832
230;230;1449490858;2.1395006179799996;0.973065793514;0.0669922828674;1;True;34;1;72.12732091173832
231;231;1449490858;2.1396098136900004;0.973121345043;0.0669743791223;1;True;34;1;72.12732091173832
232;232;1449490858;2.13949990273;0.9728749990459999;0.06704201549290001;1;True;34;1;72.12732091173832
233;233;1449490858;2.13930439949;0.973076283932;0.0669260025024;1;True;34;1;72.12732091173832
234;234;1449490858;2.1397395134;0.9728646278380001;0.0674021616578;1;True;34;1;72.12732091173832
235;235;1449490858;2.13946199417;0.972797691822;0.0671083405614;1;True;34;1;72.12732091173832
236;236;1449490858;2.13942337036;0.973013341427;0.0669399350882;1;True;34;1;72.12732091173832
237;237;1449490858;2.13927149773;0.9728525280949999;0.0669259205461;1;True;34;1;72.12732091173832
238;238;1449490858;2.13938999176;0.972907841206;0.0669398009777;1;True;34;1;72.12732091173832
239;239;1449490858;2.13976144791;0.973074376583;0.0669254586101;1;True;34;1;72.12732091173832
240;240;1449490858;2.13900208473;0.973228394985;0.0667581483722;1;True;34;1;72.12732091173832
241;241;1449490858;2.13943314552;0.9730409383769999;0.0665572434664;1;True;34;1;72.12732091173832
242;242;1449490858;2.1393764019;0.97283911705;0.0670642405748;1;True;34;1;72.12732091173832
243;243;1449490858;2.1393814086900003;0.9730346798899999;0.0669372603297;1;True;34;1;72.12732091173832
244;244;1449490858;2.13971304893;0.9730721116069999;0.0669699236751;1;True;34;1;72.12732091173832
245;245;1449490858;2.13952374458;0.9729266166689999;0.0669587850571;1;True;34;1;72.12732091173832
246;246;1449490858;2.13951587677;0.972927391529;0.06693845242259999;1;True;34;1;72.12732091173832
247;247;1449490858;2.13942456245;0.972981154919;0.0669289752841;1;True;34;1;72.12732091173832
248;248;1449490858;2.13962721825;0.973023951054;0.0669487640262;1;True;34;1;72.12732091173832
249;249;1449490858;2.13958454132;0.9729301333429999;0.06706939637659999;1;True;34;1;72.12732091173832
250;250;1449490858;2.13965439796;0.972989737988;0.0669401213527;1;True;34;1;72.12732091173832
251;251;1449490858;2.1393289566;0.972905874252;0.0669086575508;1;True;34;1;72.12732091173832
252;252;1449490858;2.1396698951700004;0.973013222218;0.0669762268662;1;True;34;1;72.12732091173832
253;253;1449490858;2.13944220543;0.973091423512;0.0669330134988;1;True;34;1;72.12732091173832
254;254;1449490858;2.1395046711;0.9728646278380001;0.0669304579496;1;True;34;1;72.12732091173832
255;255;1449490858;2.13926672935;0.972976326942;0.0669071674347;1;True;34;1;72.12732091173832
256;256;1449490858;2.13971996307;0.972941935062;0.0671542063355;1;True;34;1;72.12732091173832
257;257;1449490858;2.13947272301;0.972867965698;0.0671134591103;1;True;34;1;72.12732091173832
258;258;1449490858;2.13925528526;0.973002672195;0.0670338198543;1;True;34;1;72.12732091173832
259;259;1449490858;2.13947629929;0.973079919815;0.06696264445780001;1;True;34;1;72.12732091173832
260;260;1449490858;2.13960766792;0.9729754924770001;0.0669235140085;1;True;34;1;72.12732091173832
261;261;1449490858;2.1394276619;0.9728651642799999;0.0669311881065;1;True;34;1;72.12732091173832
262;262;1449490858;2.1396188736000004;0.973000645638;0.0669482052326;1;True;34;1;72.12732091173832
263;263;1449490859;2.13938426971;0.972785651684;0.0670163109899;2;True;34;1;72.12732091173832
264;264;1449490859;2.1394894123099997;0.97282409668;0.0670561119914;2;True;34;1;72.12732091173832
265;265;1449490859;2.13978719711;0.973183035851;0.0669418498874;2;True;34;1;72.12732091173832
266;266;1449490859;2.1392464637799997;0.9729599952700001;0.06692963093519999;2;True;34;1;72.12732091173832
267;267;1449490859;2.13951301575;0.972907781601;0.0669455006719;2;True;34;1;72.12732091173832
268;268;1449490859;2.13947582245;0.9729714989659999;0.0670851990581;2;True;34;1;72.12732091173832
269;269;1449490859;2.13955712318;0.972865581512;0.0670304968953;2;True;34;1;72.12732091173832
270;270;1449490859;2.13898968697;0.973047733307;0.0670295581222;2;True;34;1;72.12732091173832
271;271;1449490859;2.1396043300599996;0.973011374474;0.0672398731112;2;True;34;1;72.12732091173832
272;272;1449490859;2.13966822624;0.9728028774259999;0.0672039315104;2;True;34;1;72.12732091173832
273;273;1449490859;2.13978934288;0.9731074571610001;0.0669365376234;2;True;34;1;72.12732091173832
274;274;1449490859;2.13955783844;0.9730501174930001;0.0669036358595;2;True;34;1;72.12732091173832
275;275;1449490859;2.1396145820599997;0.97305315733;0.0669375732541;2;True;34;1;72.12732091173832
276;276;1449490859;2.13959479332;0.97293227911;0.0669286474586;2;True;34;1;72.12732091173832
277;277;1449490859;2.13930416107;0.972983241081;0.0668985918164;2;True;34;1;72.12732091173832
278;278;1449490859;2.13978672028;0.9730917811390001;0.06694174557919999;2;True;34;1;72.12732091173832
279;279;1449490859;2.13962101936;0.972971141338;0.06696213036780001;2;True;34;1;72.12732091173832
280;280;1449490859;2.13925457001;0.972929656506;0.0669594779611;2;True;34;1;72.12732091173832
281;281;1449490859;2.1391468048099997;0.972876250744;0.0672995522618;2;True;34;1;72.12732091173832
282;282;1449490859;2.1395189762099998;0.9730195999150001;0.06691056489939999;2;True;34;1;72.12732091173832
283;283;1449490859;2.13906908035;0.9726477265360001;0.0671502798796;2;True;34;1;72.12732091173832
284;284;1449490859;2.13931632042;0.9727490544320001;0.0670662373304;2;True;34;1;72.12732091173832
285;285;1449490859;2.1394135952;0.972827017307;0.06707792729140001;2;True;34;1;72.12732091173832
286;286;1449490859;2.13964223862;0.972977101803;0.0669405907393;2;True;34;1;72.12732091173832
287;287;1449490859;2.13949966431;0.972976863384;0.0669264420867;2;True;34;1;72.12732091173832
288;288;1449490859;2.13962173462;0.972999572754;0.066992841661;2;True;34;1;72.12732091173832
289;289;1449490859;2.13968491554;0.973095595837;0.0669563338161;2;True;34;1;72.12732091173832
290;290;1449490859;2.13958954811;0.972967386246;0.0669502317905;2;True;34;1;72.12732091173832
291;291;1449490859;2.1397376060499997;0.973063707352;0.06695585697890001;2;True;34;1;72.12732091173832
292;292;1449490859;2.1397757530200003;0.973012566566;0.0670521557331;2;True;34;1;72.12732091173832
293;293;1449490859;2.1396720409400003;0.9729951024060001;0.0669445618987;2;True;34;1;72.12732091173832
294;294;1449490859;2.13949275017;0.972954332829;0.0669209435582;2;True;34;1;72.12732091173832
295;295;1449490859;2.1394984722099997;0.9730148315430001;0.06689871847630001;2;True;34;1;72.12732091173832
296;296;1449490859;2.13965439796;0.9730828404430001;0.06703002750869999;2;True;34;1;72.12732091173832
297;297;1449490859;2.13962984085;0.9729754924770001;0.066934093833;2;True;34;1;72.12732091173832
298;298;1449490859;2.1395037174200002;0.9728631973270001;0.066977225244;2;True;34;1;72.12732091173832
299;299;1449490859;2.13973641396;0.9730514884;0.066990852356;2;True;34;1;72.12732091173832
300;300;1449490859;2.13955545425;0.972938477993;0.0669290199876;2;True;34;1;72.12732091173832
301;301;1449490859;2.13954544067;0.973142445087;0.0669309645891;2;True;34;1;72.12732091173832
302;302;1449490859;2.13983440399;0.972506165504;0.0675283223391;2;True;34;1;72.12732091173832
303;303;1449490859;2.13962388039;0.973161458969;0.0669334679842;2;True;34;1;72.12732091173832
304;304;1449490859;2.13956856728;0.973051607609;0.0669452920556;2;True;34;1;72.12732091173832
305;305;1449490859;2.1392290592200003;0.972945511341;0.0669010281563;2;True;34;1;72.12732091173832
306;306;1449490859;2.1390562057499998;0.972814619541;0.0669498667121;2;True;34;1;72.12732091173832
307;307;1449490859;2.13945531845;0.972932159901;0.0669709220529;2;True;34;1;72.12732091173832
308;308;1449490859;2.1395211219799997;0.9730467200280001;0.0670349001884;2;True;34;1;72.12732091173832
309;309;1449490859;2.13886761665;0.972740292549;0.0669322609901;2;True;34;1;72.12732091173832
310;310;1449490859;2.13956856728;0.972740411758;0.0672528296709;2;True;34;1;72.12732091173832
311;311;1449490859;2.13951301575;0.972770154476;0.0672010332346;2;True;34;1;72.12732091173832
312;312;1449490859;2.13955569267;0.973167061806;0.066952444613;2;True;34;1;72.12732091173832
313;313;1449490859;2.13967084885;0.973015487194;0.0669402033091;2;True;34;1;72.12732091173832
314;314;1449490859;2.13929724693;0.9729244709010001;0.0669112578034;2;True;34;1;72.12732091173832
315;315;1449490859;2.13956308365;0.972982227802;0.0669412240386;2;True;34;1;72.12732091173832
316;316;1449490859;2.13954234123;0.9726935029029999;0.0672494694591;2;True;34;1;72.12732091173832
317;317;1449490859;2.1393437385599996;0.972828328609;0.0671980306506;2;True;34;1;72.12732091173832
318;318;1449490859;2.13949608803;0.97308409214;0.0669495984912;2;True;34;1;72.12732091173832
319;319;1449490859;2.13952207565;0.973139345646;0.0669195279479;2;True;34;1;72.12732091173832
320;320;1449490859;2.1395285129499997;0.97314375639;0.0669266432524;2;True;34;1;72.12732091173832
321;321;1449490859;2.13972401619;0.972882986069;0.0671297982335;2;True;34;1;72.12732091173832
322;322;1449490859;2.13956880569;0.972953438759;0.0669321790338;2;True;34;1;72.12732091173832
323;323;1449490859;2.13953566551;0.973096966743;0.0670935660601;2;True;34;1;72.12732091173832
324;324;1449490859;2.13949775696;0.972868740559;0.0669311657548;2;True;34;1;72.12732091173832
325;325;1449490859;2.1393079757700004;0.972944021225;0.0669195726514;2;True;34;1;72.12732091173832
326;326;1449490859;2.13959670067;0.973019659519;0.0669306740165;2;True;34;1;72.12732091173832
327;327;1449490859;2.1390500068700002;0.973051249981;0.0667842552066;2;True;34;1;72.12732091173832
328;328;1449490859;2.13974881172;0.9731143713;0.0672224909067;2;True;34;1;72.12732091173832
329;329;1449490859;2.1396396160099997;0.9729156494140001;0.06695843487980001;2;True;34;1;72.12732091173832
330;330;1449490859;2.13975095749;0.972766876221;0.0671360269189;2;True;34;1;72.12732091173832
331;331;1449490859;2.13955068588;0.973007142544;0.0669178813696;2;True;34;1;72.12732091173832
332;332;1449490859;2.13964271545;0.972965538502;0.0669408217072;2;True;34;1;72.12732091173832
333;333;1449490859;2.13932943344;0.9727151393889999;0.0670520067215;2;True;34;1;72.12732091173832
334;334;1449490859;2.13949966431;0.973020792007;0.0669189020991;2;True;34;1;72.12732091173832
335;335;1449490859;2.1396143436400004;0.972961127758;0.0669338926673;2;True;34;1;72.12732091173832
336;336;1449490859;2.13979792595;0.9730978608130001;0.06694816797969999;2;True;34;1;72.12732091173832
337;337;1449490859;2.1394970417;0.9730272889139999;0.0669255778193;2;True;34;1;72.12732091173832
338;338;1449490859;2.13948392868;0.972873747349;0.0669477209449;2;True;34;1;72.12732091173832
339;339;1449490859;2.1397771835299997;0.973114132881;0.06695426255459999;2;True;34;1;72.12732091173832
340;340;1449490859;2.13925218582;0.972810745239;0.0670367106795;2;True;34;1;72.12732091173832
341;341;1449490859;2.13968300819;0.973100602627;0.067201577127;2;True;34;1;72.12732091173832
342;342;1449490859;2.13958859444;0.972991406918;0.06696855276819999;2;True;34;1;72.12732091173832
343;343;1449490859;2.1397228241;0.973086774349;0.06696610152719999;2;True;34;1;72.12732091173832
344;344;1449490859;2.13915848732;0.973127603531;0.06677199900150001;2;True;34;1;72.12732091173832
345;345;1449490859;2.13959717751;0.972728192806;0.06703832745550001;2;True;34;1;72.12732091173832
346;346;1449490859;2.13976359367;0.973076105118;0.0669549703598;2;True;34;1;72.12732091173832
347;347;1449490859;2.13942027092;0.973043978214;0.0669354051352;2;True;34;1;72.12732091173832
348;348;1449490859;2.1394250392900003;0.9729128479960001;0.06693411618470001;2;True;34;1;72.12732091173832
349;349;1449490859;2.1395316124;0.972957491875;0.0670773088932;2;True;34;1;72.12732091173832
350;350;1449490859;2.13954591751;0.9728791117669999;0.0669288933277;2;True;34;1;72.12732091173832
351;351;1449490859;2.13902902603;0.972791731358;0.0671535506845;2;True;34;1;72.12732091173832
352;352;1449490859;2.1395285129499997;0.9730293154719999;0.06691938638690001;2;True;34;1;72.12732091173832
353;353;1449490859;2.13955497742;0.972898006439;0.0669400766492;2;True;34;1;72.12732091173832
354;354;1449490859;2.13947558403;0.9729372859000001;0.06694582849740001;2;True;34;1;72.12732091173832
355;355;1449490859;2.13938784599;0.9727416038510001;0.06719755381350001;2;True;34;1;72.12732091173832
356;356;1449490859;2.13941788673;0.9730368256569999;0.0669467747211;2;True;34;1;72.12732091173832
357;357;1449490859;2.13927364349;0.972977757454;0.06695659458639999;2;True;34;1;72.12732091173832
358;358;1449490859;2.13960146904;0.972916781902;0.0669377893209;2;True;34;1;72.12732091173832
359;359;1449490859;2.1394383907299996;0.972845494747;0.06693883985280001;2;True;34;1;72.12732091173832
360;360;1449490859;2.13953447342;0.972917497158;0.0669633150101;2;True;34;1;72.12732091173832
361;361;1449490859;2.13947224617;0.973079323769;0.0669780150056;2;True;34;1;72.12732091173832
362;362;1449490859;2.13975715637;0.9724662899969999;0.0674836859107;2;True;34;1;72.12732091173832
363;363;1449490859;2.13942694664;0.972796022892;0.0670729726553;2;True;34;1;72.12732091173832
364;364;1449490859;2.13925600052;0.9728658199310001;0.0669554322958;2;True;34;1;72.12732091173832
365;365;1449490859;2.13947558403;0.973161041737;0.06690537929530001;2;True;34;1;72.12732091173832
366;366;1449490859;2.13967108727;0.9730912446979999;0.0670396834612;2;True;34;1;72.12732091173832
367;367;1449490859;2.13942742348;0.972842633724;0.06695220619440001;2;True;34;1;72.12732091173832
368;368;1449490859;2.1394636631;0.972952306271;0.06698483228680001;2;True;34;1;72.12732091173832
369;369;1449490859;2.1396181583400002;0.972959637642;0.06693931669;2;True;34;1;72.12732091173832
370;370;1449490859;2.1393587589300003;0.973029196262;0.0670589655638;2;True;34;1;72.12732091173832
371;371;1449490859;2.13968729973;0.972987949848;0.0669554024935;2;True;34;1;72.12732091173832
372;372;1449490859;2.13938498497;0.9727029204369999;0.0672261342406;2;True;34;1;72.12732091173832
373;373;1449490859;2.13947725296;0.9728975296019999;0.0670477971435;2;True;34;1;72.12732091173832
374;374;1449490859;2.13967633247;0.9730188250540001;0.0669599920511;2;True;34;1;72.12732091173832
375;375;1449490859;2.13962960243;0.972932159901;0.0670906752348;2;True;34;1;72.12732091173832
376;376;1449490859;2.1391801834099997;0.972635388374;0.0672563537955;2;True;34;1;72.12732091173832
377;377;1449490859;2.13954377174;0.972955644131;0.06694833934309999;2;True;34;1;72.12732091173832
378;378;1449490859;2.1392483711200003;0.9728755950929999;0.0669756829739;2;True;34;1;72.12732091173832
379;379;1449490859;2.13961315155;0.972894370556;0.0669450163841;2;True;34;1;72.12732091173832
380;380;1449490859;2.1395521163900004;0.9731501936910001;0.0669443234801;2;True;34;1;72.12732091173832
381;381;1449490859;2.1391611099200003;0.973108589649;0.0666950643063;2;True;34;1;72.12732091173832
382;382;1449490859;2.1393768787400003;0.97274851799;0.0670776814222;2;True;34;1;72.12732091173832
383;383;1449490859;2.13961935043;0.973252296448;0.0670875906944;2;True;34;1;72.12732091173832
384;384;1449490859;2.13961553574;0.972950339317;0.06695377826690001;2;True;34;1;72.12732091173832
385;385;1449490859;2.13937091827;0.972891628742;0.0669405460358;2;True;34;1;72.12732091173832
386;386;1449490859;2.13949775696;0.9731116294859999;0.0669497549534;2;True;34;1;72.12732091173832
387;387;1449490859;2.13977384567;0.9730333089830001;0.06708383560180001;2;True;34;1;72.12732091173832
388;388;1449490859;2.13987255096;0.9729129672050001;0.0671702623367;2;True;34;1;72.12732091173832
389;389;1449490859;2.13915348053;0.972796976566;0.0670833736658;2;True;34;1;72.12732091173832
390;390;1449490859;2.13937664032;0.973327755928;0.066590860486;2;True;34;1;72.12732091173832
391;391;1449490859;2.13930702209;0.972626209259;0.0672655701637;2;True;34;1;72.12732091173832
392;392;1449490859;2.13977003098;0.973032355309;0.0670516639948;2;True;34;1;72.12732091173832
393;393;1449490859;2.1395165920299997;0.972872257233;0.0669516250491;2;True;34;1;72.12732091173832
394;394;1449490859;2.1397600174;0.973024368286;0.0670326277614;2;True;34;1;72.12732091173832
395;395;1449490859;2.13945937157;0.9729274511339999;0.0669998526573;2;True;34;1;72.12732091173832
396;396;1449490859;2.1394636631;0.972866296768;0.06715250015259999;2;True;34;1;72.12732091173832
397;397;1449490859;2.13972711563;0.9730754494670001;0.0669600516558;2;True;34;1;72.12732091173832
398;398;1449490859;2.13963150978;0.9731171727179999;0.06701182574030001;2;True;34;1;72.12732091173832
399;399;1449490859;2.1395840644799997;0.973147928715;0.0669437050819;2;True;34;1;72.12732091173832
400;400;1449490859;2.1391229629499997;0.9728398919110001;0.06701899319889999;2;True;34;1;72.12732091173832
401;401;1449490859;2.1398222446400004;0.973147928715;0.06696476787330001;2;True;34;1;72.12732091173832
402;402;1449490859;2.13937044144;0.9730878472329999;0.06702175736430001;2;True;34;1;72.12732091173832
403;403;1449490859;2.13937997818;0.972881138325;0.0669287070632;2;True;34;1;72.12732091173832
404;404;1449490859;2.1395149231;0.973089396954;0.0669618099928;2;True;34;1;72.12732091173832
405;405;1449490859;2.13950920105;0.972872793674;0.0669510513544;2;True;34;1;72.12732091173832
406;406;1449490859;2.1399075985;0.9728299975399999;0.06724864989519999;2;True;34;1;72.12732091173832
407;407;1449490859;2.13985610008;0.972585380077;0.0675379410386;2;True;34;1;72.12732091173832
408;408;1449490859;2.13928127289;0.9727945923810001;0.06700085848569999;2;True;34;1;72.12732091173832
409;409;1449490859;2.13959622383;0.9729850888249999;0.0672794058919;2;True;34;1;72.12732091173832
410;410;1449490859;2.13943314552;0.973046660423;0.06692576408390001;2;True;34;1;72.12732091173832
411;411;1449490859;2.13955521584;0.973006248474;0.0669209361076;2;True;34;1;72.12732091173832
412;412;1449490859;2.13948822021;0.973113298416;0.0669541507959;2;True;34;1;72.12732091173832
413;413;1449490859;2.1395905017900003;0.9731055498119999;0.0669891908765;2;True;34;1;72.12732091173832
414;414;1449490859;2.13958764076;0.973014056683;0.066953510046;2;True;34;1;72.12732091173832
415;415;1449490859;2.13945937157;0.973022818565;0.06692494452;2;True;34;1;72.12732091173832
416;416;1449490859;2.13984036446;0.9730882644650001;0.0672011077404;2;True;34;1;72.12732091173832
417;417;1449490859;2.1395847797400003;0.973003685474;0.0669487193227;2;True;34;1;72.12732091173832
418;418;1449490859;2.13961029053;0.9729653596879999;0.0669932439923;2;True;34;1;72.12732091173832
419;419;1449490859;2.13930130005;0.97340631485;0.0671544522047;2;True;34;1;72.12732091173832
420;420;1449490859;2.13980078697;0.9730457067489999;0.0670296922326;2;True;34;1;72.12732091173832
421;421;1449490859;2.13937425613;0.9731667637829999;0.0669006556273;2;True;34;1;72.12732091173832
422;422;1449490859;2.13949108124;0.973127424717;0.06692256033419999;2;True;34;1;72.12732091173832
423;423;1449490859;2.1391685009;0.973227024078;0.0668545216322;2;True;34;1;72.12732091173832
424;424;1449490859;2.1395421028099997;0.972797691822;0.0670529380441;2;True;34;1;72.12732091173832
425;425;1449490859;2.13954353333;0.973124921322;0.0669405609369;2;True;34;1;72.12732091173832
426;426;1449490859;2.13962745667;0.9730224013330001;0.0669429600239;2;True;34;1;72.12732091173832
427;427;1449490859;2.13948750496;0.972795844078;0.0672312453389;2;True;34;1;72.12732091173832
428;428;1449490859;2.1392629146599997;0.9729191064830001;0.0668532773852;2;True;34;1;72.12732091173832
429;429;1449490859;2.13966751099;0.9730272293089999;0.0669608339667;2;True;34;1;72.12732091173832
430;430;1449490859;2.13996696472;0.973113834858;0.0673354119062;2;True;34;1;72.12732091173832
431;431;1449490859;2.1395840644799997;0.973004996777;0.0671167299151;2;True;34;1;72.12732091173832
432;432;1449490859;2.13938546181;0.9728578329090001;0.0672680810094;2;True;34;1;72.12732091173832
433;433;1449490859;2.13917732239;0.973023116589;0.066824503243;2;True;34;1;72.12732091173832
434;434;1449490859;2.1397407054900004;0.972710192204;0.06734812259669999;2;True;34;1;72.12732091173832
435;435;1449490859;2.13948369026;0.9728072881700001;0.06703207641839999;2;True;34;1;72.12732091173832
436;436;1449490859;2.13954925537;0.97314196825;0.0669144168496;2;True;34;1;72.12732091173832
437;437;1449490859;2.1394007206;0.9729742407799999;0.0669380351901;2;True;34;1;72.12732091173832
438;438;1449490859;2.13956189156;0.9729497432709999;0.06694789975880001;2;True;34;1;72.12732091173832
439;439;1449490859;2.1392960548400004;0.973021149635;0.0670304968953;2;True;34;1;72.12732091173832
440;440;1449490859;2.1396288871799998;0.973002433777;0.0669471248984;2;True;34;1;72.12732091173832
441;441;1449490859;2.1396048069;0.9730263352390001;0.06692632287740001;2;True;34;1;72.12732091173832
442;442;1449490859;2.13966441154;0.97280061245;0.0672551169991;2;True;34;1;72.12732091173832
443;443;1449490859;2.1394309997599996;0.973012447357;0.06691858917469999;2;True;34;1;72.12732091173832
444;444;1449490859;2.13959240913;0.9730188250540001;0.0669109150767;2;True;34;1;72.12732091173832
445;445;1449490859;2.13973236084;0.973036468029;0.06693668663499999;2;True;34;1;72.12732091173832
446;446;1449490859;2.1394746303599996;0.9728599190710001;0.0670889317989;2;True;34;1;72.12732091173832
447;447;1449490859;2.1393003463699998;0.9730532169339999;0.0669377967715;2;True;34;1;72.12732091173832
448;448;1449490859;2.1392557621;0.973188638687;0.0668128207326;2;True;34;1;72.12732091173832
449;449;1449490859;2.13958215714;0.972951829433;0.0669357329607;2;True;34;1;72.12732091173832
450;450;1449490859;2.13931655884;0.9728886485100001;0.0669197291136;2;True;34;1;72.12732091173832
451;451;1449490859;2.1396920681;0.9731273651119999;0.0669795125723;2;True;34;1;72.12732091173832
452;452;1449490859;2.13925337791;0.972866296768;0.0669749826193;2;True;34;1;72.12732091173832
453;453;1449490859;2.1394398212400003;0.972968995571;0.06692267209290001;2;True;34;1;72.12732091173832
454;454;1449490859;2.13913536072;0.9730271101000001;0.0668315440416;2;True;34;1;72.12732091173832
455;455;1449490859;2.13930869102;0.973239898682;0.0668345093727;2;True;34;1;72.12732091173832
456;456;1449490859;2.13947844505;0.973065078259;0.066970013082;2;True;34;1;72.12732091173832
457;457;1449490859;2.13932704926;0.973036050797;0.06699864566330001;2;True;34;1;72.12732091173832
458;458;1449490859;2.13932085037;0.9729436635969999;0.0669147819281;2;True;34;1;72.12732091173832
459;459;1449490859;2.1394212245900004;0.972968935966;0.0669328048825;2;True;34;1;72.12732091173832
460;460;1449490859;2.13956356049;0.9729524254799999;0.0669720545411;2;True;34;1;72.12732091173832
461;461;1449490859;2.1394464969599998;0.9728407859799999;0.0670551881194;2;True;34;1;72.12732091173832
462;462;1449490859;2.1394138336200004;0.9730986356739999;0.0669138506055;2;True;34;1;72.12732091173832
463;463;1449490859;2.13968348503;0.97310769558;0.06694789230819999;2;True;34;1;72.12732091173832
464;464;1449490859;2.13932728767;0.972858846188;0.0669863373041;2;True;34;1;72.12732091173832
465;465;1449490859;2.1397120952599997;0.972788631916;0.06731653958560001;2;True;34;1;72.12732091173832
466;466;1449490859;2.1395707130400003;0.973018884659;0.06691629439590001;2;True;34;1;72.12732091173832
467;467;1449490859;2.13902544975;0.973134696484;0.0666934326291;2;True;34;1;72.12732091173832
468;468;1449490859;2.1393494606;0.972614228725;0.06727721542119999;2;True;34;1;72.12732091173832
469;469;1449490859;2.1396985053999997;0.9732738733290001;0.0671525225043;2;True;34;1;72.12732091173832
470;470;1449490859;2.13967561722;0.9731094837190001;0.0670185312629;2;True;34;1;72.12732091173832
471;471;1449490859;2.13960456848;0.972973167896;0.0669259428978;2;True;34;1;72.12732091173832
472;472;1449490859;2.13942360878;0.972830057144;0.0669468268752;2;True;34;1;72.12732091173832
473;473;1449490859;2.1395766735099997;0.972990751266;0.0669331178069;2;True;34;1;72.12732091173832
474;474;1449490859;2.13915848732;0.9730769395829999;0.06703107058999999;2;True;34;1;72.12732091173832
475;475;1449490859;2.13968372345;0.9730250239370001;0.0669346526265;2;True;34;1;72.12732091173832
476;476;1449490859;2.1392874717700003;0.9730614423749999;0.0664575845003;2;True;34;1;72.12732091173832
477;477;1449490859;2.1394548416099997;0.9729523658750001;0.0669335126877;2;True;34;1;72.12732091173832
478;478;1449490859;2.1393630504599996;0.973095417023;0.0669801235199;2;True;34;1;72.12732091173832
479;479;1449490859;2.13948297501;0.9730514287950001;0.0669115483761;2;True;34;1;72.12732091173832
480;480;1449490859;2.13959169388;0.9730169177060001;0.0669065266848;2;True;34;1;72.12732091173832
481;481;1449490859;2.1393558979;0.972855269909;0.0669085010886;2;True;34;1;72.12732091173832
482;482;1449490859;2.13885736465;0.9730467200280001;0.0669319108129;2;True;34;1;72.12732091173832
483;483;1449490859;2.1394736766799998;0.973065197468;0.0669407472014;2;True;34;1;72.12732091173832
484;484;1449490859;2.1397008895900003;0.9727318286900001;0.067313298583;2;True;34;1;72.12732091173832
485;485;1449490859;2.1391308307599997;0.9728730320929999;0.0670847892761;2;True;34;1;72.12732091173832
486;486;1449490859;2.13933873177;0.9729449152949999;0.06692416965959999;2;True;34;1;72.12732091173832
487;487;1449490859;2.1392850875900002;0.972912073135;0.0669118836522;2;True;34;1;72.12732091173832
488;488;1449490859;2.13955688477;0.972972631454;0.0669245272875;2;True;34;1;72.12732091173832
489;489;1449490859;2.1394712925;0.9730658531190001;0.0669509246945;2;True;34;1;72.12732091173832
490;490;1449490859;2.1396572589900003;0.972980558872;0.0669370293617;2;True;34;1;72.12732091173832
491;491;1449490859;2.13960671425;0.9729142785070001;0.0669424086809;2;True;34;1;72.12732091173832
492;492;1449490859;2.1396355629;0.9730387330060001;0.06694885343309999;2;True;34;1;72.12732091173832
493;493;1449490859;2.13960552216;0.9730182290080001;0.0669612064958;2;True;34;1;72.12732091173832
494;494;1449490859;2.13915300369;0.973037600517;0.0668507888913;2;True;34;1;72.12732091173832
495;495;1449490859;2.1395740509;0.972944617271;0.0669423937798;2;True;34;1;72.12732091173832
496;496;1449490859;2.13941955566;0.9729838967319999;0.0669109746814;2;True;34;1;72.12732091173832
497;497;1449490859;2.1396241188;0.9729558825489999;0.0669249072671;2;True;34;1;72.12732091173832
498;498;1449490859;2.13949871063;0.972891807556;0.0669286996126;2;True;34;1;72.12732091173832
499;499;1449490859;2.13948321342;0.972916841507;0.0669253543019;2;True;34;1;72.12732091173832
500;500;1449490859;2.13930130005;0.972732007504;0.06709627062080001;2;True;34;1;72.12732091173832
501;501;1449490859;2.1392562389400003;0.973009049892;0.0667601153255;2;True;34;1;72.12732091173832
502;502;1449490860;2.1396479606599996;0.972983121872;0.0669368430972;3;True;34;1;72.12732091173832
503;503;1449490860;2.13948011398;0.973101019859;0.06693235039710001;3;True;34;1;72.12732091173832
504;504;1449490860;2.13927364349;0.9728286862369999;0.0669453218579;3;True;34;1;72.12732091173832
505;505;1449490860;2.13917160034;0.9727408885959999;0.0670119747519;3;True;34;1;72.12732091173832
506;506;1449490860;2.13911795616;0.972887456417;0.0668958202004;3;True;34;1;72.12732091173832
507;507;1449490860;2.1399087905900003;0.9724809527399999;0.06760794669390001;3;True;34;1;72.12732091173832
508;508;1449490860;2.13918280602;0.9729063510889999;0.0670250579715;3;True;34;1;72.12732091173832
509;509;1449490860;2.13992381096;0.9728471040729999;0.0675754770637;3;True;34;1;72.12732091173832
510;510;1449490860;2.13963198662;0.972806513309;0.0670275390148;3;True;34;1;72.12732091173832
511;511;1449490860;2.13965654373;0.972578704357;0.067474283278;3;True;34;1;72.12732091173832
512;512;1449490860;2.1394944191;0.972784876823;0.06721654534339999;3;True;34;1;72.12732091173832
513;513;1449490860;2.13978767395;0.9730654358859999;0.0669550746679;3;True;34;1;72.12732091173832
514;514;1449490860;2.1396231651299997;0.972930014133;0.06694525480269999;3;True;34;1;72.12732091173832
515;515;1449490860;2.13968634605;0.9729054570200001;0.0670612156391;3;True;34;1;72.12732091173832
516;516;1449490860;2.13949155807;0.973055958748;0.0669597014785;3;True;34;1;72.12732091173832
517;517;1449490860;2.13927841187;0.972934424877;0.0669570863247;3;True;34;1;72.12732091173832
518;518;1449490860;2.1395123004900003;0.973029077053;0.06698672473430001;3;True;34;1;72.12732091173832
519;519;1449490860;2.13946819305;0.972832381725;0.06693599373100001;3;True;34;1;72.12732091173832
520;520;1449490860;2.1394650936099997;0.972932100296;0.0669827237725;3;True;34;1;72.12732091173832
521;521;1449490860;2.13970947266;0.972459375858;0.0677297264338;3;True;34;1;72.12732091173832
522;522;1449490860;2.13946962357;0.9729359745980001;0.0669694319367;3;True;34;1;72.12732091173832
523;523;1449490860;2.1395816803;0.9729325771330001;0.0669538378716;3;True;34;1;72.12732091173832
524;524;1449490860;2.13943338394;0.972888171673;0.0669480189681;3;True;34;1;72.12732091173832
525;525;1449490860;2.13958668709;0.9730285406110001;0.0669457316399;3;True;34;1;72.12732091173832
526;526;1449490860;2.1394932270099996;0.9730216264720001;0.0669272691011;3;True;34;1;72.12732091173832
527;527;1449490860;2.13939571381;0.9729231595990001;0.0669715926051;3;True;34;1;72.12732091173832
528;528;1449490860;2.13959646225;0.973083615303;0.0669896751642;3;True;34;1;72.12732091173832
529;529;1449490860;2.1396667957299997;0.972939670086;0.0669663846493;3;True;34;1;72.12732091173832
530;530;1449490860;2.1392941474900002;0.9730374813079999;0.0669418498874;3;True;34;1;72.12732091173832
531;531;1449490860;2.13944602013;0.9730421304700001;0.0669779628515;3;True;34;1;72.12732091173832
532;532;1449490860;2.13956046104;0.9728395938869999;0.0670410394669;3;True;34;1;72.12732091173832
533;533;1449490860;2.13956975937;0.972838580608;0.06694812327619999;3;True;34;1;72.12732091173832
534;534;1449490860;2.1395168304400003;0.972825407982;0.0669701099396;3;True;34;1;72.12732091173832
535;535;1449490860;2.13957095146;0.972994267941;0.0669188648462;3;True;34;1;72.12732091173832
536;536;1449490860;2.13951516151;0.9728533029559999;0.0669501796365;3;True;34;1;72.12732091173832
537;537;1449490860;2.13964605331;0.97305059433;0.06695186346769999;3;True;34;1;72.12732091173832
538;538;1449490860;2.13969182968;0.972953557968;0.0669475570321;3;True;34;1;72.12732091173832
539;539;1449490860;2.1396770477300002;0.972969651222;0.0669444203377;3;True;34;1;72.12732091173832
540;540;1449490860;2.13965511322;0.9729617834090001;0.06695316731930001;3;True;34;1;72.12732091173832
541;541;1449490860;2.1396684646599997;0.973124146461;0.0669920369983;3;True;34;1;72.12732091173832
542;542;1449490860;2.13958835602;0.972920060158;0.06695137917999999;3;True;34;1;72.12732091173832
543;543;1449490860;2.13954138756;0.9727110266689999;0.06696227937940001;3;True;34;1;72.12732091173832
544;544;1449490860;2.13932490349;0.972866952419;0.0669199749827;3;True;34;1;72.12732091173832
545;545;1449490860;2.13938164711;0.973005652428;0.0669539570808;3;True;34;1;72.12732091173832
546;546;1449490860;2.13927865028;0.973102033138;0.06689117848869999;3;True;34;1;72.12732091173832
547;547;1449490860;2.1394197940799997;0.97284758091;0.0669356137514;3;True;34;1;72.12732091173832
548;548;1449490860;2.13958382607;0.972875654697;0.0669531971216;3;True;34;1;72.12732091173832
549;549;1449490860;2.13943314552;0.972834348679;0.0669364407659;3;True;34;1;72.12732091173832
550;550;1449490860;2.1396143436400004;0.972924292088;0.0670058429241;3;True;34;1;72.12732091173832
551;551;1449490860;2.13930749893;0.9729605913160001;0.0669608637691;3;True;34;1;72.12732091173832
552;552;1449490860;2.1393978595700003;0.973007380962;0.0669441446662;3;True;34;1;72.12732091173832
553;553;1449490860;2.1390786171;0.973146915436;0.0668747425079;3;True;34;1;72.12732091173832
554;554;1449490860;2.13974046707;0.973002970219;0.06694674491880001;3;True;34;1;72.12732091173832
555;555;1449490860;2.1396098136900004;0.9730162024500001;0.06695414334540001;3;True;34;1;72.12732091173832
556;556;1449490860;2.13968348503;0.972978413105;0.066951610148;3;True;34;1;72.12732091173832
557;557;1449490860;2.13948249817;0.9730185866359999;0.06691843271259999;3;True;34;1;72.12732091173832
558;558;1449490860;2.1396262645700004;0.972961723804;0.066933862865;3;True;34;1;72.12732091173832
559;559;1449490860;2.13934087753;0.9729619026180001;0.0669342130423;3;True;34;1;72.12732091173832
560;560;1449490860;2.13960456848;0.973024070263;0.0669376701117;3;True;34;1;72.12732091173832
561;561;1449490860;2.1396861076400002;0.973040223122;0.0669563785195;3;True;34;1;72.12732091173832
562;562;1449490860;2.1390743255599998;0.973087906837;0.066596031189;3;True;34;1;72.12732091173832
563;563;1449490860;2.13997101784;0.97311270237;0.0673338770866;3;True;34;1;72.12732091173832
564;564;1449490860;2.13936924934;0.972994208336;0.06703071296219999;3;True;34;1;72.12732091173832
565;565;1449490860;2.13928174973;0.973237872124;0.066770106554;3;True;34;1;72.12732091173832
566;566;1449490860;2.13962578773;0.972968935966;0.0669753029943;3;True;34;1;72.12732091173832
567;567;1449490860;2.13928580284;0.973072588444;0.0668764486909;3;True;34;1;72.12732091173832
568;568;1449490860;2.13958215714;0.9728879332539999;0.0670084059238;3;True;34;1;72.12732091173832
569;569;1449490860;2.1398127079;0.9731284976010001;0.066965430975;3;True;34;1;72.12732091173832
570;570;1449490860;2.1395661830900004;0.9729850888249999;0.0669393390417;3;True;34;1;72.12732091173832
571;571;1449490860;2.1394367218;0.9729979038240001;0.0669541656971;3;True;34;1;72.12732091173832
572;572;1449490860;2.139285326;0.9729303717610001;0.0669191926718;3;True;34;1;72.12732091173832
573;573;1449490860;2.1396150589;0.9729370474819999;0.0669499784708;3;True;34;1;72.12732091173832
574;574;1449490860;2.13939118385;0.972990334034;0.0669405162334;3;True;34;1;72.12732091173832
575;575;1449490860;2.13965559006;0.973280191422;0.0669530779123;3;True;34;1;72.12732091173832
576;576;1449490860;2.13935685158;0.972888231277;0.06691871583459999;3;True;34;1;72.12732091173832
577;577;1449490860;2.13924884796;0.972778737545;0.0670862570405;3;True;34;1;72.12732091173832
578;578;1449490860;2.1393351554900004;0.9729899168009999;0.0669125020504;3;True;34;1;72.12732091173832
579;579;1449490860;2.1394112110099996;0.973111510277;0.06693451851610001;3;True;34;1;72.12732091173832
580;580;1449490860;2.13930988312;0.973002552986;0.06702228635549999;3;True;34;1;72.12732091173832
581;581;1449490860;2.13913369179;0.972940981388;0.066943846643;3;True;34;1;72.12732091173832
582;582;1449490860;2.1395285129499997;0.973023116589;0.0670949593186;3;True;34;1;72.12732091173832
583;583;1449490860;2.13959312439;0.9729679822920001;0.06693457067009999;3;True;34;1;72.12732091173832
584;584;1449490860;2.13930678368;0.9726125597949999;0.067143060267;3;True;34;1;72.12732091173832
585;585;1449490860;2.13933730125;0.9729700088500001;0.06688520312309999;3;True;34;1;72.12732091173832
586;586;1449490860;2.13969993591;0.973045766354;0.066956050694;3;True;34;1;72.12732091173832
587;587;1449490860;2.13930821419;0.972934603691;0.0669714957476;3;True;34;1;72.12732091173832
588;588;1449490860;2.13935208321;0.9730816483499999;0.0669751316309;3;True;34;1;72.12732091173832
589;589;1449490860;2.13957595825;0.972984969616;0.06698330491780001;3;True;34;1;72.12732091173832
590;590;1449490860;2.13945102692;0.973090946674;0.06679879128930001;3;True;34;1;72.12732091173832
591;591;1449490860;2.139585495;0.973160505295;0.0669307783246;3;True;34;1;72.12732091173832
592;592;1449490860;2.1396136283900002;0.973036289215;0.06714832037690001;3;True;34;1;72.12732091173832
593;593;1449490860;2.1394867897;0.972959756851;0.0669622868299;3;True;34;1;72.12732091173832
594;594;1449490860;2.13961100578;0.9730349183079999;0.0669350549579;3;True;34;1;72.12732091173832
595;595;1449490860;2.13920617104;0.972710371017;0.06711417436599999;3;True;34;1;72.12732091173832
596;596;1449490860;2.13910722733;0.9730176329610001;0.0671554729342;3;True;34;1;72.12732091173832
597;597;1449490860;2.13931488991;0.973100543022;0.0670362040401;3;True;34;1;72.12732091173832
598;598;1449490860;2.13908648491;0.972741246223;0.06686824560169999;3;True;34;1;72.12732091173832
599;599;1449490860;2.13964104652;0.972969353199;0.0669768080115;3;True;34;1;72.12732091173832
600;600;1449490860;2.13976883888;0.972868680954;0.0671386569738;3;True;34;1;72.12732091173832
601;601;1449490860;2.13965606689;0.9729864597319999;0.06695888191459999;3;True;34;1;72.12732091173832
602;602;1449490860;2.13958764076;0.972876012325;0.0670932009816;3;True;34;1;72.12732091173832
603;603;1449490860;2.1396069526700003;0.9729088544850001;0.0670650303364;3;True;34;1;72.12732091173832
604;604;1449490860;2.1396107673599998;0.9727953076360001;0.06733861565589999;3;True;34;1;72.12732091173832
605;605;1449490860;2.13953733444;0.973075985909;0.0669982135296;3;True;34;1;72.12732091173832
606;606;1449490860;2.13949537277;0.972816348076;0.0670273154974;3;True;34;1;72.12732091173832
607;607;1449490860;2.1394367218;0.9729688763619999;0.0669355764985;3;True;34;1;72.12732091173832
608;608;1449490860;2.13957333565;0.9728572964669999;0.0671456232667;3;True;34;1;72.12732091173832
609;609;1449490860;2.13944530487;0.973122239113;0.0668857842684;3;True;34;1;72.12732091173832
610;610;1449490860;2.13979816437;0.9730993509289999;0.0669820532203;3;True;34;1;72.12732091173832
