;Unnamed: 0;header_stamp_secs;pose_position_x;pose_position_y;pose_position_z;seconds;drop_values;flight_number;label;dtw
0;0;1449491424;2.12844228745;0.786497235298;0.06842706352469999;0;True;36;1;76.69110501930327
1;1;1449491424;2.12840294838;0.786351144314;0.0684194341302;0;True;36;1;76.69110501930327
2;2;1449491424;2.12841820717;0.7863847017290001;0.0683954060078;0;True;36;1;76.69110501930327
3;3;1449491424;2.1284434795400005;0.786513626575;0.068402081728;0;True;36;1;76.69110501930327
4;4;1449491424;2.1284315586099996;0.786393582821;0.0683912709355;0;True;36;1;76.69110501930327
5;5;1449491424;2.1284394264200004;0.786512315273;0.0683177188039;0;True;36;1;76.69110501930327
6;6;1449491424;2.12845039368;0.786518454552;0.0683221444488;0;True;36;1;76.69110501930327
7;7;1449491424;2.12843203545;0.7865245938300001;0.0684233531356;0;True;36;1;76.69110501930327
8;8;1449491424;2.12844252586;0.786580502987;0.0683747529984;0;True;36;1;76.69110501930327
9;9;1449491424;2.12845635414;0.786507308483;0.0683161616325;0;True;36;1;76.69110501930327
10;10;1449491424;2.1283955574;0.786400198936;0.0683895945549;0;True;36;1;76.69110501930327
11;11;1449491424;2.1284360885599996;0.786497116089;0.0683543235064;0;True;36;1;76.69110501930327
12;12;1449491424;2.12842869759;0.7864241600040001;0.0684198737144;0;True;36;1;76.69110501930327
13;13;1449491424;2.12840604782;0.786439955235;0.0684628561139;0;True;36;1;76.69110501930327
14;14;1449491424;2.1284122467;0.786360144615;0.0684153586626;0;True;36;1;76.69110501930327
15;15;1449491424;2.12842512131;0.786646187305;0.0683410391212;0;True;36;1;76.69110501930327
16;16;1449491424;2.12844586372;0.786550939083;0.06838139146569999;0;True;36;1;76.69110501930327
17;17;1449491424;2.12845468521;0.786577761173;0.0683434456587;0;True;36;1;76.69110501930327
18;18;1449491424;2.12840080261;0.78642219305;0.0683821439743;0;True;36;1;76.69110501930327
19;19;1449491424;2.12844181061;0.786522448063;0.0682883486152;0;True;36;1;76.69110501930327
20;20;1449491424;2.1284401416799996;0.786622524261;0.0683432966471;0;True;36;1;76.69110501930327
21;21;1449491424;2.12836313248;0.786322593689;0.0684006363153;0;True;36;1;76.69110501930327
22;22;1449491424;2.12838578224;0.7863547205920001;0.0683945342898;0;True;36;1;76.69110501930327
23;23;1449491424;2.12843465805;0.7864733338359999;0.06834118068219999;0;True;36;1;76.69110501930327
24;24;1449491424;2.12841272354;0.78649866581;0.0683220475912;0;True;36;1;76.69110501930327
25;25;1449491424;2.1284198761;0.786605358124;0.0683437138796;0;True;36;1;76.69110501930327
26;26;1449491424;2.12840080261;0.78648853302;0.0684240013361;0;True;36;1;76.69110501930327
27;27;1449491424;2.1283686161;0.7863906025890001;0.0684001892805;0;True;36;1;76.69110501930327
28;28;1449491424;2.1284236908;0.786626696587;0.0683114081621;0;True;36;1;76.69110501930327
29;29;1449491424;2.12842226028;0.786608219147;0.0683277323842;0;True;36;1;76.69110501930327
30;30;1449491424;2.12844109535;0.78648018837;0.0683348253369;0;True;36;1;76.69110501930327
31;31;1449491424;2.12841773033;0.78642988205;0.0683155357838;0;True;36;1;76.69110501930327
32;32;1449491424;2.12839818001;0.7865961194040001;0.06838375329969999;0;True;36;1;76.69110501930327
33;33;1449491424;2.1284160614;0.7864094376559999;0.06830742955210001;0;True;36;1;76.69110501930327
34;34;1449491424;2.12843108177;0.786585152149;0.0683044493198;0;True;36;1;76.69110501930327
35;35;1449491424;2.1284327507;0.786567926407;0.0683711096644;0;True;36;1;76.69110501930327
36;36;1449491424;2.12838339806;0.786369919777;0.0683899745345;0;True;36;1;76.69110501930327
37;37;1449491424;2.12842226028;0.786496579647;0.0683339238167;0;True;36;1;76.69110501930327
38;38;1449491424;2.12843561172;0.786491036415;0.06834130734209999;0;True;36;1;76.69110501930327
39;39;1449491424;2.12840080261;0.7864330410959999;0.0684570968151;0;True;36;1;76.69110501930327
40;40;1449491424;2.12843823433;0.7864712476729999;0.0683099851012;0;True;36;1;76.69110501930327
41;41;1449491424;2.12844967842;0.786598920822;0.0683233365417;0;True;36;1;76.69110501930327
42;42;1449491424;2.1284229755400004;0.786342442036;0.06832496076820001;0;True;36;1;76.69110501930327
43;43;1449491424;2.12842965126;0.786565423012;0.06829551607369999;0;True;36;1;76.69110501930327
44;44;1449491424;2.1284365654;0.786497354507;0.0683935508132;0;True;36;1;76.69110501930327
45;45;1449491424;2.12842321396;0.786347687244;0.06831488758330001;0;True;36;1;76.69110501930327
46;46;1449491424;2.12843990326;0.786578834057;0.0683290138841;0;True;36;1;76.69110501930327
47;47;1449491424;2.12843847275;0.7864821553229999;0.0683617442846;0;True;36;1;76.69110501930327
48;48;1449491424;2.1284277439099997;0.7865079641339999;0.06836369633669999;0;True;36;1;76.69110501930327
49;49;1449491424;2.12839102745;0.7865051627159999;0.0685003474355;0;True;36;1;76.69110501930327
50;50;1449491424;2.12838745117;0.786468625069;0.0684113278985;0;True;36;1;76.69110501930327
51;51;1449491424;2.12840723991;0.7865384221080001;0.0683823302388;0;True;36;1;76.69110501930327
52;52;1449491424;2.12845635414;0.786601781845;0.0683335214853;0;True;36;1;76.69110501930327
53;53;1449491424;2.12843394279;0.786574244499;0.06837837398049999;0;True;36;1;76.69110501930327
54;54;1449491424;2.12844586372;0.7865100502969999;0.06831923127169999;0;True;36;1;76.69110501930327
55;55;1449491424;2.1284215450299997;0.786367058754;0.068313151598;0;True;36;1;76.69110501930327
56;56;1449491424;2.12843775749;0.786462783813;0.0684110969305;0;True;36;1;76.69110501930327
57;57;1449491424;2.12844896317;0.786474168301;0.0683160945773;0;True;36;1;76.69110501930327
58;58;1449491424;2.12844061852;0.786564052105;0.068390622735;0;True;36;1;76.69110501930327
59;59;1449491424;2.12844705582;0.786444306374;0.0683445036411;0;True;36;1;76.69110501930327
60;60;1449491424;2.1284046173099997;0.78636187315;0.0683899894357;0;True;36;1;76.69110501930327
61;61;1449491424;2.12842988968;0.7864806652069999;0.0683806017041;0;True;36;1;76.69110501930327
62;62;1449491424;2.12843298912;0.7864186167720001;0.0683726221323;0;True;36;1;76.69110501930327
63;63;1449491424;2.1284091472599997;0.7864156365389999;0.0684050694108;0;True;36;1;76.69110501930327
64;64;1449491424;2.1284482479099998;0.786557137966;0.06837387382980001;0;True;36;1;76.69110501930327
65;65;1449491424;2.1283926963799997;0.786427080631;0.06840658932919999;0;True;36;1;76.69110501930327
66;66;1449491424;2.1284401416799996;0.7864797711370001;0.06839692592619999;0;True;36;1;76.69110501930327
67;67;1449491424;2.1284401416799996;0.7865390777590001;0.068347632885;0;True;36;1;76.69110501930327
68;68;1449491424;2.1284000873599997;0.786414504051;0.0684172511101;0;True;36;1;76.69110501930327
69;69;1449491424;2.128459692;0.78661096096;0.068348839879;0;True;36;1;76.69110501930327
70;70;1449491424;2.12844538689;0.786458432674;0.0683796256781;0;True;36;1;76.69110501930327
71;71;1449491424;2.1283967495;0.786350429058;0.0684396326542;0;True;36;1;76.69110501930327
72;72;1449491424;2.12841820717;0.7863917946819999;0.0684533789754;0;True;36;1;76.69110501930327
73;73;1449491424;2.12844538689;0.786489248276;0.0683702602983;0;True;36;1;76.69110501930327
74;74;1449491424;2.12840676308;0.786576867104;0.0684009045362;0;True;36;1;76.69110501930327
75;75;1449491424;2.12835907936;0.786433696747;0.0683951973915;0;True;36;1;76.69110501930327
76;76;1449491424;2.12843728065;0.78660607338;0.06836678832769999;0;True;36;1;76.69110501930327
77;77;1449491424;2.12844467163;0.786468088627;0.06833840906619999;0;True;36;1;76.69110501930327
78;78;1449491424;2.12843513489;0.786454677582;0.0684110075235;0;True;36;1;76.69110501930327
79;79;1449491424;2.1284379959099997;0.78651714325;0.0684313997626;0;True;36;1;76.69110501930327
80;80;1449491424;2.1284461021400003;0.786496520042;0.06840272247790001;0;True;36;1;76.69110501930327
81;81;1449491424;2.1284401416799996;0.786456465721;0.0684136077762;0;True;36;1;76.69110501930327
82;82;1449491424;2.1284317970299997;0.786518573761;0.0684673264623;0;True;36;1;76.69110501930327
83;83;1449491424;2.1284520626099996;0.786572694778;0.06840271502730001;0;True;36;1;76.69110501930327
84;84;1449491424;2.12844061852;0.786493360996;0.0683624520898;0;True;36;1;76.69110501930327
85;85;1449491424;2.12845420837;0.786536157131;0.0684570297599;0;True;36;1;76.69110501930327
86;86;1449491424;2.1284394264200004;0.786499798298;0.06839783489699999;0;True;36;1;76.69110501930327
87;87;1449491424;2.12842321396;0.7863630652429999;0.0684002116323;0;True;36;1;76.69110501930327
88;88;1449491424;2.1284606456799997;0.786529541016;0.0683405101299;0;True;36;1;76.69110501930327
89;89;1449491424;2.1284432411200003;0.786438405514;0.0683242827654;0;True;36;1;76.69110501930327
90;90;1449491424;2.1284189224200003;0.7864859700200001;0.0683788508177;0;True;36;1;76.69110501930327
91;91;1449491424;2.12842965126;0.786498069763;0.0684041231871;0;True;36;1;76.69110501930327
92;92;1449491424;2.12844538689;0.786421656609;0.06833468377589999;0;True;36;1;76.69110501930327
93;93;1449491424;2.12842202187;0.786606013775;0.0684098079801;0;True;36;1;76.69110501930327
94;94;1449491424;2.12847018242;0.78651201725;0.0683213025331;0;True;36;1;76.69110501930327
95;95;1449491424;2.12844514847;0.786523640156;0.068378791213;0;True;36;1;76.69110501930327
96;96;1449491424;2.12844777107;0.7863336801530001;0.0683322697878;0;True;36;1;76.69110501930327
97;97;1449491424;2.1284322738599997;0.786502063274;0.0684423446655;0;True;36;1;76.69110501930327
98;98;1449491424;2.12843513489;0.786538600922;0.0683952271938;0;True;36;1;76.69110501930327
99;99;1449491424;2.12844419479;0.786597192287;0.0683742389083;0;True;36;1;76.69110501930327
100;100;1449491424;2.1284570694;0.786510705948;0.0683887079358;0;True;36;1;76.69110501930327
101;101;1449491424;2.12844634056;0.786507427692;0.0683498233557;0;True;36;1;76.69110501930327
102;102;1449491424;2.12845492363;0.786568462849;0.0683150812984;0;True;36;1;76.69110501930327
103;103;1449491424;2.1284551620500003;0.786456882954;0.0683380588889;0;True;36;1;76.69110501930327
104;104;1449491424;2.12843966484;0.786531925201;0.0683886483312;0;True;36;1;76.69110501930327
105;105;1449491424;2.1284511089300002;0.786511719227;0.0683495029807;0;True;36;1;76.69110501930327
106;106;1449491424;2.1284580230700003;0.786475539207;0.0683906301856;0;True;36;1;76.69110501930327
107;107;1449491424;2.1284475326499996;0.786508083344;0.0683441534638;0;True;36;1;76.69110501930327
108;108;1449491424;2.1284415721900003;0.786453604698;0.0683809965849;0;True;36;1;76.69110501930327
109;109;1449491424;2.12840080261;0.7863435745239999;0.0684396550059;0;True;36;1;76.69110501930327
110;110;1449491424;2.12842416763;0.786507725716;0.06840711086989999;0;True;36;1;76.69110501930327
111;111;1449491424;2.12843108177;0.786386370659;0.068416364491;0;True;36;1;76.69110501930327
112;112;1449491424;2.12841272354;0.7863206863400001;0.0683333426714;0;True;36;1;76.69110501930327
113;113;1449491424;2.1284215450299997;0.786461234093;0.0684695914388;0;True;36;1;76.69110501930327
114;114;1449491425;2.12843561172;0.786555945873;0.0684124454856;1;True;36;1;76.69110501930327
115;115;1449491425;2.12838888168;0.786317527294;0.06842650473119999;1;True;36;1;76.69110501930327
116;116;1449491425;2.12845730782;0.786473631859;0.0683254897594;1;True;36;1;76.69110501930327
117;117;1449491425;2.1284277439099997;0.786533534527;0.0684626251459;1;True;36;1;76.69110501930327
118;118;1449491425;2.1284229755400004;0.786357462406;0.0683211758733;1;True;36;1;76.69110501930327
119;119;1449491425;2.12844181061;0.7866220474240001;0.0683356150985;1;True;36;1;76.69110501930327
120;120;1449491425;2.12841510773;0.786438703537;0.06840908527369999;1;True;36;1;76.69110501930327
121;121;1449491425;2.1283979415900003;0.786447227001;0.0684132874012;1;True;36;1;76.69110501930327
122;122;1449491425;2.1283979415900003;0.786353647709;0.0684363916516;1;True;36;1;76.69110501930327
123;123;1449491425;2.1284174919099996;0.786495804787;0.06836630404;1;True;36;1;76.69110501930327
124;124;1449491425;2.12844443321;0.786471843719;0.0683162137866;1;True;36;1;76.69110501930327
125;125;1449491425;2.12837910652;0.786557972431;0.0684159547091;1;True;36;1;76.69110501930327
126;126;1449491425;2.12843847275;0.786465883255;0.0683534219861;1;True;36;1;76.69110501930327
127;127;1449491425;2.12833786011;0.786405086517;0.0683802068233;1;True;36;1;76.69110501930327
128;128;1449491425;2.1284129619599996;0.786372959614;0.0683675184846;1;True;36;1;76.69110501930327
129;129;1449491425;2.12841129303;0.786415994167;0.0683717727661;1;True;36;1;76.69110501930327
130;130;1449491425;2.12839078903;0.786370873451;0.0683901831508;1;True;36;1;76.69110501930327
131;131;1449491425;2.12841534615;0.7865140438079999;0.0683607161045;1;True;36;1;76.69110501930327
132;132;1449491425;2.1284317970299997;0.7866052389139999;0.0683568120003;1;True;36;1;76.69110501930327
133;133;1449491425;2.12843894958;0.786489248276;0.0683099702001;1;True;36;1;76.69110501930327
134;134;1449491425;2.12843394279;0.786515653133;0.0684189200401;1;True;36;1;76.69110501930327
135;135;1449491425;2.12844276428;0.786584317684;0.068322442472;1;True;36;1;76.69110501930327
136;136;1449491425;2.12843394279;0.7866300344470001;0.0683239027858;1;True;36;1;76.69110501930327
137;137;1449491425;2.1283955574;0.786300420761;0.068415760994;1;True;36;1;76.69110501930327
138;138;1449491425;2.12841534615;0.7865038514139999;0.0683761686087;1;True;36;1;76.69110501930327
139;139;1449491425;2.12841463089;0.786456525326;0.0683146417141;1;True;36;1;76.69110501930327
140;140;1449491425;2.1284198761;0.786578953266;0.0683679953218;1;True;36;1;76.69110501930327
141;141;1449491425;2.12837004662;0.7863018512729999;0.0684151500463;1;True;36;1;76.69110501930327
142;142;1449491425;2.12840199471;0.78636932373;0.0683733820915;1;True;36;1;76.69110501930327
143;143;1449491425;2.1283996105200003;0.7864383459090001;0.0683799013495;1;True;36;1;76.69110501930327
144;144;1449491425;2.1284263134;0.786496758461;0.06840602308509999;1;True;36;1;76.69110501930327
145;145;1449491425;2.1284229755400004;0.786437094212;0.0683336853981;1;True;36;1;76.69110501930327
146;146;1449491425;2.12841963768;0.786455988884;0.06834884732959999;1;True;36;1;76.69110501930327
147;147;1449491425;2.12837553024;0.786388933659;0.0684003084898;1;True;36;1;76.69110501930327
148;148;1449491425;2.12842512131;0.78646081686;0.0683543011546;1;True;36;1;76.69110501930327
149;149;1449491425;2.12837147713;0.786428689957;0.0683954358101;1;True;36;1;76.69110501930327
150;150;1449491425;2.1284046173099997;0.786420464516;0.06834887713190001;1;True;36;1;76.69110501930327
151;151;1449491425;2.12838554382;0.786573708057;0.0683880373836;1;True;36;1;76.69110501930327
152;152;1449491425;2.1284244060499997;0.786476135254;0.0683328956366;1;True;36;1;76.69110501930327
153;153;1449491425;2.12839770317;0.786519706249;0.0683973655105;1;True;36;1;76.69110501930327
154;154;1449491425;2.128428936;0.786436140537;0.0683389157057;1;True;36;1;76.69110501930327
155;155;1449491425;2.12841486931;0.786550164223;0.0683846399188;1;True;36;1;76.69110501930327
156;156;1449491425;2.12838363647;0.786455214024;0.06826039403680001;1;True;36;1;76.69110501930327
157;157;1449491425;2.12843060493;0.786582589149;0.0683106854558;1;True;36;1;76.69110501930327
158;158;1449491425;2.12841105461;0.7865048646930001;0.06830666959290001;1;True;36;1;76.69110501930327
159;159;1449491425;2.1284036636400003;0.786427378654;0.0683817490935;1;True;36;1;76.69110501930327
160;160;1449491425;2.12842607498;0.7864949703219999;0.0683809444308;1;True;36;1;76.69110501930327
161;161;1449491425;2.1283922195400002;0.786472916603;0.068349070847;1;True;36;1;76.69110501930327
162;162;1449491425;2.12838053703;0.7864533662800001;0.06841436773540001;1;True;36;1;76.69110501930327
163;163;1449491425;2.1284224987;0.786474525928;0.0683486685157;1;True;36;1;76.69110501930327
164;164;1449491425;2.12841534615;0.786490619183;0.0683432668447;1;True;36;1;76.69110501930327
165;165;1449491425;2.12841820717;0.786452293396;0.0683212131262;1;True;36;1;76.69110501930327
166;166;1449491425;2.12839603424;0.786494016647;0.0684070587158;1;True;36;1;76.69110501930327
167;167;1449491425;2.12842535973;0.7864529490469999;0.0683196038008;1;True;36;1;76.69110501930327
168;168;1449491425;2.12841868401;0.786464095116;0.0683705881238;1;True;36;1;76.69110501930327
169;169;1449491425;2.1284327507;0.78649020195;0.0683140903711;1;True;36;1;76.69110501930327
170;170;1449491425;2.12843203545;0.786478936672;0.0683337524533;1;True;36;1;76.69110501930327
171;171;1449491425;2.12839102745;0.786416471004;0.0683863908052;1;True;36;1;76.69110501930327
172;172;1449491425;2.1284174919099996;0.786459565163;0.0683063343167;1;True;36;1;76.69110501930327
173;173;1449491425;2.12841081619;0.7864895462989999;0.0683690831065;1;True;36;1;76.69110501930327
174;174;1449491425;2.12837004662;0.78638702631;0.0683158487082;1;True;36;1;76.69110501930327
175;175;1449491425;2.12843322754;0.786516368389;0.0683018788695;1;True;36;1;76.69110501930327
176;176;1449491425;2.12842130661;0.7865043878560001;0.0682950168848;1;True;36;1;76.69110501930327
177;177;1449491425;2.12842917442;0.7864773273469999;0.0683367475867;1;True;36;1;76.69110501930327
178;178;1449491425;2.12842273712;0.786534965038;0.0684070810676;1;True;36;1;76.69110501930327
179;179;1449491425;2.12840080261;0.786372184753;0.068335019052;1;True;36;1;76.69110501930327
180;180;1449491425;2.12843489647;0.786597132683;0.0683292299509;1;True;36;1;76.69110501930327
181;181;1449491425;2.12843513489;0.786463201046;0.068319581449;1;True;36;1;76.69110501930327
182;182;1449491425;2.12843036652;0.786589741707;0.06831458956;1;True;36;1;76.69110501930327
183;183;1449491425;2.12843418121;0.786535561085;0.0684107095003;1;True;36;1;76.69110501930327
184;184;1449491425;2.12843728065;0.786544978619;0.0683942213655;1;True;36;1;76.69110501930327
185;185;1449491425;2.12834453583;0.786322534084;0.0685419514775;1;True;36;1;76.69110501930327
186;186;1449491425;2.1283957958200004;0.786374390125;0.0683422833681;1;True;36;1;76.69110501930327
187;187;1449491425;2.1284432411200003;0.786536872387;0.06842531263830001;1;True;36;1;76.69110501930327
188;188;1449491425;2.12843441963;0.786418676376;0.0683321207762;1;True;36;1;76.69110501930327
189;189;1449491425;2.1284403801;0.7864861488339999;0.068399220705;1;True;36;1;76.69110501930327
190;190;1449491425;2.12844419479;0.786559045315;0.0683788061142;1;True;36;1;76.69110501930327
191;191;1449491425;2.12844920158;0.7865442037579999;0.06838575750590001;1;True;36;1;76.69110501930327
192;192;1449491425;2.12842273712;0.78649353981;0.0684191659093;1;True;36;1;76.69110501930327
193;193;1449491425;2.12839818001;0.7863739728929999;0.0684132352471;1;True;36;1;76.69110501930327
194;194;1449491425;2.1283955574;0.7863995432850001;0.0684224143624;1;True;36;1;76.69110501930327
195;195;1449491425;2.12843108177;0.7864772677420001;0.0683558285236;1;True;36;1;76.69110501930327
196;196;1449491425;2.12843561172;0.786506354809;0.0683906748891;1;True;36;1;76.69110501930327
197;197;1449491425;2.12844777107;0.786567986012;0.0683996900916;1;True;36;1;76.69110501930327
198;198;1449491425;2.12841916084;0.786560773849;0.0684413090348;1;True;36;1;76.69110501930327
199;199;1449491425;2.12844276428;0.786577105522;0.0683421716094;1;True;36;1;76.69110501930327
200;200;1449491425;2.1284379959099997;0.786446869373;0.0683445036411;1;True;36;1;76.69110501930327
201;201;1449491425;2.12841820717;0.7864166498180001;0.0684211179614;1;True;36;1;76.69110501930327
202;202;1449491425;2.1283967495;0.7864590287209999;0.06844262033699999;1;True;36;1;76.69110501930327
203;203;1449491425;2.1284430027;0.7864404320720001;0.0683504194021;1;True;36;1;76.69110501930327
204;204;1449491425;2.12844586372;0.786511719227;0.068404905498;1;True;36;1;76.69110501930327
205;205;1449491425;2.1284360885599996;0.786428868771;0.0684285312891;1;True;36;1;76.69110501930327
206;206;1449491425;2.12843298912;0.7864588499070001;0.0684193298221;1;True;36;1;76.69110501930327
207;207;1449491425;2.1284363269799997;0.7864997386929999;0.0683666989207;1;True;36;1;76.69110501930327
208;208;1449491425;2.12840747833;0.786360561848;0.0684673041105;1;True;36;1;76.69110501930327
209;209;1449491425;2.12840676308;0.786542236805;0.0684034898877;1;True;36;1;76.69110501930327
210;210;1449491425;2.12840723991;0.786364555359;0.068411462009;1;True;36;1;76.69110501930327
211;211;1449491425;2.12843084335;0.786435186863;0.0683659464121;1;True;36;1;76.69110501930327
212;212;1449491425;2.12844872475;0.7865132689480001;0.0684058815241;1;True;36;1;76.69110501930327
213;213;1449491425;2.12842345238;0.786487460136;0.0683699771762;1;True;36;1;76.69110501930327
214;214;1449491425;2.12840175629;0.786363422871;0.0684677958488;1;True;36;1;76.69110501930327
215;215;1449491425;2.1284565925599996;0.786575078964;0.06835694611069999;1;True;36;1;76.69110501930327
216;216;1449491425;2.1284363269799997;0.7865009903910001;0.0683271363378;1;True;36;1;76.69110501930327
217;217;1449491425;2.1284506321000003;0.786469101906;0.0683846920729;1;True;36;1;76.69110501930327
218;218;1449491425;2.12844896317;0.786492288113;0.0683429539204;1;True;36;1;76.69110501930327
219;219;1449491425;2.12842583656;0.786536097527;0.06831909716130001;1;True;36;1;76.69110501930327
220;220;1449491425;2.1283807754499997;0.7863339781759999;0.06843592971559999;1;True;36;1;76.69110501930327
221;221;1449491425;2.12840557098;0.7865288853650001;0.06851252913480001;1;True;36;1;76.69110501930327
222;222;1449491425;2.12841916084;0.786532044411;0.0683142766356;1;True;36;1;76.69110501930327
223;223;1449491425;2.12843990326;0.786497712135;0.0683420747519;1;True;36;1;76.69110501930327
224;224;1449491425;2.12840890884;0.7863665819169999;0.0684173032641;1;True;36;1;76.69110501930327
225;225;1449491425;2.12842655182;0.786453545094;0.0683941543102;1;True;36;1;76.69110501930327
226;226;1449491425;2.12841725349;0.786375522614;0.0683325007558;1;True;36;1;76.69110501930327
227;227;1449491425;2.12843513489;0.786472201347;0.0683732926846;1;True;36;1;76.69110501930327
228;228;1449491425;2.12842512131;0.7865450978280001;0.06836279481650001;1;True;36;1;76.69110501930327
229;229;1449491425;2.12838244438;0.786331534386;0.0684353858232;1;True;36;1;76.69110501930327
230;230;1449491425;2.12842655182;0.786474585533;0.068399220705;1;True;36;1;76.69110501930327
231;231;1449491425;2.12843251228;0.786492407322;0.0683226957917;1;True;36;1;76.69110501930327
232;232;1449491425;2.12841176987;0.786496937275;0.0683681294322;1;True;36;1;76.69110501930327
233;233;1449491425;2.12843394279;0.7865774035449999;0.068333119154;1;True;36;1;76.69110501930327
234;234;1449491425;2.12843108177;0.786556780338;0.068405367434;1;True;36;1;76.69110501930327
235;235;1449491425;2.1283841133099997;0.786397755146;0.06841316074130001;1;True;36;1;76.69110501930327
236;236;1449491425;2.1284043788900004;0.7864951491359999;0.0683085769415;1;True;36;1;76.69110501930327
237;237;1449491425;2.12842059135;0.7865363955500001;0.068425886333;1;True;36;1;76.69110501930327
238;238;1449491425;2.12840294838;0.786444962025;0.0684420019388;1;True;36;1;76.69110501930327
239;239;1449491425;2.1284365654;0.786504626274;0.06831818073990001;1;True;36;1;76.69110501930327
240;240;1449491425;2.12837505341;0.7864634394650001;0.068382628262;1;True;36;1;76.69110501930327
241;241;1449491425;2.12837409973;0.7863159775730001;0.068407587707;1;True;36;1;76.69110501930327
242;242;1449491425;2.1284170150799997;0.786549568176;0.0683550387621;1;True;36;1;76.69110501930327
243;243;1449491425;2.12841367722;0.7865241765979999;0.06831569224600001;1;True;36;1;76.69110501930327
244;244;1449491425;2.12842392921;0.786548137665;0.06838725507259999;1;True;36;1;76.69110501930327
245;245;1449491425;2.1284041404700003;0.78642308712;0.06843150407080001;1;True;36;1;76.69110501930327
246;246;1449491425;2.12841415405;0.7865229249;0.0684109777212;1;True;36;1;76.69110501930327
247;247;1449491425;2.12840747833;0.786607980728;0.0683172345161;1;True;36;1;76.69110501930327
248;248;1449491425;2.12840104103;0.7864665389059999;0.068382024765;1;True;36;1;76.69110501930327
249;249;1449491425;2.12841510773;0.786451041698;0.0683001428843;1;True;36;1;76.69110501930327
250;250;1449491425;2.12841629982;0.7865083813670001;0.0683157965541;1;True;36;1;76.69110501930327
251;251;1449491425;2.12839198112;0.7864989042280001;0.0684044584632;1;True;36;1;76.69110501930327
252;252;1449491425;2.12842845917;0.786465644836;0.068285278976;1;True;36;1;76.69110501930327
253;253;1449491425;2.12841320038;0.786457777023;0.06833250820640001;1;True;36;1;76.69110501930327
254;254;1449491425;2.12840127945;0.786489963531;0.0683349594474;1;True;36;1;76.69110501930327
255;255;1449491425;2.12837171555;0.786309123039;0.0683953389525;1;True;36;1;76.69110501930327
256;256;1449491425;2.12836647034;0.786406874657;0.06837789714340001;1;True;36;1;76.69110501930327
257;257;1449491425;2.1283898353599997;0.7864919900890001;0.0683870986104;1;True;36;1;76.69110501930327
258;258;1449491425;2.1283793449400004;0.78652125597;0.0684004947543;1;True;36;1;76.69110501930327
259;259;1449491425;2.12839460373;0.7865216732029999;0.0684225857258;1;True;36;1;76.69110501930327
260;260;1449491425;2.12839484215;0.786393642426;0.0682991594076;1;True;36;1;76.69110501930327
261;261;1449491425;2.12840890884;0.7864498496060001;0.0682898238301;1;True;36;1;76.69110501930327
262;262;1449491425;2.12837958336;0.786478340626;0.0683345347643;1;True;36;1;76.69110501930327
263;263;1449491425;2.1284024715400003;0.7865833640100001;0.068291798234;1;True;36;1;76.69110501930327
264;264;1449491425;2.12838554382;0.786399841309;0.06836506724359999;1;True;36;1;76.69110501930327
265;265;1449491425;2.12840771675;0.7864234447480001;0.06831312924619999;1;True;36;1;76.69110501930327
266;266;1449491425;2.1284024715400003;0.786408782005;0.0683052837849;1;True;36;1;76.69110501930327
267;267;1449491425;2.12838792801;0.786466598511;0.0683942586184;1;True;36;1;76.69110501930327
268;268;1449491425;2.12840890884;0.786414444447;0.0682909116149;1;True;36;1;76.69110501930327
269;269;1449491425;2.12837028503;0.786344110966;0.0683802887797;1;True;36;1;76.69110501930327
270;270;1449491425;2.12838149071;0.7865120768549999;0.0683788284659;1;True;36;1;76.69110501930327
271;271;1449491425;2.12841868401;0.7865535020829999;0.0683730244637;1;True;36;1;76.69110501930327
272;272;1449491425;2.12840890884;0.786597251892;0.0683034956455;1;True;36;1;76.69110501930327
273;273;1449491425;2.12841868401;0.786514103413;0.06827906519169999;1;True;36;1;76.69110501930327
274;274;1449491425;2.12838149071;0.786489009857;0.0683106258512;1;True;36;1;76.69110501930327
275;275;1449491425;2.12841653824;0.7865365743639999;0.0683763772249;1;True;36;1;76.69110501930327
276;276;1449491425;2.12842226028;0.7864277362819999;0.0683534741402;1;True;36;1;76.69110501930327
277;277;1449491425;2.12839865685;0.786505937576;0.0683666691184;1;True;36;1;76.69110501930327
278;278;1449491425;2.1284046173099997;0.786511659622;0.0683562755585;1;True;36;1;76.69110501930327
279;279;1449491425;2.12838125229;0.7864003181460001;0.068396911025;1;True;36;1;76.69110501930327
280;280;1449491425;2.12842202187;0.786441683769;0.0683591216803;1;True;36;1;76.69110501930327
281;281;1449491425;2.12841677666;0.786402881145;0.0683701485395;1;True;36;1;76.69110501930327
282;282;1449491425;2.12838888168;0.7864642739300001;0.0684080198407;1;True;36;1;76.69110501930327
283;283;1449491425;2.12840104103;0.7863338589669999;0.0682999044657;1;True;36;1;76.69110501930327
284;284;1449491425;2.1284143924700003;0.786448478699;0.0683945566416;1;True;36;1;76.69110501930327
285;285;1449491425;2.12842202187;0.7865827083589999;0.06831385940309999;1;True;36;1;76.69110501930327
286;286;1449491425;2.1284170150799997;0.786421000957;0.0683271065354;1;True;36;1;76.69110501930327
287;287;1449491425;2.12843561172;0.786508917809;0.0682954490185;1;True;36;1;76.69110501930327
288;288;1449491425;2.1283807754499997;0.786335945129;0.0684017688036;1;True;36;1;76.69110501930327
289;289;1449491425;2.12842273712;0.7864958643909999;0.06837701797489999;1;True;36;1;76.69110501930327
290;290;1449491425;2.12843036652;0.786482870579;0.0683483555913;1;True;36;1;76.69110501930327
291;291;1449491425;2.1284174919099996;0.786380946636;0.0683190897107;1;True;36;1;76.69110501930327
292;292;1449491425;2.12839388847;0.7864140272139999;0.06841537356380001;1;True;36;1;76.69110501930327
293;293;1449491425;2.1283984184299998;0.7863473892209999;0.0684165656567;1;True;36;1;76.69110501930327
294;294;1449491425;2.12843561172;0.7865657210349999;0.0683807209134;1;True;36;1;76.69110501930327
295;295;1449491425;2.1284184455900004;0.7865283489229999;0.0683977603912;1;True;36;1;76.69110501930327
296;296;1449491425;2.12843894958;0.786510288715;0.0683891624212;1;True;36;1;76.69110501930327
297;297;1449491425;2.1284403801;0.786565184593;0.0684039220214;1;True;36;1;76.69110501930327
298;298;1449491425;2.12840127945;0.7865135669709999;0.0684230327606;1;True;36;1;76.69110501930327
299;299;1449491425;2.12843108177;0.786520242691;0.0683774352074;1;True;36;1;76.69110501930327
300;300;1449491425;2.12840795517;0.7865350842479999;0.06849890947340001;1;True;36;1;76.69110501930327
301;301;1449491425;2.12842178345;0.786489725113;0.0684333741665;1;True;36;1;76.69110501930327
302;302;1449491425;2.12843418121;0.7865098714830001;0.0683729425073;1;True;36;1;76.69110501930327
303;303;1449491425;2.1284313201900003;0.786513328552;0.06833031773569999;1;True;36;1;76.69110501930327
304;304;1449491425;2.12843108177;0.7866515517229999;0.0683927759528;1;True;36;1;76.69110501930327
305;305;1449491425;2.12843441963;0.786446511745;0.06836165487769999;1;True;36;1;76.69110501930327
306;306;1449491425;2.12844967842;0.786530077457;0.0683788657188;1;True;36;1;76.69110501930327
307;307;1449491425;2.12841010094;0.78635853529;0.0684065520763;1;True;36;1;76.69110501930327
308;308;1449491425;2.12844491005;0.786468803883;0.0683592259884;1;True;36;1;76.69110501930327
309;309;1449491425;2.12843990326;0.786481738091;0.0683994889259;1;True;36;1;76.69110501930327
310;310;1449491425;2.12844967842;0.786485791206;0.068399451673;1;True;36;1;76.69110501930327
311;311;1449491425;2.1284379959099997;0.786576747894;0.0684086382389;1;True;36;1;76.69110501930327
312;312;1449491425;2.1284558773;0.786561071873;0.0684440881014;1;True;36;1;76.69110501930327
313;313;1449491425;2.12845754623;0.786466300488;0.0683868378401;1;True;36;1;76.69110501930327
314;314;1449491425;2.1284091472599997;0.786341011524;0.068432316184;1;True;36;1;76.69110501930327
315;315;1449491425;2.1284315586099996;0.786427915096;0.068426400423;1;True;36;1;76.69110501930327
316;316;1449491425;2.12847161293;0.786491334438;0.06837531179190001;1;True;36;1;76.69110501930327
317;317;1449491425;2.12840127945;0.786426007748;0.06843292713169999;1;True;36;1;76.69110501930327
318;318;1449491425;2.1284556388900002;0.786471009254;0.0683747455478;1;True;36;1;76.69110501930327
319;319;1449491425;2.12845396996;0.786478877068;0.0683806017041;1;True;36;1;76.69110501930327
320;320;1449491425;2.12843823433;0.786442220211;0.0684461668134;1;True;36;1;76.69110501930327
321;321;1449491425;2.12841773033;0.7864596247669999;0.0684590414166;1;True;36;1;76.69110501930327
322;322;1449491425;2.1284387111700003;0.7865484952930001;0.068385347724;1;True;36;1;76.69110501930327
323;323;1449491425;2.1284184455900004;0.786434471607;0.0684426724911;1;True;36;1;76.69110501930327
324;324;1449491425;2.1284434795400005;0.7865521907809999;0.0684186890721;1;True;36;1;76.69110501930327
325;325;1449491425;2.1284403801;0.7865172028540001;0.0683410391212;1;True;36;1;76.69110501930327
326;326;1449491425;2.12846326828;0.786507189274;0.0683411359787;1;True;36;1;76.69110501930327
327;327;1449491425;2.12841105461;0.786412060261;0.068447470665;1;True;36;1;76.69110501930327
328;328;1449491425;2.1284465789800002;0.786540031433;0.0684350952506;1;True;36;1;76.69110501930327
329;329;1449491425;2.12845373154;0.786578893661;0.0683501511812;1;True;36;1;76.69110501930327
330;330;1449491425;2.1284379959099997;0.786527216434;0.0684212893248;1;True;36;1;76.69110501930327
331;331;1449491425;2.1284379959099997;0.78650444746;0.0684086978436;1;True;36;1;76.69110501930327
332;332;1449491425;2.12844538689;0.786493420601;0.0683599412441;1;True;36;1;76.69110501930327
333;333;1449491425;2.12843513489;0.786557376385;0.0683803036809;1;True;36;1;76.69110501930327
334;334;1449491425;2.12846469879;0.786500155926;0.0683963745832;1;True;36;1;76.69110501930327
335;335;1449491425;2.12843775749;0.7864407897;0.0683469250798;1;True;36;1;76.69110501930327
336;336;1449491425;2.12844586372;0.786502122879;0.06835193932059999;1;True;36;1;76.69110501930327
337;337;1449491425;2.12845015526;0.786596775055;0.0683463215828;1;True;36;1;76.69110501930327
338;338;1449491425;2.1284334659599997;0.786431491375;0.0683976411819;1;True;36;1;76.69110501930327
339;339;1449491425;2.12844419479;0.786547064781;0.0684045553207;1;True;36;1;76.69110501930327
340;340;1449491425;2.12843513489;0.7864383459090001;0.0683517679572;1;True;36;1;76.69110501930327
341;341;1449491425;2.1284224987;0.7864734530449999;0.0683489143848;1;True;36;1;76.69110501930327
342;342;1449491425;2.12844204903;0.786541461945;0.06841938197610001;1;True;36;1;76.69110501930327
343;343;1449491425;2.12840652466;0.7863596677779999;0.0683666616678;1;True;36;1;76.69110501930327
344;344;1449491425;2.12843990326;0.7864974737170001;0.0683409571648;1;True;36;1;76.69110501930327
345;345;1449491425;2.12843441963;0.7864998579029999;0.0683313682675;1;True;36;1;76.69110501930327
346;346;1449491425;2.12844419479;0.786549270153;0.0683124065399;1;True;36;1;76.69110501930327
347;347;1449491425;2.1284394264200004;0.7864555716509999;0.0683654472232;1;True;36;1;76.69110501930327
348;348;1449491425;2.12842464447;0.786457836628;0.0683098956943;1;True;36;1;76.69110501930327
349;349;1449491425;2.1284360885599996;0.786550343037;0.0682989805937;1;True;36;1;76.69110501930327
350;350;1449491425;2.12846112251;0.786572158337;0.068321801722;1;True;36;1;76.69110501930327
351;351;1449491425;2.1284301281;0.786543250084;0.0683908313513;1;True;36;1;76.69110501930327
352;352;1449491425;2.128439188;0.786519765854;0.0682883858681;1;True;36;1;76.69110501930327
353;353;1449491425;2.12840270996;0.7864513397220001;0.0683968141675;1;True;36;1;76.69110501930327
354;354;1449491426;2.12842392921;0.786374568939;0.0683131888509;2;True;36;1;76.69110501930327
355;355;1449491426;2.1284236908;0.7865489125249999;0.068379893899;2;True;36;1;76.69110501930327
356;356;1449491426;2.12842869759;0.786608040333;0.0683020725846;2;True;36;1;76.69110501930327
357;357;1449491426;2.1284058094;0.786425411701;0.0683756023645;2;True;36;1;76.69110501930327
358;358;1449491426;2.12840890884;0.786332905293;0.0683026835322;2;True;36;1;76.69110501930327
359;359;1449491426;2.12842321396;0.7865890264509999;0.0683533325791;2;True;36;1;76.69110501930327
360;360;1449491426;2.12835001945;0.786364674568;0.0683686733246;2;True;36;1;76.69110501930327
361;361;1449491426;2.12840795517;0.786489903927;0.0684625431895;2;True;36;1;76.69110501930327
362;362;1449491426;2.12842965126;0.78648775816;0.0683571770787;2;True;36;1;76.69110501930327
363;363;1449491426;2.12841200829;0.786464333534;0.0683639347553;2;True;36;1;76.69110501930327
364;364;1449491426;2.1284244060499997;0.786504507065;0.0682897344232;2;True;36;1;76.69110501930327
365;365;1449491426;2.12842202187;0.7865547537800001;0.06836761534210001;2;True;36;1;76.69110501930327
366;366;1449491426;2.12841415405;0.786499500275;0.06837399303910001;2;True;36;1;76.69110501930327
367;367;1449491426;2.1284198761;0.7865140438079999;0.06836324930189999;2;True;36;1;76.69110501930327
368;368;1449491426;2.12840723991;0.7863950133319999;0.06834102422;2;True;36;1;76.69110501930327
369;369;1449491426;2.12840676308;0.786513626575;0.06836335361000001;2;True;36;1;76.69110501930327
370;370;1449491426;2.12842583656;0.786530613899;0.0683441609144;2;True;36;1;76.69110501930327
371;371;1449491426;2.12843036652;0.786553680897;0.06838323920969999;2;True;36;1;76.69110501930327
372;372;1449491426;2.12842822075;0.786555528641;0.0683347284794;2;True;36;1;76.69110501930327
373;373;1449491426;2.1284236908;0.786540746689;0.0683771148324;2;True;36;1;76.69110501930327
374;374;1449491426;2.12840342522;0.7866152524950001;0.0683686211705;2;True;36;1;76.69110501930327
375;375;1449491426;2.12843322754;0.786510467529;0.0682766437531;2;True;36;1;76.69110501930327
376;376;1449491426;2.12837767601;0.7864949703219999;0.06844118237499999;2;True;36;1;76.69110501930327
377;377;1449491426;2.12842345238;0.786551952362;0.0683708935976;2;True;36;1;76.69110501930327
378;378;1449491426;2.1284244060499997;0.786546945572;0.0683928132057;2;True;36;1;76.69110501930327
379;379;1449491426;2.12842082977;0.786509335041;0.06832512468100001;2;True;36;1;76.69110501930327
380;380;1449491426;2.1284313201900003;0.786595880985;0.06835225969549999;2;True;36;1;76.69110501930327
381;381;1449491426;2.12842583656;0.78650534153;0.0683502703905;2;True;36;1;76.69110501930327
382;382;1449491426;2.1284081935900003;0.7864195108409999;0.0683298259974;2;True;36;1;76.69110501930327
383;383;1449491426;2.12841176987;0.786585867405;0.0683435574174;2;True;36;1;76.69110501930327
384;384;1449491426;2.12842273712;0.7864057421680001;0.06829920411109999;2;True;36;1;76.69110501930327
385;385;1449491426;2.12842059135;0.786419689655;0.06834617257119999;2;True;36;1;76.69110501930327
386;386;1449491426;2.12838196754;0.786372184753;0.0683089494705;2;True;36;1;76.69110501930327
387;387;1449491426;2.12844491005;0.786552429199;0.0683822780848;2;True;36;1;76.69110501930327
388;388;1449491426;2.12837481499;0.786343753338;0.0683804675937;2;True;36;1;76.69110501930327
389;389;1449491426;2.12841415405;0.78646337986;0.0683568492532;2;True;36;1;76.69110501930327
390;390;1449491426;2.12838101387;0.78635007143;0.068382397294;2;True;36;1;76.69110501930327
391;391;1449491426;2.12843775749;0.786533653736;0.06840062141419999;2;True;36;1;76.69110501930327
392;392;1449491426;2.12841367722;0.7863436937330001;0.0683039426804;2;True;36;1;76.69110501930327
393;393;1449491426;2.12841773033;0.786462187767;0.0683637186885;2;True;36;1;76.69110501930327
394;394;1449491426;2.12841057777;0.78635674715;0.06832382828;2;True;36;1;76.69110501930327
395;395;1449491426;2.1284000873599997;0.786433517933;0.0684660300612;2;True;36;1;76.69110501930327
396;396;1449491426;2.12841629982;0.7864918708799999;0.06833920627830001;2;True;36;1;76.69110501930327
397;397;1449491426;2.12842917442;0.786592364311;0.06831108778719999;2;True;36;1;76.69110501930327
398;398;1449491426;2.12842845917;0.7865591049189999;0.068381741643;2;True;36;1;76.69110501930327
399;399;1449491426;2.1283876895900002;0.7864649891850001;0.0684258267283;2;True;36;1;76.69110501930327
400;400;1449491426;2.1284363269799997;0.78657156229;0.068293467164;2;True;36;1;76.69110501930327
401;401;1449491426;2.12843036652;0.7864099144939999;0.06839387118819999;2;True;36;1;76.69110501930327
402;402;1449491426;2.12840890884;0.786531746387;0.0684554427862;2;True;36;1;76.69110501930327
403;403;1449491426;2.1283943653099997;0.786399960518;0.0684413835406;2;True;36;1;76.69110501930327
404;404;1449491426;2.1284375190700002;0.786453306675;0.0683305636048;2;True;36;1;76.69110501930327
405;405;1449491426;2.1284363269799997;0.786491036415;0.0684362575412;2;True;36;1;76.69110501930327
406;406;1449491426;2.12843394279;0.7865621447560001;0.0683696195483;2;True;36;1;76.69110501930327
407;407;1449491426;2.1284263134;0.786556959152;0.0683777406812;2;True;36;1;76.69110501930327
408;408;1449491426;2.1284158229799996;0.7864845991130001;0.06833761185409999;2;True;36;1;76.69110501930327
409;409;1449491426;2.12843465805;0.786497175694;0.0683985799551;2;True;36;1;76.69110501930327
410;410;1449491426;2.12842965126;0.7865096926690001;0.06843752413990001;2;True;36;1;76.69110501930327
411;411;1449491426;2.12842726707;0.786364853382;0.06836891919369999;2;True;36;1;76.69110501930327
412;412;1449491426;2.12841272354;0.786349117756;0.06839350610969999;2;True;36;1;76.69110501930327
413;413;1449491426;2.12844800949;0.7865832448010001;0.0683571696281;2;True;36;1;76.69110501930327
414;414;1449491426;2.12839317322;0.786356389523;0.0684202089906;2;True;36;1;76.69110501930327
415;415;1449491426;2.12844061852;0.7866151928899999;0.0683353245258;2;True;36;1;76.69110501930327
416;416;1449491426;2.12842202187;0.786492407322;0.0684057250619;2;True;36;1;76.69110501930327
417;417;1449491426;2.12840557098;0.7864094376559999;0.0684390738606;2;True;36;1;76.69110501930327
418;418;1449491426;2.12844967842;0.7864787578579999;0.0683546364307;2;True;36;1;76.69110501930327
419;419;1449491426;2.12845253944;0.786499559879;0.0683201551437;2;True;36;1;76.69110501930327
420;420;1449491426;2.1284224987;0.78650957346;0.0683597028255;2;True;36;1;76.69110501930327
421;421;1449491426;2.1284387111700003;0.7865921258930001;0.0683726072311;2;True;36;1;76.69110501930327
422;422;1449491426;2.12844991684;0.7865697145460001;0.0683388784528;2;True;36;1;76.69110501930327
423;423;1449491426;2.12843036652;0.786593258381;0.0683872103691;2;True;36;1;76.69110501930327
424;424;1449491426;2.12843894958;0.786462903023;0.0683581680059;2;True;36;1;76.69110501930327
425;425;1449491426;2.12841963768;0.7865189909929999;0.06846299767490001;2;True;36;1;76.69110501930327
426;426;1449491426;2.12844896317;0.7865452170370001;0.0683880150318;2;True;36;1;76.69110501930327
427;427;1449491426;2.12844514847;0.786493420601;0.0683706626296;2;True;36;1;76.69110501930327
428;428;1449491426;2.12845396996;0.786512434483;0.0683225169778;2;True;36;1;76.69110501930327
429;429;1449491426;2.1284360885599996;0.78650701046;0.0683559626341;2;True;36;1;76.69110501930327
430;430;1449491426;2.12843370438;0.786517739296;0.068464577198;2;True;36;1;76.69110501930327
431;431;1449491426;2.12844705582;0.7865907549860001;0.0683578774333;2;True;36;1;76.69110501930327
432;432;1449491426;2.12841939926;0.7863665819169999;0.0683924183249;2;True;36;1;76.69110501930327
433;433;1449491426;2.12845134735;0.7864515185359999;0.0683365687728;2;True;36;1;76.69110501930327
434;434;1449491426;2.12842655182;0.786477923393;0.0683351159096;2;True;36;1;76.69110501930327
435;435;1449491426;2.1284000873599997;0.786487698555;0.0684353336692;2;True;36;1;76.69110501930327
436;436;1449491426;2.12841463089;0.7863801121709999;0.068411372602;2;True;36;1;76.69110501930327
437;437;1449491426;2.12844276428;0.786487698555;0.0683970823884;2;True;36;1;76.69110501930327
438;438;1449491426;2.12842845917;0.7864949703219999;0.06840647012;2;True;36;1;76.69110501930327
439;439;1449491426;2.1284358501400003;0.7863929867739999;0.0683369785547;2;True;36;1;76.69110501930327
440;440;1449491426;2.1284129619599996;0.7864909768100001;0.0683977380395;2;True;36;1;76.69110501930327
441;441;1449491426;2.12844133377;0.786428809166;0.0683606043458;2;True;36;1;76.69110501930327
442;442;1449491426;2.1284394264200004;0.7864791750910001;0.0683353245258;2;True;36;1;76.69110501930327
443;443;1449491426;2.1284387111700003;0.7865492105480001;0.06842106580730001;2;True;36;1;76.69110501930327
444;444;1449491426;2.1284434795400005;0.786409676075;0.0683483704925;2;True;36;1;76.69110501930327
445;445;1449491426;2.1284379959099997;0.786447584629;0.068341717124;2;True;36;1;76.69110501930327
446;446;1449491426;2.1284360885599996;0.786565423012;0.0684610456228;2;True;36;1;76.69110501930327
447;447;1449491426;2.12838792801;0.786449074745;0.0683985650539;2;True;36;1;76.69110501930327
448;448;1449491426;2.12841963768;0.786529064178;0.0684283152223;2;True;36;1;76.69110501930327
449;449;1449491426;2.12843990326;0.7864316701890001;0.0683525577188;2;True;36;1;76.69110501930327
450;450;1449491426;2.1284267902400003;0.7865856289859999;0.0683790594339;2;True;36;1;76.69110501930327
451;451;1449491426;2.1284236908;0.786418020725;0.06831227988;2;True;36;1;76.69110501930327
452;452;1449491426;2.12841510773;0.786431312561;0.06837439537050001;2;True;36;1;76.69110501930327
453;453;1449491426;2.12840676308;0.7865148782729999;0.0684165433049;2;True;36;1;76.69110501930327
454;454;1449491426;2.12842726707;0.7864385247229999;0.0683363154531;2;True;36;1;76.69110501930327
455;455;1449491426;2.12841391563;0.786538243294;0.0683820694685;2;True;36;1;76.69110501930327
456;456;1449491426;2.12839126587;0.786363661289;0.0684017017484;2;True;36;1;76.69110501930327
457;457;1449491426;2.12841868401;0.786546111107;0.068369731307;2;True;36;1;76.69110501930327
458;458;1449491426;2.12843084335;0.786472022533;0.0683133900166;2;True;36;1;76.69110501930327
459;459;1449491426;2.1283926963799997;0.786448299885;0.06840429455040001;2;True;36;1;76.69110501930327
460;460;1449491426;2.1284236908;0.786530971527;0.0683982670307;2;True;36;1;76.69110501930327
461;461;1449491426;2.12842130661;0.7866131663320001;0.0683296099305;2;True;36;1;76.69110501930327
462;462;1449491426;2.12842583656;0.786365866661;0.06832395493980001;2;True;36;1;76.69110501930327
463;463;1449491426;2.12841939926;0.7865011692049999;0.0683344900608;2;True;36;1;76.69110501930327
464;464;1449491426;2.1284327507;0.786479711533;0.06834118068219999;2;True;36;1;76.69110501930327
465;465;1449491426;2.12841773033;0.7864527702330001;0.0683307126164;2;True;36;1;76.69110501930327
466;466;1449491426;2.1284315586099996;0.786471605301;0.0683438107371;2;True;36;1;76.69110501930327
467;467;1449491426;2.12841916084;0.786478102207;0.0683593377471;2;True;36;1;76.69110501930327
468;468;1449491426;2.1284184455900004;0.786496579647;0.06835566461090001;2;True;36;1;76.69110501930327
469;469;1449491426;2.12842273712;0.786500155926;0.0683426037431;2;True;36;1;76.69110501930327
470;470;1449491426;2.12843441963;0.786579668522;0.0683252066374;2;True;36;1;76.69110501930327
471;471;1449491426;2.12842869759;0.7865514755249999;0.0683908164501;2;True;36;1;76.69110501930327
472;472;1449491426;2.12839388847;0.786311328411;0.0684139952064;2;True;36;1;76.69110501930327
473;473;1449491426;2.1284394264200004;0.786463916302;0.0683139339089;2;True;36;1;76.69110501930327
474;474;1449491426;2.1284322738599997;0.786557257175;0.06830100715160001;2;True;36;1;76.69110501930327
475;475;1449491426;2.12838888168;0.786380946636;0.06832837313409999;2;True;36;1;76.69110501930327
476;476;1449491426;2.12841200829;0.786393404007;0.0683011114597;2;True;36;1;76.69110501930327
477;477;1449491426;2.12844419479;0.786476969719;0.0683559253812;2;True;36;1;76.69110501930327
478;478;1449491426;2.12842941284;0.786480307579;0.0683306008577;2;True;36;1;76.69110501930327
479;479;1449491426;2.1284379959099997;0.786572992802;0.0683627873659;2;True;36;1;76.69110501930327
480;480;1449491426;2.1284277439099997;0.7864357829090001;0.06837484985589999;2;True;36;1;76.69110501930327
481;481;1449491426;2.12841725349;0.786487579346;0.0683502182364;2;True;36;1;76.69110501930327
482;482;1449491426;2.12840080261;0.78653383255;0.0684135779738;2;True;36;1;76.69110501930327
483;483;1449491426;2.1284432411200003;0.7865798473360001;0.06830846518280001;2;True;36;1;76.69110501930327
484;484;1449491426;2.12841320038;0.786413371563;0.0683765634894;2;True;36;1;76.69110501930327
485;485;1449491426;2.12837576866;0.786342263222;0.0683009326458;2;True;36;1;76.69110501930327
486;486;1449491426;2.12843084335;0.7864691615100001;0.0683698877692;2;True;36;1;76.69110501930327
487;487;1449491426;2.12842464447;0.7864957451819999;0.06832882761959999;2;True;36;1;76.69110501930327
488;488;1449491426;2.12846922874;0.786470293999;0.0684844851494;2;True;36;1;76.69110501930327
489;489;1449491426;2.12844061852;0.7865439057350001;0.068375185132;2;True;36;1;76.69110501930327
490;490;1449491426;2.12842512131;0.7864630222319999;0.06828872859480001;2;True;36;1;76.69110501930327
491;491;1449491426;2.12840127945;0.78636354208;0.0683443322778;2;True;36;1;76.69110501930327
492;492;1449491426;2.12842965126;0.786600649357;0.0683269649744;2;True;36;1;76.69110501930327
493;493;1449491426;2.12841129303;0.786461234093;0.0683559328318;2;True;36;1;76.69110501930327
494;494;1449491426;2.1284401416799996;0.786516785622;0.0682910010219;2;True;36;1;76.69110501930327
495;495;1449491426;2.1284403801;0.7865062952040001;0.06832371652130001;2;True;36;1;76.69110501930327
496;496;1449491426;2.12838578224;0.786414921284;0.0684403553605;2;True;36;1;76.69110501930327
497;497;1449491426;2.12842607498;0.7864915728569999;0.0683897286654;2;True;36;1;76.69110501930327
498;498;1449491426;2.1284408569299997;0.786460995674;0.0683156475425;2;True;36;1;76.69110501930327
499;499;1449491426;2.12844443321;0.7865862250329999;0.0683321207762;2;True;36;1;76.69110501930327
500;500;1449491426;2.12842535973;0.7865301966670001;0.0683875530958;2;True;36;1;76.69110501930327
501;501;1449491426;2.1283950805700003;0.7863799333570001;0.0683225989342;2;True;36;1;76.69110501930327
502;502;1449491426;2.12843322754;0.786517679691;0.0683699846268;2;True;36;1;76.69110501930327
503;503;1449491426;2.12843489647;0.786486268044;0.0683755129576;2;True;36;1;76.69110501930327
504;504;1449491426;2.12842917442;0.7866723537450001;0.06834009289739999;2;True;36;1;76.69110501930327
505;505;1449491426;2.12843513489;0.7864918708799999;0.0683468058705;2;True;36;1;76.69110501930327
506;506;1449491426;2.1284174919099996;0.7865036726000001;0.0683385357261;2;True;36;1;76.69110501930327
507;507;1449491426;2.12842082977;0.7864685654639999;0.0684219747782;2;True;36;1;76.69110501930327
508;508;1449491426;2.1284475326499996;0.786612510681;0.06830445677040001;2;True;36;1;76.69110501930327
509;509;1449491426;2.1284334659599997;0.786469578743;0.0683637484908;2;True;36;1;76.69110501930327
510;510;1449491426;2.1284267902400003;0.78634095192;0.06831966340540001;2;True;36;1;76.69110501930327
511;511;1449491426;2.12841057777;0.78646171093;0.0683852136135;2;True;36;1;76.69110501930327
512;512;1449491426;2.12841796875;0.7864432334899999;0.068417660892;2;True;36;1;76.69110501930327
513;513;1449491426;2.12844204903;0.7864416241650001;0.0683656334877;2;True;36;1;76.69110501930327
514;514;1449491426;2.1283984184299998;0.7865209579469999;0.0684244334698;2;True;36;1;76.69110501930327
515;515;1449491426;2.1284158229799996;0.7865160703659999;0.0685102492571;2;True;36;1;76.69110501930327
516;516;1449491426;2.1284334659599997;0.786462008953;0.0683221369982;2;True;36;1;76.69110501930327
517;517;1449491426;2.1284081935900003;0.786457836628;0.06834290176630001;2;True;36;1;76.69110501930327
518;518;1449491426;2.12845826149;0.786474168301;0.0683621838689;2;True;36;1;76.69110501930327
519;519;1449491426;2.12839460373;0.7863908410070001;0.0684132277966;2;True;36;1;76.69110501930327
520;520;1449491426;2.12844181061;0.786472022533;0.0683290436864;2;True;36;1;76.69110501930327
521;521;1449491426;2.1284401416799996;0.786438822746;0.0683497413993;2;True;36;1;76.69110501930327
522;522;1449491426;2.1284532547;0.7865826487540001;0.0683763623238;2;True;36;1;76.69110501930327
523;523;1449491426;2.12844419479;0.78644490242;0.06834932416680001;2;True;36;1;76.69110501930327
524;524;1449491426;2.12842607498;0.786563336849;0.0684364065528;2;True;36;1;76.69110501930327
525;525;1449491426;2.1284317970299997;0.786461055279;0.068415902555;2;True;36;1;76.69110501930327
526;526;1449491426;2.1284379959099997;0.786401569843;0.0683742314577;2;True;36;1;76.69110501930327
527;527;1449491426;2.12841510773;0.786459565163;0.06839663535360001;2;True;36;1;76.69110501930327
528;528;1449491426;2.12845635414;0.786589443684;0.0683759152889;2;True;36;1;76.69110501930327
529;529;1449491426;2.1284520626099996;0.786473214626;0.0683526471257;2;True;36;1;76.69110501930327
530;530;1449491426;2.12844395638;0.786486446857;0.068396769464;2;True;36;1;76.69110501930327
531;531;1449491426;2.12841558456;0.786441981792;0.06841389089819999;2;True;36;1;76.69110501930327
532;532;1449491426;2.1284401416799996;0.786453068256;0.0684090182185;2;True;36;1;76.69110501930327
533;533;1449491426;2.1284711360900004;0.786537408829;0.06835317611689999;2;True;36;1;76.69110501930327
534;534;1449491426;2.12843108177;0.7864507436750001;0.0684398710728;2;True;36;1;76.69110501930327
535;535;1449491426;2.12846112251;0.7865766286849999;0.068352676928;2;True;36;1;76.69110501930327
536;536;1449491426;2.12844848633;0.786563575268;0.06835312396290001;2;True;36;1;76.69110501930327
537;537;1449491426;2.12845134735;0.7864539623260001;0.0684347227216;2;True;36;1;76.69110501930327
538;538;1449491426;2.12845301628;0.786571323872;0.0684161707759;2;True;36;1;76.69110501930327
539;539;1449491426;2.1284506321000003;0.786555469036;0.06839094311;2;True;36;1;76.69110501930327
540;540;1449491426;2.12843108177;0.786418020725;0.0684184655547;2;True;36;1;76.69110501930327
541;541;1449491426;2.1284472942400003;0.7864758968350001;0.0683361366391;2;True;36;1;76.69110501930327
542;542;1449491426;2.12842655182;0.786587178707;0.0684226602316;2;True;36;1;76.69110501930327
543;543;1449491426;2.12844920158;0.786500811577;0.0684062689543;2;True;36;1;76.69110501930327
544;544;1449491426;2.1284570694;0.786586999893;0.06834784150119999;2;True;36;1;76.69110501930327
545;545;1449491426;2.12844872475;0.786456465721;0.0683398842812;2;True;36;1;76.69110501930327
546;546;1449491426;2.12845134735;0.786519348621;0.0683334842324;2;True;36;1;76.69110501930327
547;547;1449491426;2.12842392921;0.786476969719;0.0684600099921;2;True;36;1;76.69110501930327
548;548;1449491426;2.12846040726;0.786509513855;0.06843375414609999;2;True;36;1;76.69110501930327
549;549;1449491426;2.12845921516;0.786454975605;0.0683413594961;2;True;36;1;76.69110501930327
550;550;1449491426;2.12844514847;0.7865623831749999;0.0684013515711;2;True;36;1;76.69110501930327
551;551;1449491426;2.1284408569299997;0.786555349827;0.0683545842767;2;True;36;1;76.69110501930327
552;552;1449491426;2.1284532547;0.7865481972689999;0.0683409869671;2;True;36;1;76.69110501930327
553;553;1449491426;2.12844848633;0.786557018757;0.0683464109898;2;True;36;1;76.69110501930327
554;554;1449491426;2.12844538689;0.786475300789;0.0684059634805;2;True;36;1;76.69110501930327
555;555;1449491426;2.1284558773;0.786553144455;0.0684273838997;2;True;36;1;76.69110501930327
556;556;1449491426;2.1284437179599998;0.7864635586740001;0.06839895993470001;2;True;36;1;76.69110501930327
557;557;1449491426;2.1284244060499997;0.786522507668;0.0684101432562;2;True;36;1;76.69110501930327
558;558;1449491426;2.12843680382;0.786540269852;0.0683990344405;2;True;36;1;76.69110501930327
559;559;1449491426;2.12844562531;0.7864930629729999;0.0683642551303;2;True;36;1;76.69110501930327
560;560;1449491426;2.1284322738599997;0.7865077853200001;0.0684487521648;2;True;36;1;76.69110501930327
561;561;1449491426;2.12843823433;0.786438882351;0.0683566480875;2;True;36;1;76.69110501930327
562;562;1449491426;2.12839889526;0.786459565163;0.0684406831861;2;True;36;1;76.69110501930327
563;563;1449491426;2.12843322754;0.786380589008;0.0683217421174;2;True;36;1;76.69110501930327
564;564;1449491426;2.12843203545;0.7864849567409999;0.0683517158031;2;True;36;1;76.69110501930327
565;565;1449491426;2.12841558456;0.786511659622;0.0684230476618;2;True;36;1;76.69110501930327
566;566;1449491426;2.12842202187;0.786389648914;0.0683826953173;2;True;36;1;76.69110501930327
567;567;1449491426;2.12843513489;0.7866613864899998;0.0682906955481;2;True;36;1;76.69110501930327
568;568;1449491426;2.12842583656;0.7864923477169999;0.06834679842000001;2;True;36;1;76.69110501930327
569;569;1449491426;2.12845993042;0.786510467529;0.0683199763298;2;True;36;1;76.69110501930327
570;570;1449491426;2.12846088409;0.7865950465199999;0.0683480277658;2;True;36;1;76.69110501930327
571;571;1449491426;2.12833857536;0.78637611866;0.0683896243572;2;True;36;1;76.69110501930327
572;572;1449491426;2.12843370438;0.786591947079;0.0683637931943;2;True;36;1;76.69110501930327
573;573;1449491426;2.12840127945;0.7863448858259999;0.0684108436108;2;True;36;1;76.69110501930327
574;574;1449491426;2.12844800949;0.786569595337;0.0683586746454;2;True;36;1;76.69110501930327
575;575;1449491426;2.12844252586;0.7864947915080001;0.06837228685619999;2;True;36;1;76.69110501930327
576;576;1449491426;2.1284322738599997;0.786393582821;0.0683290362358;2;True;36;1;76.69110501930327
577;577;1449491426;2.12843680382;0.7865120768549999;0.0683686286211;2;True;36;1;76.69110501930327
578;578;1449491426;2.12843704224;0.7863915562630001;0.0683318600059;2;True;36;1;76.69110501930327
579;579;1449491426;2.12843203545;0.786465585232;0.0683703199029;2;True;36;1;76.69110501930327
580;580;1449491426;2.1284415721900003;0.7864833474160001;0.0683493614197;2;True;36;1;76.69110501930327
581;581;1449491426;2.12845253944;0.786469101906;0.0683514177799;2;True;36;1;76.69110501930327
582;582;1449491426;2.12836360931;0.7866724729539999;0.068329192698;2;True;36;1;76.69110501930327
583;583;1449491426;2.12843370438;0.786424398422;0.0683246925473;2;True;36;1;76.69110501930327
584;584;1449491426;2.1284198761;0.786435306072;0.0684092193842;2;True;36;1;76.69110501930327
585;585;1449491426;2.12841725349;0.786496400833;0.0684759542346;2;True;36;1;76.69110501930327
586;586;1449491426;2.12840795517;0.786394357681;0.0684024021029;2;True;36;1;76.69110501930327
587;587;1449491426;2.12846016884;0.7865763306620001;0.0683291107416;2;True;36;1;76.69110501930327
588;588;1449491426;2.1284322738599997;0.7865635156630001;0.0683808624744;2;True;36;1;76.69110501930327
589;589;1449491426;2.12844538689;0.7865697741509999;0.068331643939;2;True;36;1;76.69110501930327
590;590;1449491426;2.12841176987;0.7865700125689999;0.06839951872830001;2;True;36;1;76.69110501930327
591;591;1449491426;2.12842178345;0.786458194256;0.0683258697391;2;True;36;1;76.69110501930327
592;592;1449491426;2.12841367722;0.78635764122;0.0683710053563;2;True;36;1;76.69110501930327
593;593;1449491427;2.12840771675;0.786347329617;0.0683141201735;3;True;36;1;76.69110501930327
594;594;1449491427;2.12844872475;0.7865953445430001;0.06832608580590001;3;True;36;1;76.69110501930327
595;595;1449491427;2.1284170150799997;0.786476612091;0.06838321685790001;3;True;36;1;76.69110501930327
596;596;1449491427;2.12841486931;0.78634262085;0.06831443309780001;3;True;36;1;76.69110501930327
597;597;1449491427;2.12842965126;0.78643399477;0.068313896656;3;True;36;1;76.69110501930327
598;598;1449491427;2.1284263134;0.786466836929;0.068352021277;3;True;36;1;76.69110501930327
599;599;1449491427;2.12840867043;0.786608994007;0.0683116316795;3;True;36;1;76.69110501930327
600;600;1449491427;2.12842726707;0.7864927649500001;0.0683444291353;3;True;36;1;76.69110501930327
601;601;1449491427;2.12842655182;0.7864642739300001;0.06830794364210001;3;True;36;1;76.69110501930327
602;602;1449491427;2.12843108177;0.7864431738850001;0.0683898329735;3;True;36;1;76.69110501930327
603;603;1449491427;2.12841010094;0.7864774465559999;0.068437770009;3;True;36;1;76.69110501930327
604;604;1449491427;2.1283848285699998;0.78655898571;0.0683984309435;3;True;36;1;76.69110501930327
605;605;1449491427;2.1284360885599996;0.7864466309550001;0.0683315545321;3;True;36;1;76.69110501930327
606;606;1449491427;2.1284267902400003;0.786468684673;0.0683101713657;3;True;36;1;76.69110501930327
607;607;1449491427;2.1284432411200003;0.786564171314;0.0683746635914;3;True;36;1;76.69110501930327
608;608;1449491427;2.1284224987;0.786481499672;0.0684092342854;3;True;36;1;76.69110501930327
609;609;1449491427;2.1284468174;0.7865132093430001;0.0683214142919;3;True;36;1;76.69110501930327
610;610;1449491427;2.12844514847;0.78648775816;0.0683049187064;3;True;36;1;76.69110501930327
611;611;1449491427;2.12840604782;0.786472499371;0.06833145022390001;3;True;36;1;76.69110501930327
612;612;1449491427;2.12841820717;0.7865489125249999;0.0683929100633;3;True;36;1;76.69110501930327
