;Unnamed: 0;header_stamp_secs;pose_position_x;pose_position_y;pose_position_z;seconds;drop_values;flight_number;label;dtw
0;0;1449491970;2.12575244904;0.7899280190469999;0.0682330876589;0;True;38;1;74.90685032680491
1;1;1449491970;2.12573051453;0.7898672223090001;0.0682222098112;0;True;38;1;74.90685032680491
2;2;1449491970;2.12574481964;0.789893686771;0.0681213513017;0;True;38;1;74.90685032680491
3;3;1449491970;2.12571191788;0.789802253246;0.0682325437665;0;True;38;1;74.90685032680491
4;4;1449491970;2.12574887276;0.789992272854;0.068229444325;0;True;38;1;74.90685032680491
5;5;1449491970;2.12571191788;0.7898747324940001;0.0681898668408;0;True;38;1;74.90685032680491
6;6;1449491970;2.12573432922;0.789879262447;0.06821939349169999;0;True;38;1;74.90685032680491
7;7;1449491970;2.12574243546;0.789962589741;0.06819850951430001;0;True;38;1;74.90685032680491
8;8;1449491970;2.12571001053;0.790029525757;0.0682714879513;0;True;38;1;74.90685032680491
9;9;1449491970;2.12574672699;0.789933025837;0.0681477859616;0;True;38;1;74.90685032680491
10;10;1449491970;2.12574696541;0.789870262146;0.0682086572051;0;True;38;1;74.90685032680491
11;11;1449491970;2.12574744225;0.7900734543800001;0.06821011006830001;0;True;38;1;74.90685032680491
12;12;1449491970;2.1257057189900004;0.789852440357;0.0681905150414;0;True;38;1;74.90685032680491
13;13;1449491970;2.12568593025;0.789838671684;0.0682516619563;0;True;38;1;74.90685032680491
14;14;1449491970;2.1257307529400005;0.78995090723;0.0682576373219;0;True;38;1;74.90685032680491
15;15;1449491970;2.1257028579700004;0.78982514143;0.06833939999340001;0;True;38;1;74.90685032680491
16;16;1449491970;2.1257505416900004;0.789914369583;0.0682490468025;0;True;38;1;74.90685032680491
17;17;1449491970;2.12569785118;0.7898401021960001;0.0681829750538;0;True;38;1;74.90685032680491
18;18;1449491970;2.12572169304;0.790081560612;0.0681471377611;0;True;38;1;74.90685032680491
19;19;1449491970;2.12574267387;0.790059804916;0.06814078241589999;0;True;38;1;74.90685032680491
20;20;1449491970;2.12573170662;0.789907932281;0.0682496801019;0;True;38;1;74.90685032680491
21;21;1449491970;2.1257069110900004;0.789910674095;0.0682667866349;0;True;38;1;74.90685032680491
22;22;1449491970;2.12571978569;0.789934337139;0.06825789809230001;0;True;38;1;74.90685032680491
23;23;1449491970;2.12568807602;0.789826154709;0.0681884437799;0;True;38;1;74.90685032680491
24;24;1449491970;2.12568545341;0.7898600101469999;0.0681858435273;0;True;38;1;74.90685032680491
25;25;1449491970;2.1256828308099998;0.789816439152;0.0681944340467;0;True;38;1;74.90685032680491
26;26;1449491970;2.12574982643;0.789950251579;0.06823828816409999;0;True;38;1;74.90685032680491
27;27;1449491970;2.1257610321000002;0.789964020252;0.0682366937399;0;True;38;1;74.90685032680491
28;28;1449491970;2.12574386597;0.789960086346;0.0682518333197;0;True;38;1;74.90685032680491
29;29;1449491970;2.12573671341;0.789943158627;0.06824162602419999;0;True;38;1;74.90685032680491
30;30;1449491970;2.12573552132;0.789915859699;0.0682441145182;0;True;38;1;74.90685032680491
31;31;1449491970;2.1256871223400005;0.789909660816;0.0683290734887;0;True;38;1;74.90685032680491
32;32;1449491970;2.12575292587;0.7899534702300001;0.06825710833069999;0;True;38;1;74.90685032680491
33;33;1449491970;2.12575173378;0.789870321751;0.0682607740164;0;True;38;1;74.90685032680491
34;34;1449491970;2.1257243156400003;0.789873242378;0.0682296678424;0;True;38;1;74.90685032680491
35;35;1449491970;2.1257531642900003;0.7899276614190001;0.0682845711708;0;True;38;1;74.90685032680491
36;36;1449491970;2.12577319145;0.789936423302;0.0681880116463;0;True;38;1;74.90685032680491
37;37;1449491970;2.12575411797;0.789932906628;0.0681668370962;0;True;38;1;74.90685032680491
38;38;1449491970;2.1257405281099997;0.7899598479269999;0.068293005228;0;True;38;1;74.90685032680491
39;39;1449491970;2.1257066726700002;0.789943158627;0.0682653933764;0;True;38;1;74.90685032680491
40;40;1449491970;2.1257686615;0.7899116277689999;0.0682003870606;0;True;38;1;74.90685032680491
41;41;1449491970;2.12576556206;0.789856374264;0.068268366158;0;True;38;1;74.90685032680491
42;42;1449491970;2.12577414513;0.790053427219;0.0681708008051;0;True;38;1;74.90685032680491
43;43;1449491971;2.1257493495900004;0.7899633646009999;0.0682518929243;1;True;38;1;74.90685032680491
44;44;1449491971;2.1257643699599997;0.789897561073;0.0682767406106;1;True;38;1;74.90685032680491
45;45;1449491971;2.12573647499;0.789849162102;0.0682505965233;1;True;38;1;74.90685032680491
46;46;1449491971;2.1257820129400002;0.789910256863;0.06818030029540001;1;True;38;1;74.90685032680491
47;47;1449491971;2.12568950653;0.789774596691;0.06820608675480001;1;True;38;1;74.90685032680491
48;48;1449491971;2.12577223778;0.78987455368;0.0682144612074;1;True;38;1;74.90685032680491
49;49;1449491971;2.1257698535900005;0.7898862361910001;0.0682069584727;1;True;38;1;74.90685032680491
50;50;1449491971;2.12577486038;0.789952099323;0.0683225989342;1;True;38;1;74.90685032680491
51;51;1449491971;2.12577342987;0.789924740791;0.0682904496789;1;True;38;1;74.90685032680491
52;52;1449491971;2.12570738792;0.7899128794670001;0.0683221742511;1;True;38;1;74.90685032680491
53;53;1449491971;2.1257622242;0.789935231209;0.0682447776198;1;True;38;1;74.90685032680491
54;54;1449491971;2.12576460838;0.789945244789;0.0682540759444;1;True;38;1;74.90685032680491
55;55;1449491971;2.12573766708;0.7898502945899999;0.06823487579819999;1;True;38;1;74.90685032680491
56;56;1449491971;2.12573266029;0.789946615696;0.06821937114;1;True;38;1;74.90685032680491
57;57;1449491971;2.12575435638;0.7899373769760001;0.0682614222169;1;True;38;1;74.90685032680491
58;58;1449491971;2.12574481964;0.790083885193;0.0681505873799;1;True;38;1;74.90685032680491
59;59;1449491971;2.12574005127;0.789950251579;0.0683538913727;1;True;38;1;74.90685032680491
60;60;1449491971;2.1257724762;0.789945423603;0.0682346150279;1;True;38;1;74.90685032680491
61;61;1449491971;2.1257307529400005;0.789954185486;0.06820220500230001;1;True;38;1;74.90685032680491
62;62;1449491971;2.1257503032700003;0.789949119091;0.0681808069348;1;True;38;1;74.90685032680491
63;63;1449491971;2.12573361397;0.789873301983;0.0681906268001;1;True;38;1;74.90685032680491
64;64;1449491971;2.12571835518;0.789998531342;0.0682355463505;1;True;38;1;74.90685032680491
65;65;1449491971;2.1257390976;0.789898097515;0.06831773370500001;1;True;38;1;74.90685032680491
66;66;1449491971;2.12573552132;0.78988546133;0.0682361125946;1;True;38;1;74.90685032680491
67;67;1449491971;2.12576842308;0.7899460792540001;0.0681370943785;1;True;38;1;74.90685032680491
68;68;1449491971;2.1257154941599996;0.789795935154;0.0681933239102;1;True;38;1;74.90685032680491
69;69;1449491971;2.12573552132;0.789930403233;0.06822196394209999;1;True;38;1;74.90685032680491
70;70;1449491971;2.12575340271;0.789926409721;0.0681552663445;1;True;38;1;74.90685032680491
71;71;1449491971;2.12571597099;0.789867162704;0.0682055726647;1;True;38;1;74.90685032680491
72;72;1449491971;2.12569761276;0.7898237109180001;0.0681983083487;1;True;38;1;74.90685032680491
73;73;1449491971;2.12575697899;0.789950370789;0.0681191310287;1;True;38;1;74.90685032680491
74;74;1449491971;2.12572407722;0.78995090723;0.0682071745396;1;True;38;1;74.90685032680491
75;75;1449491971;2.1257519722;0.789979398251;0.0682230591774;1;True;38;1;74.90685032680491
76;76;1449491971;2.12574315071;0.7899369597429999;0.06822366267440001;1;True;38;1;74.90685032680491
77;77;1449491971;2.12572383881;0.789956510067;0.0682036206126;1;True;38;1;74.90685032680491
78;78;1449491971;2.12573218346;0.790084064007;0.0681790187955;1;True;38;1;74.90685032680491
79;79;1449491971;2.12576174736;0.789925098419;0.0681645050645;1;True;38;1;74.90685032680491
80;80;1449491971;2.1257069110900004;0.7898736000059999;0.06825998425480001;1;True;38;1;74.90685032680491
81;81;1449491971;2.12565255165;0.789921700954;0.0682666897774;1;True;38;1;74.90685032680491
82;82;1449491971;2.12573575974;0.789877653122;0.068155772984;1;True;38;1;74.90685032680491
83;83;1449491971;2.12574887276;0.7899474501610001;0.0681229010224;1;True;38;1;74.90685032680491
84;84;1449491971;2.12575125694;0.789973318577;0.0682310685515;1;True;38;1;74.90685032680491
85;85;1449491971;2.1257386207599995;0.789819657803;0.0682202652097;1;True;38;1;74.90685032680491
86;86;1449491971;2.12574458122;0.7899468541150001;0.0681948363781;1;True;38;1;74.90685032680491
87;87;1449491971;2.12569308281;0.78988546133;0.06826307624580001;1;True;38;1;74.90685032680491
88;88;1449491971;2.12575721741;0.7898960113529999;0.0681609362364;1;True;38;1;74.90685032680491
89;89;1449491971;2.12570810318;0.789947807789;0.0682823508978;1;True;38;1;74.90685032680491
90;90;1449491971;2.12572836876;0.7899945974349999;0.06815858185290001;1;True;38;1;74.90685032680491
91;91;1449491971;2.12573957443;0.789873123169;0.0681543052197;1;True;38;1;74.90685032680491
92;92;1449491971;2.12571024895;0.789884567261;0.0681999698281;1;True;38;1;74.90685032680491
93;93;1449491971;2.1257219314599998;0.78992331028;0.06821092218159999;1;True;38;1;74.90685032680491
94;94;1449491971;2.1257338523900002;0.789804041386;0.0682796910405;1;True;38;1;74.90685032680491
95;95;1449491971;2.12572050095;0.7898877859119999;0.068203471601;1;True;38;1;74.90685032680491
96;96;1449491971;2.12572050095;0.789956927299;0.068203009665;1;True;38;1;74.90685032680491
97;97;1449491971;2.1257314682;0.7899708747859999;0.0682319253683;1;True;38;1;74.90685032680491
98;98;1449491971;2.1257441043900003;0.7900125980380001;0.0683458447456;1;True;38;1;74.90685032680491
99;99;1449491971;2.1257219314599998;0.790058732033;0.068175829947;1;True;38;1;74.90685032680491
100;100;1449491971;2.12574386597;0.789845347404;0.06822253018619999;1;True;38;1;74.90685032680491
101;101;1449491971;2.12573981285;0.789947330952;0.06823559850449999;1;True;38;1;74.90685032680491
102;102;1449491971;2.1256775856;0.789912521839;0.0682071819901;1;True;38;1;74.90685032680491
103;103;1449491971;2.12573981285;0.789936065674;0.0681315287948;1;True;38;1;74.90685032680491
104;104;1449491971;2.12573623657;0.789924681187;0.0681617856026;1;True;38;1;74.90685032680491
105;105;1449491971;2.12570929527;0.789867460728;0.0682342350483;1;True;38;1;74.90685032680491
106;106;1449491971;2.1256749630000003;0.789888203144;0.0683036744595;1;True;38;1;74.90685032680491
107;107;1449491971;2.12576293945;0.789946138859;0.0682589709759;1;True;38;1;74.90685032680491
108;108;1449491971;2.1256878375999997;0.78990727663;0.0682433545589;1;True;38;1;74.90685032680491
109;109;1449491971;2.12571763992;0.789933562279;0.06824574619530001;1;True;38;1;74.90685032680491
110;110;1449491971;2.12574648857;0.789954066277;0.0681642964482;1;True;38;1;74.90685032680491
111;111;1449491971;2.12576127052;0.789984107018;0.0682427659631;1;True;38;1;74.90685032680491
112;112;1449491971;2.12574720383;0.789933800697;0.0681463778019;1;True;38;1;74.90685032680491
113;113;1449491971;2.12573051453;0.789961457253;0.0682514831424;1;True;38;1;74.90685032680491
114;114;1449491971;2.12575221062;0.789953529835;0.0681527256966;1;True;38;1;74.90685032680491
115;115;1449491971;2.1257185936000003;0.789818108082;0.0683200135827;1;True;38;1;74.90685032680491
116;116;1449491971;2.12570405006;0.789825201035;0.06821834295990001;1;True;38;1;74.90685032680491
117;117;1449491971;2.12572360039;0.789883494377;0.0682184100151;1;True;38;1;74.90685032680491
118;118;1449491971;2.12573289871;0.7899168729780001;0.0681858286262;1;True;38;1;74.90685032680491
119;119;1449491971;2.12572216988;0.789820551872;0.0682250708342;1;True;38;1;74.90685032680491
120;120;1449491971;2.12568569183;0.789789736271;0.0681775137782;1;True;38;1;74.90685032680491
121;121;1449491971;2.12574076653;0.790026962757;0.0682038068771;1;True;38;1;74.90685032680491
122;122;1449491971;2.12574529648;0.7899132967;0.0682620555162;1;True;38;1;74.90685032680491
123;123;1449491971;2.1257648468;0.789955377579;0.06826887279749999;1;True;38;1;74.90685032680491
124;124;1449491971;2.12573194504;0.789873063564;0.0682458654046;1;True;38;1;74.90685032680491
125;125;1449491971;2.12574720383;0.789860367775;0.0682291612029;1;True;38;1;74.90685032680491
126;126;1449491971;2.1257493495900004;0.7899814844130001;0.0682487115264;1;True;38;1;74.90685032680491
127;127;1449491971;2.1257505416900004;0.789917171001;0.0681865289807;1;True;38;1;74.90685032680491
128;128;1449491971;2.12575697899;0.7900575995450001;0.0681678131223;1;True;38;1;74.90685032680491
129;129;1449491971;2.1257696151700003;0.7899508476260001;0.0681664645672;1;True;38;1;74.90685032680491
130;130;1449491971;2.12574100494;0.78983271122;0.0682324841619;1;True;38;1;74.90685032680491
131;131;1449491971;2.1257212162;0.789899170399;0.068260550499;1;True;38;1;74.90685032680491
132;132;1449491971;2.12569880486;0.7899253368379999;0.06831871718169999;1;True;38;1;74.90685032680491
133;133;1449491971;2.12571763992;0.789892852306;0.0682487636805;1;True;38;1;74.90685032680491
134;134;1449491971;2.1257679462400003;0.789928138256;0.06827102601530001;1;True;38;1;74.90685032680491
135;135;1449491971;2.1257853508;0.789992630482;0.06824118643999999;1;True;38;1;74.90685032680491
136;136;1449491971;2.1257481575;0.7899761199950001;0.0682425275445;1;True;38;1;74.90685032680491
137;137;1449491971;2.12576293945;0.7898913025859999;0.0682452097535;1;True;38;1;74.90685032680491
138;138;1449491971;2.12577009201;0.7898753285410001;0.06832741200919999;1;True;38;1;74.90685032680491
139;139;1449491971;2.1257300376900004;0.789813160896;0.06830012798309999;1;True;38;1;74.90685032680491
140;140;1449491971;2.12577557564;0.789937615395;0.0682557597756;1;True;38;1;74.90685032680491
141;141;1449491971;2.12577533722;0.789929747581;0.06824310123920001;1;True;38;1;74.90685032680491
142;142;1449491971;2.12575173378;0.789808750153;0.068293876946;1;True;38;1;74.90685032680491
143;143;1449491971;2.1257503032700003;0.7898126840590001;0.0682515949011;1;True;38;1;74.90685032680491
144;144;1449491971;2.1257820129400002;0.789870321751;0.0682345852256;1;True;38;1;74.90685032680491
145;145;1449491971;2.1257779598199997;0.789917469025;0.0681747570634;1;True;38;1;74.90685032680491
146;146;1449491971;2.12571644783;0.7897967696189999;0.0681873559952;1;True;38;1;74.90685032680491
147;147;1449491971;2.1257691383400004;0.790091335773;0.0681613534689;1;True;38;1;74.90685032680491
148;148;1449491971;2.1257779598199997;0.789973855019;0.06822697073219999;1;True;38;1;74.90685032680491
149;149;1449491971;2.1257691383400004;0.7900420427320001;0.06817544251680001;1;True;38;1;74.90685032680491
150;150;1449491971;2.12574362755;0.7897616624830001;0.0682604908943;1;True;38;1;74.90685032680491
151;151;1449491971;2.12572908401;0.78990238905;0.0683236718178;1;True;38;1;74.90685032680491
152;152;1449491971;2.12579083443;0.789967238903;0.0682445466518;1;True;38;1;74.90685032680491
153;153;1449491971;2.12578392029;0.7899481654170001;0.0682750195265;1;True;38;1;74.90685032680491
154;154;1449491971;2.12577557564;0.789921343327;0.0682063475251;1;True;38;1;74.90685032680491
155;155;1449491971;2.12578058243;0.789945781231;0.0682468265295;1;True;38;1;74.90685032680491
156;156;1449491971;2.1257493495900004;0.7899586558339999;0.0682480633259;1;True;38;1;74.90685032680491
157;157;1449491971;2.12577962875;0.789930105209;0.068162791431;1;True;38;1;74.90685032680491
158;158;1449491971;2.12575507164;0.789873659611;0.06821738183500001;1;True;38;1;74.90685032680491
159;159;1449491971;2.1257219314599998;0.789884150028;0.06831604987380001;1;True;38;1;74.90685032680491
160;160;1449491971;2.12574744225;0.7899316549300001;0.0682355761528;1;True;38;1;74.90685032680491
161;161;1449491971;2.12574148178;0.789988398552;0.0682492852211;1;True;38;1;74.90685032680491
162;162;1449491971;2.12569999695;0.789930939674;0.0682416781783;1;True;38;1;74.90685032680491
163;163;1449491971;2.12568569183;0.789785087109;0.0681859478354;1;True;38;1;74.90685032680491
164;164;1449491971;2.12574982643;0.790052473545;0.06816653907300001;1;True;38;1;74.90685032680491
165;165;1449491971;2.12569355965;0.7899379730220001;0.0682429298759;1;True;38;1;74.90685032680491
166;166;1449491971;2.12572956085;0.789834737778;0.06818054616449999;1;True;38;1;74.90685032680491
167;167;1449491971;2.12576723099;0.789951980114;0.0681525096297;1;True;38;1;74.90685032680491
168;168;1449491971;2.12575697899;0.7899379730220001;0.0682387799025;1;True;38;1;74.90685032680491
169;169;1449491971;2.12576818466;0.7898877263070001;0.0681667253375;1;True;38;1;74.90685032680491
170;170;1449491971;2.1257712841;0.78995859623;0.0682175904512;1;True;38;1;74.90685032680491
171;171;1449491971;2.12574529648;0.7899885773659999;0.068263694644;1;True;38;1;74.90685032680491
172;172;1449491971;2.12573242188;0.789781332016;0.0683292374015;1;True;38;1;74.90685032680491
173;173;1449491971;2.12578630447;0.789966106415;0.0681757181883;1;True;38;1;74.90685032680491
174;174;1449491971;2.12573814392;0.7899062037469999;0.0682440772653;1;True;38;1;74.90685032680491
175;175;1449491971;2.1257691383400004;0.789910495281;0.06830432266;1;True;38;1;74.90685032680491
176;176;1449491971;2.12577342987;0.789968132973;0.06825322657819999;1;True;38;1;74.90685032680491
177;177;1449491971;2.1257643699599997;0.7899116277689999;0.0681949406862;1;True;38;1;74.90685032680491
178;178;1449491971;2.12576413155;0.7898746728899999;0.06824349612000001;1;True;38;1;74.90685032680491
179;179;1449491971;2.12576413155;0.7899495959280001;0.0682610273361;1;True;38;1;74.90685032680491
180;180;1449491971;2.12574958801;0.789881169796;0.0682452842593;1;True;38;1;74.90685032680491
181;181;1449491971;2.1257643699599997;0.7899137139319999;0.0681701377034;1;True;38;1;74.90685032680491
182;182;1449491971;2.12575387955;0.789845943451;0.06822774559259999;1;True;38;1;74.90685032680491
183;183;1449491971;2.12576174736;0.79007434845;0.0681359320879;1;True;38;1;74.90685032680491
184;184;1449491971;2.12580227852;0.789930582047;0.0682443082333;1;True;38;1;74.90685032680491
185;185;1449491971;2.1257820129400002;0.789931595325;0.06816983968019999;1;True;38;1;74.90685032680491
186;186;1449491971;2.12577652931;0.7899836301800001;0.0681571140885;1;True;38;1;74.90685032680491
187;187;1449491971;2.1257145404799997;0.789961516857;0.06822765618559999;1;True;38;1;74.90685032680491
188;188;1449491971;2.12569332123;0.789927482605;0.06829008460040001;1;True;38;1;74.90685032680491
189;189;1449491971;2.12574958801;0.789961218834;0.0682449564338;1;True;38;1;74.90685032680491
190;190;1449491971;2.12576246262;0.789972007275;0.0683106034994;1;True;38;1;74.90685032680491
191;191;1449491971;2.12577009201;0.790078341961;0.0681372061372;1;True;38;1;74.90685032680491
192;192;1449491971;2.1257557869;0.789937674999;0.06821791082619999;1;True;38;1;74.90685032680491
193;193;1449491971;2.1257507801099997;0.789935648441;0.0682152211666;1;True;38;1;74.90685032680491
194;194;1449491971;2.1257584095;0.789940655231;0.0682205706835;1;True;38;1;74.90685032680491
195;195;1449491971;2.1257307529400005;0.790002465248;0.0683055594563;1;True;38;1;74.90685032680491
196;196;1449491971;2.1257433891299997;0.7899483442309999;0.0682493150234;1;True;38;1;74.90685032680491
197;197;1449491971;2.12576150894;0.7899359464650001;0.0681367665529;1;True;38;1;74.90685032680491
198;198;1449491971;2.12576746941;0.790069162846;0.0681409090757;1;True;38;1;74.90685032680491
199;199;1449491971;2.12577319145;0.7899693846699999;0.0681417137384;1;True;38;1;74.90685032680491
200;200;1449491971;2.1257712841;0.78996270895;0.0681391134858;1;True;38;1;74.90685032680491
201;201;1449491971;2.12571287155;0.789881587029;0.0682313218713;1;True;38;1;74.90685032680491
202;202;1449491971;2.12576174736;0.789925694466;0.0681561529636;1;True;38;1;74.90685032680491
203;203;1449491971;2.1257691383400004;0.7899426817890001;0.06815586984159999;1;True;38;1;74.90685032680491
204;204;1449491971;2.1257140636400003;0.789844036102;0.0681551843882;1;True;38;1;74.90685032680491
205;205;1449491971;2.12574744225;0.789964914322;0.06824350357060001;1;True;38;1;74.90685032680491
206;206;1449491971;2.12573575974;0.789940655231;0.0683081820607;1;True;38;1;74.90685032680491
207;207;1449491971;2.12571048737;0.789943397045;0.0682991817594;1;True;38;1;74.90685032680491
208;208;1449491971;2.12574005127;0.789946913719;0.0681950077415;1;True;38;1;74.90685032680491
209;209;1449491971;2.12576174736;0.789955794811;0.0681282132864;1;True;38;1;74.90685032680491
210;210;1449491971;2.12570977211;0.790120899677;0.0681103095412;1;True;38;1;74.90685032680491
211;211;1449491971;2.12573814392;0.790079653263;0.0681138560176;1;True;38;1;74.90685032680491
212;212;1449491971;2.12573623657;0.789965510368;0.0681973993778;1;True;38;1;74.90685032680491
213;213;1449491971;2.12573742867;0.7900549769399999;0.0681313350797;1;True;38;1;74.90685032680491
214;214;1449491971;2.12573289871;0.7898769974709999;0.06819588691;1;True;38;1;74.90685032680491
215;215;1449491971;2.12575626373;0.789931297302;0.0681952908635;1;True;38;1;74.90685032680491
216;216;1449491971;2.12573194504;0.7899208664890001;0.06830600649119999;1;True;38;1;74.90685032680491
217;217;1449491971;2.12572169304;0.789915859699;0.0681844949722;1;True;38;1;74.90685032680491
218;218;1449491971;2.1257207393599997;0.789834737778;0.0681332573295;1;True;38;1;74.90685032680491
219;219;1449491971;2.1257338523900002;0.7899210453030001;0.06822158396240001;1;True;38;1;74.90685032680491
220;220;1449491971;2.1256957054099996;0.7899774909020001;0.0682811662555;1;True;38;1;74.90685032680491
221;221;1449491971;2.12574386597;0.789955615997;0.0681756809354;1;True;38;1;74.90685032680491
222;222;1449491971;2.12578082085;0.789968490601;0.06812810152769999;1;True;38;1;74.90685032680491
223;223;1449491971;2.1257095336900003;0.7898286581039999;0.0681669786572;1;True;38;1;74.90685032680491
224;224;1449491971;2.12571787834;0.7898861169820001;0.0681760087609;1;True;38;1;74.90685032680491
225;225;1449491971;2.12570858002;0.7899713516240001;0.0682878494263;1;True;38;1;74.90685032680491
226;226;1449491971;2.1257627010299998;0.7899061441419999;0.06815370172259999;1;True;38;1;74.90685032680491
227;227;1449491971;2.1257057189900004;0.7898026704790001;0.068154245615;1;True;38;1;74.90685032680491
228;228;1449491971;2.12577486038;0.789918839931;0.0681674331427;1;True;38;1;74.90685032680491
229;229;1449491971;2.1257648468;0.790011107922;0.0682172998786;1;True;38;1;74.90685032680491
230;230;1449491971;2.12576246262;0.789883732796;0.0683006197214;1;True;38;1;74.90685032680491
231;231;1449491971;2.1257829666099997;0.789962291718;0.0682276114821;1;True;38;1;74.90685032680491
232;232;1449491971;2.12571191788;0.7897926568979999;0.0682788714767;1;True;38;1;74.90685032680491
233;233;1449491971;2.12577199936;0.7899509668350001;0.0682199671865;1;True;38;1;74.90685032680491
234;234;1449491971;2.12577438354;0.789905488491;0.06816136837009999;1;True;38;1;74.90685032680491
235;235;1449491971;2.1257214546200003;0.789898216724;0.06828524172310001;1;True;38;1;74.90685032680491
236;236;1449491971;2.1257815361000003;0.7899958491329999;0.0683020055294;1;True;38;1;74.90685032680491
237;237;1449491971;2.12575149536;0.78982180357;0.068226069212;1;True;38;1;74.90685032680491
238;238;1449491971;2.12580227852;0.789927005768;0.0682403370738;1;True;38;1;74.90685032680491
239;239;1449491971;2.12575244904;0.789900064468;0.0682815387845;1;True;38;1;74.90685032680491
240;240;1449491971;2.12578630447;0.789946436882;0.0681449621916;1;True;38;1;74.90685032680491
241;241;1449491971;2.12577342987;0.789974451065;0.0682364851236;1;True;38;1;74.90685032680491
242;242;1449491971;2.1257531642900003;0.78989136219;0.0682531744242;1;True;38;1;74.90685032680491
243;243;1449491971;2.1257276535;0.789938092232;0.0682492107153;1;True;38;1;74.90685032680491
244;244;1449491971;2.12573337555;0.789794027805;0.068333171308;1;True;38;1;74.90685032680491
245;245;1449491971;2.1257598400099997;0.7898916602130001;0.0682078748941;1;True;38;1;74.90685032680491
246;246;1449491971;2.12573719025;0.789921164513;0.0682189613581;1;True;38;1;74.90685032680491
247;247;1449491971;2.12574219704;0.789988875389;0.06825895607469999;1;True;38;1;74.90685032680491
248;248;1449491971;2.1257390976;0.7897952198980001;0.0682079866529;1;True;38;1;74.90685032680491
249;249;1449491971;2.12576246262;0.789910078049;0.0681848153472;1;True;38;1;74.90685032680491
250;250;1449491971;2.1257557869;0.7898845076559999;0.0681603103876;1;True;38;1;74.90685032680491
251;251;1449491971;2.12572383881;0.789972245693;0.0682443231344;1;True;38;1;74.90685032680491
252;252;1449491971;2.12574267387;0.789849460125;0.0682429149747;1;True;38;1;74.90685032680491
253;253;1449491971;2.12574076653;0.789872765541;0.0682369917631;1;True;38;1;74.90685032680491
254;254;1449491971;2.12576770782;0.789932370186;0.0682772621512;1;True;38;1;74.90685032680491
255;255;1449491971;2.12575602531;0.789910018444;0.0682967081666;1;True;38;1;74.90685032680491
256;256;1449491971;2.12573766708;0.789958715439;0.068228289485;1;True;38;1;74.90685032680491
257;257;1449491971;2.12571501732;0.789843142033;0.06818872690200001;1;True;38;1;74.90685032680491
258;258;1449491971;2.12575006485;0.789941847324;0.068235129118;1;True;38;1;74.90685032680491
259;259;1449491971;2.12573742867;0.7899276614190001;0.06824012845750001;1;True;38;1;74.90685032680491
260;260;1449491971;2.12570977211;0.7899686694149999;0.0683221817017;1;True;38;1;74.90685032680491
261;261;1449491971;2.1257576942400003;0.7898876667020001;0.0681874081492;1;True;38;1;74.90685032680491
262;262;1449491971;2.12568449974;0.789782047272;0.06831194460390001;1;True;38;1;74.90685032680491
263;263;1449491971;2.12572097778;0.7898721694949999;0.06824845820669999;1;True;38;1;74.90685032680491
264;264;1449491971;2.1256911754599996;0.7899460792540001;0.0683110430837;1;True;38;1;74.90685032680491
265;265;1449491971;2.12575244904;0.7900575995450001;0.0681630820036;1;True;38;1;74.90685032680491
266;266;1449491971;2.1257309913599998;0.7897986769679999;0.0682188048959;1;True;38;1;74.90685032680491
267;267;1449491971;2.12570881844;0.7899557352069999;0.0682400614023;1;True;38;1;74.90685032680491
268;268;1449491971;2.1257627010299998;0.7900055646899999;0.06823855638500001;1;True;38;1;74.90685032680491
269;269;1449491971;2.12574219704;0.789928793907;0.0681780278683;1;True;38;1;74.90685032680491
270;270;1449491971;2.12575387955;0.789961397648;0.0681573450565;1;True;38;1;74.90685032680491
271;271;1449491971;2.12574243546;0.790033459663;0.0681584328413;1;True;38;1;74.90685032680491
272;272;1449491971;2.12574887276;0.789900958538;0.0682528018951;1;True;38;1;74.90685032680491
273;273;1449491971;2.12575411797;0.7899400591850001;0.068167321384;1;True;38;1;74.90685032680491
274;274;1449491971;2.1257379055000003;0.7899447679520001;0.06822496652599999;1;True;38;1;74.90685032680491
275;275;1449491971;2.12567472458;0.789768278599;0.0681905075908;1;True;38;1;74.90685032680491
276;276;1449491971;2.1256675720200002;0.789763510227;0.0681843832135;1;True;38;1;74.90685032680491
277;277;1449491971;2.1257429122900002;0.789910435677;0.0682351514697;1;True;38;1;74.90685032680491
278;278;1449491971;2.12577724457;0.789915919304;0.0681826621294;1;True;38;1;74.90685032680491
279;279;1449491971;2.1257610321000002;0.78994601965;0.0682459846139;1;True;38;1;74.90685032680491
280;280;1449491971;2.12572026253;0.789760529995;0.0683012157679;1;True;38;1;74.90685032680491
281;281;1449491971;2.12572669983;0.789783120155;0.0682877153158;1;True;38;1;74.90685032680491
282;282;1449491972;2.12575602531;0.789940416813;0.0682479962707;2;True;38;1;74.90685032680491
283;283;1449491972;2.12576770782;0.789946675301;0.0682061091065;2;True;38;1;74.90685032680491
284;284;1449491972;2.12576723099;0.7899087667470001;0.0683089867234;2;True;38;1;74.90685032680491
285;285;1449491972;2.12577414513;0.789904177189;0.0682763978839;2;True;38;1;74.90685032680491
286;286;1449491972;2.12575125694;0.7900644540790001;0.0682862848043;2;True;38;1;74.90685032680491
287;287;1449491972;2.1257576942400003;0.789939343929;0.0681677535176;2;True;38;1;74.90685032680491
288;288;1449491972;2.12577962875;0.790078282356;0.0682190656662;2;True;38;1;74.90685032680491
289;289;1449491972;2.12571191788;0.789825201035;0.0681761056185;2;True;38;1;74.90685032680491
290;290;1449491972;2.12575006485;0.78996860981;0.0682733654976;2;True;38;1;74.90685032680491
291;291;1449491972;2.12571120262;0.789894938469;0.06831132620569999;2;True;38;1;74.90685032680491
292;292;1449491972;2.1257519722;0.789962947369;0.0682039037347;2;True;38;1;74.90685032680491
293;293;1449491972;2.12575697899;0.789942264557;0.06822496652599999;2;True;38;1;74.90685032680491
294;294;1449491972;2.12567591667;0.789790034294;0.068173289299;2;True;38;1;74.90685032680491
295;295;1449491972;2.12571787834;0.789857387543;0.0682735592127;2;True;38;1;74.90685032680491
296;296;1449491972;2.12573695183;0.789966702461;0.0682701393962;2;True;38;1;74.90685032680491
297;297;1449491972;2.1257486343400003;0.7899668812749999;0.0682649761438;2;True;38;1;74.90685032680491
298;298;1449491972;2.12574005127;0.7899910807610001;0.0681995525956;2;True;38;1;74.90685032680491
299;299;1449491972;2.12573504448;0.789918482304;0.06824603676799999;2;True;38;1;74.90685032680491
300;300;1449491972;2.1257443428;0.78984183073;0.0682412832975;2;True;38;1;74.90685032680491
301;301;1449491972;2.12571501732;0.789795696735;0.0683134198189;2;True;38;1;74.90685032680491
302;302;1449491972;2.1257505416900004;0.790084064007;0.0681452825665;2;True;38;1;74.90685032680491
303;303;1449491972;2.12573719025;0.7899257540700001;0.0682577416301;2;True;38;1;74.90685032680491
304;304;1449491972;2.1257441043900003;0.789914786816;0.0682083368301;2;True;38;1;74.90685032680491
305;305;1449491972;2.12570762634;0.789860665798;0.06824523210530001;2;True;38;1;74.90685032680491
306;306;1449491972;2.12574672699;0.789951920509;0.0682296380401;2;True;38;1;74.90685032680491
307;307;1449491972;2.12571668625;0.7899931073190001;0.0683116316795;2;True;38;1;74.90685032680491
308;308;1449491972;2.12569475174;0.789899766445;0.0682924315333;2;True;38;1;74.90685032680491
309;309;1449491972;2.1257340908099995;0.789970040321;0.06824117898939999;2;True;38;1;74.90685032680491
310;310;1449491972;2.12572026253;0.789973020554;0.0682540759444;2;True;38;1;74.90685032680491
311;311;1449491972;2.12573432922;0.789881587029;0.0682271048427;2;True;38;1;74.90685032680491
312;312;1449491972;2.1257455349;0.7899925112720001;0.06823343038560001;2;True;38;1;74.90685032680491
313;313;1449491972;2.1257250309;0.789929747581;0.06822615116830001;2;True;38;1;74.90685032680491
314;314;1449491972;2.12573575974;0.7899617552760001;0.0682539194822;2;True;38;1;74.90685032680491
315;315;1449491972;2.1257174015;0.789938211441;0.0682089552283;2;True;38;1;74.90685032680491
316;316;1449491972;2.12573671341;0.789956569672;0.068270765245;2;True;38;1;74.90685032680491
317;317;1449491972;2.1257486343400003;0.789929032326;0.0682222023606;2;True;38;1;74.90685032680491
318;318;1449491972;2.1257307529400005;0.789825022221;0.0681963711977;2;True;38;1;74.90685032680491
319;319;1449491972;2.12565970421;0.789777696133;0.0682500600815;2;True;38;1;74.90685032680491
320;320;1449491972;2.12575435638;0.7899528741840001;0.0682512223721;2;True;38;1;74.90685032680491
321;321;1449491972;2.12576389313;0.789946615696;0.0682529956102;2;True;38;1;74.90685032680491
322;322;1449491972;2.12567901611;0.789835870266;0.06817015260459999;2;True;38;1;74.90685032680491
323;323;1449491972;2.12570238113;0.7899287343029999;0.06824134290219999;2;True;38;1;74.90685032680491
324;324;1449491972;2.1256685257;0.789931833744;0.0683026388288;2;True;38;1;74.90685032680491
325;325;1449491972;2.12575221062;0.789935588837;0.0681867673993;2;True;38;1;74.90685032680491
326;326;1449491972;2.12573194504;0.7900569438930001;0.0682739466429;2;True;38;1;74.90685032680491
327;327;1449491972;2.12576031685;0.7899587750429999;0.06824527680869999;2;True;38;1;74.90685032680491
328;328;1449491972;2.125695467;0.7898318767550001;0.0681601911783;2;True;38;1;74.90685032680491
329;329;1449491972;2.12575006485;0.789915800095;0.0681887939572;2;True;38;1;74.90685032680491
330;330;1449491972;2.1257648468;0.789954900742;0.06813552230600001;2;True;38;1;74.90685032680491
331;331;1449491972;2.12573361397;0.789928495884;0.0682445690036;2;True;38;1;74.90685032680491
332;332;1449491972;2.12573742867;0.789998054504;0.0682055428624;2;True;38;1;74.90685032680491
333;333;1449491972;2.12571144104;0.7897958755490001;0.0682874917984;2;True;38;1;74.90685032680491
334;334;1449491972;2.12569665909;0.789928913116;0.068234436214;2;True;38;1;74.90685032680491
335;335;1449491972;2.12578058243;0.790026545525;0.06822496652599999;2;True;38;1;74.90685032680491
336;336;1449491972;2.12575697899;0.789934873581;0.0681530237198;2;True;38;1;74.90685032680491
337;337;1449491972;2.1257393360099996;0.7899246215819999;0.0682825371623;2;True;38;1;74.90685032680491
338;338;1449491972;2.1257405281099997;0.7899386286740001;0.06815278530119999;2;True;38;1;74.90685032680491
339;339;1449491972;2.1257581710799998;0.790072083473;0.0681507885456;2;True;38;1;74.90685032680491
340;340;1449491972;2.1257228851299996;0.789927482605;0.0682284086943;2;True;38;1;74.90685032680491
341;341;1449491972;2.12574648857;0.7899028062819999;0.0681615397334;2;True;38;1;74.90685032680491
342;342;1449491972;2.12573432922;0.7898455262180001;0.0682144314051;2;True;38;1;74.90685032680491
343;343;1449491972;2.1257643699599997;0.7898769378659999;0.0681998133659;2;True;38;1;74.90685032680491
344;344;1449491972;2.12569475174;0.789944469929;0.0683069750667;2;True;38;1;74.90685032680491
345;345;1449491972;2.12578177452;0.7899369597429999;0.0682855471969;2;True;38;1;74.90685032680491
346;346;1449491972;2.12575411797;0.789912819862;0.0681967809796;2;True;38;1;74.90685032680491
347;347;1449491972;2.12577557564;0.789950788021;0.06814482808109999;2;True;38;1;74.90685032680491
348;348;1449491972;2.12575507164;0.789910614491;0.0681729838252;2;True;38;1;74.90685032680491
349;349;1449491972;2.12573671341;0.789922475815;0.06823567301030001;2;True;38;1;74.90685032680491
350;350;1449491972;2.12575697899;0.789964973927;0.0682360008359;2;True;38;1;74.90685032680491
351;351;1449491972;2.1257109642;0.789878070354;0.06827216595409999;2;True;38;1;74.90685032680491
352;352;1449491972;2.12575292587;0.789981901646;0.06824908405539999;2;True;38;1;74.90685032680491
353;353;1449491972;2.12571668625;0.789943277836;0.0682258233428;2;True;38;1;74.90685032680491
354;354;1449491972;2.1257581710799998;0.789892911911;0.0681912228465;2;True;38;1;74.90685032680491
355;355;1449491972;2.1257579326599996;0.7899529933930001;0.0682284906507;2;True;38;1;74.90685032680491
356;356;1449491972;2.12572455406;0.789883077145;0.0682552903891;2;True;38;1;74.90685032680491
357;357;1449491972;2.12573242188;0.789884865284;0.0683279111981;2;True;38;1;74.90685032680491
358;358;1449491972;2.12573051453;0.7899033427240001;0.0682883560658;2;True;38;1;74.90685032680491
359;359;1449491972;2.1256737709;0.7899094223980001;0.0682133212686;2;True;38;1;74.90685032680491
360;360;1449491972;2.12575173378;0.7899525761599999;0.0681966766715;2;True;38;1;74.90685032680491
361;361;1449491972;2.1257581710799998;0.789961516857;0.0681883618236;2;True;38;1;74.90685032680491
362;362;1449491972;2.12574505806;0.789958834648;0.0681988820434;2;True;38;1;74.90685032680491
363;363;1449491972;2.12571310997;0.789862930775;0.0681743696332;2;True;38;1;74.90685032680491
364;364;1449491972;2.1257417202;0.7898685336110001;0.0681964978576;2;True;38;1;74.90685032680491
365;365;1449491972;2.1257388591799997;0.789944827557;0.06824201345440001;2;True;38;1;74.90685032680491
366;366;1449491972;2.1257038116499998;0.7897546291349999;0.0682856142521;2;True;38;1;74.90685032680491
367;367;1449491972;2.1257288456;0.789893507957;0.0682893544436;2;True;38;1;74.90685032680491
368;368;1449491972;2.1257185936000003;0.789972007275;0.0682419911027;2;True;38;1;74.90685032680491
369;369;1449491972;2.12575340271;0.7900031805040001;0.068227224052;2;True;38;1;74.90685032680491
370;370;1449491972;2.1257507801099997;0.789947330952;0.0681513175368;2;True;38;1;74.90685032680491
371;371;1449491972;2.12572360039;0.789885878563;0.06829406321050001;2;True;38;1;74.90685032680491
372;372;1449491972;2.1257309913599998;0.7898634076119999;0.06826336681839999;2;True;38;1;74.90685032680491
373;373;1449491972;2.1257383823400002;0.789903044701;0.0681568235159;2;True;38;1;74.90685032680491
374;374;1449491972;2.12563109398;0.789950549603;0.068173751235;2;True;38;1;74.90685032680491
375;375;1449491972;2.12571001053;0.789829075336;0.0682118162513;2;True;38;1;74.90685032680491
376;376;1449491972;2.12576675415;0.790000557899;0.0682127401233;2;True;38;1;74.90685032680491
377;377;1449491972;2.12574672699;0.789936602116;0.0682226344943;2;True;38;1;74.90685032680491
378;378;1449491972;2.1257584095;0.789928376675;0.0683024451137;2;True;38;1;74.90685032680491
379;379;1449491972;2.12574601173;0.7898331880570001;0.0682306215167;2;True;38;1;74.90685032680491
380;380;1449491972;2.1257698535900005;0.789990365505;0.0682318583131;2;True;38;1;74.90685032680491
381;381;1449491972;2.1257610321000002;0.7900693416600001;0.06822142750020001;2;True;38;1;74.90685032680491
382;382;1449491972;2.12572574615;0.789910554886;0.0682772174478;2;True;38;1;74.90685032680491
383;383;1449491972;2.12574505806;0.7899836301800001;0.0682245343924;2;True;38;1;74.90685032680491
384;384;1449491972;2.12572836876;0.789813399315;0.0681837424636;2;True;38;1;74.90685032680491
385;385;1449491972;2.1257307529400005;0.789877891541;0.0682211741805;2;True;38;1;74.90685032680491
386;386;1449491972;2.12576031685;0.7899316549300001;0.0681632086635;2;True;38;1;74.90685032680491
387;387;1449491972;2.12571358681;0.7898117899889999;0.068362005055;2;True;38;1;74.90685032680491
388;388;1449491972;2.1257302761099997;0.789966225624;0.0682467371225;2;True;38;1;74.90685032680491
389;389;1449491972;2.12576532364;0.789931118488;0.0682707726955;2;True;38;1;74.90685032680491
390;390;1449491972;2.1257348060599996;0.789964795113;0.06826838850980001;2;True;38;1;74.90685032680491
391;391;1449491972;2.12573313713;0.789869248867;0.0682223066688;2;True;38;1;74.90685032680491
392;392;1449491972;2.1256182193799997;0.789918839931;0.068287961185;2;True;38;1;74.90685032680491
393;393;1449491972;2.12574672699;0.7899136543269999;0.0682728663087;2;True;38;1;74.90685032680491
394;394;1449491972;2.12575745583;0.789970338345;0.0682315155864;2;True;38;1;74.90685032680491
395;395;1449491972;2.12570357323;0.7898684144020001;0.06831654161209999;2;True;38;1;74.90685032680491
396;396;1449491972;2.12579655647;0.7899911999699999;0.0682528614998;2;True;38;1;74.90685032680491
397;397;1449491972;2.12577009201;0.790058791637;0.0681680068374;2;True;38;1;74.90685032680491
398;398;1449491972;2.1257696151700003;0.7899338603020001;0.0682558044791;2;True;38;1;74.90685032680491
399;399;1449491972;2.1257383823400002;0.790050804615;0.0682748705149;2;True;38;1;74.90685032680491
400;400;1449491972;2.12575292587;0.7899618148800001;0.0682777613401;2;True;38;1;74.90685032680491
401;401;1449491972;2.12575674057;0.789919495583;0.0681947171688;2;True;38;1;74.90685032680491
402;402;1449491972;2.12574386597;0.7899510264399999;0.0682714879513;2;True;38;1;74.90685032680491
403;403;1449491972;2.12572932243;0.789868891239;0.06823991984130001;2;True;38;1;74.90685032680491
404;404;1449491972;2.12574529648;0.789961516857;0.0682810097933;2;True;38;1;74.90685032680491
405;405;1449491972;2.12575173378;0.789931833744;0.0682088434696;2;True;38;1;74.90685032680491
406;406;1449491972;2.12569212914;0.78995424509;0.0682391449809;2;True;38;1;74.90685032680491
407;407;1449491972;2.1257457733200003;0.7899001240729999;0.0681766420603;2;True;38;1;74.90685032680491
408;408;1449491972;2.12573266029;0.790059566498;0.0682662799954;2;True;38;1;74.90685032680491
409;409;1449491972;2.12574100494;0.789856374264;0.0682434290648;2;True;38;1;74.90685032680491
410;410;1449491972;2.12575745583;0.789961516857;0.0682365074754;2;True;38;1;74.90685032680491
411;411;1449491972;2.12574315071;0.789953649044;0.0682392641902;2;True;38;1;74.90685032680491
412;412;1449491972;2.12568426132;0.789795935154;0.0681794807315;2;True;38;1;74.90685032680491
413;413;1449491972;2.12573599815;0.789915382862;0.0682259425521;2;True;38;1;74.90685032680491
414;414;1449491972;2.12576580048;0.789933145046;0.068156644702;2;True;38;1;74.90685032680491
415;415;1449491972;2.1257288456;0.789916038513;0.0683141052723;2;True;38;1;74.90685032680491
416;416;1449491972;2.12573957443;0.7899763584139999;0.068256393075;2;True;38;1;74.90685032680491
417;417;1449491972;2.1257531642900003;0.789883852005;0.0681853741407;2;True;38;1;74.90685032680491
418;418;1449491972;2.12574601173;0.790042340755;0.0681428611279;2;True;38;1;74.90685032680491
419;419;1449491972;2.12569928169;0.7899263501170001;0.06831170618530001;2;True;38;1;74.90685032680491
420;420;1449491972;2.12571144104;0.789853334427;0.0681607723236;2;True;38;1;74.90685032680491
421;421;1449491972;2.12573504448;0.790088117123;0.0681286677718;2;True;38;1;74.90685032680491
422;422;1449491972;2.12574481964;0.7899483442309999;0.0681300833821;2;True;38;1;74.90685032680491
423;423;1449491972;2.12571930885;0.789941310883;0.068296097219;2;True;38;1;74.90685032680491
424;424;1449491972;2.12576556206;0.789953529835;0.0681339725852;2;True;38;1;74.90685032680491
425;425;1449491972;2.12570548058;0.7899217605589999;0.0681780278683;2;True;38;1;74.90685032680491
426;426;1449491972;2.1256732940700003;0.789910554886;0.0682254135609;2;True;38;1;74.90685032680491
427;427;1449491972;2.12571573257;0.789914727211;0.0682017654181;2;True;38;1;74.90685032680491
428;428;1449491972;2.12570357323;0.7898104786869999;0.0681892409921;2;True;38;1;74.90685032680491
429;429;1449491972;2.1256983280200004;0.789933025837;0.0683016702533;2;True;38;1;74.90685032680491
430;430;1449491972;2.12575411797;0.789959013462;0.0681448876858;2;True;38;1;74.90685032680491
431;431;1449491972;2.12573194504;0.789917469025;0.0682080760598;2;True;38;1;74.90685032680491
432;432;1449491972;2.1257386207599995;0.7899497747419999;0.068280056119;2;True;38;1;74.90685032680491
433;433;1449491972;2.12568378448;0.789824604988;0.0683188512921;2;True;38;1;74.90685032680491
434;434;1449491972;2.12567973137;0.7899048328399999;0.0682869181037;2;True;38;1;74.90685032680491
435;435;1449491972;2.1257288456;0.7898226976389999;0.0681441277266;2;True;38;1;74.90685032680491
436;436;1449491972;2.12573051453;0.789925158024;0.0681942775846;2;True;38;1;74.90685032680491
437;437;1449491972;2.1257712841;0.789962112904;0.0681403651834;2;True;38;1;74.90685032680491
438;438;1449491972;2.12575745583;0.790071308613;0.06824243068699999;2;True;38;1;74.90685032680491
439;439;1449491972;2.12570023537;0.7898905277249999;0.0682340487838;2;True;38;1;74.90685032680491
440;440;1449491972;2.12571763992;0.7899292111399999;0.0681722164154;2;True;38;1;74.90685032680491
441;441;1449491972;2.12572383881;0.7900508642199999;0.06823775172230001;2;True;38;1;74.90685032680491
442;442;1449491972;2.12573552132;0.7898985147480001;0.0682270675898;2;True;38;1;74.90685032680491
443;443;1449491972;2.1257386207599995;0.790072381496;0.06822677701709999;2;True;38;1;74.90685032680491
444;444;1449491972;2.12575101852;0.7899252176279999;0.0682632178068;2;True;38;1;74.90685032680491
445;445;1449491972;2.12573218346;0.7898571491240001;0.068222656846;2;True;38;1;74.90685032680491
446;446;1449491972;2.12576007843;0.789954841137;0.068189740181;2;True;38;1;74.90685032680491
447;447;1449491972;2.12572813034;0.789939820766;0.0681939274073;2;True;38;1;74.90685032680491
448;448;1449491972;2.12566494942;0.789775252342;0.0681285634637;2;True;38;1;74.90685032680491
449;449;1449491972;2.1257643699599997;0.790076971054;0.06810859590769999;2;True;38;1;74.90685032680491
450;450;1449491972;2.1257419586200004;0.789942741394;0.06821899116039999;2;True;38;1;74.90685032680491
451;451;1449491972;2.12572169304;0.7899740934370001;0.06821359694;2;True;38;1;74.90685032680491
452;452;1449491972;2.12573432922;0.7899530529979999;0.06820009648799999;2;True;38;1;74.90685032680491
453;453;1449491972;2.12574768066;0.790081083775;0.0681336224079;2;True;38;1;74.90685032680491
454;454;1449491972;2.1257419586200004;0.7899509668350001;0.0682092905045;2;True;38;1;74.90685032680491
455;455;1449491972;2.12570261955;0.789956152439;0.0682600662112;2;True;38;1;74.90685032680491
456;456;1449491972;2.12574481964;0.78994178772;0.0681797116995;2;True;38;1;74.90685032680491
457;457;1449491972;2.1257190704299997;0.789955437183;0.06821641325950001;2;True;38;1;74.90685032680491
458;458;1449491972;2.1257071495099997;0.789843916893;0.0681430399418;2;True;38;1;74.90685032680491
459;459;1449491972;2.12571883202;0.790014624596;0.068218998611;2;True;38;1;74.90685032680491
460;460;1449491972;2.1257255077400004;0.78998285532;0.0682055875659;2;True;38;1;74.90685032680491
461;461;1449491972;2.1257255077400004;0.7900608778;0.06820488721130001;2;True;38;1;74.90685032680491
462;462;1449491972;2.12569355965;0.78980910778;0.0683251544833;2;True;38;1;74.90685032680491
463;463;1449491972;2.12573170662;0.7899741530419999;0.06818690896030001;2;True;38;1;74.90685032680491
464;464;1449491972;2.1257405281099997;0.7900944352150001;0.0681164488196;2;True;38;1;74.90685032680491
465;465;1449491972;2.12574481964;0.789990603924;0.0681443661451;2;True;38;1;74.90685032680491
466;466;1449491972;2.1257264614099998;0.789984405041;0.068211555481;2;True;38;1;74.90685032680491
467;467;1449491972;2.12574672699;0.789900481701;0.0682249888778;2;True;38;1;74.90685032680491
468;468;1449491972;2.12575554848;0.790071487427;0.0681303367019;2;True;38;1;74.90685032680491
469;469;1449491972;2.12576699257;0.7900067567829999;0.0682226493955;2;True;38;1;74.90685032680491
470;470;1449491972;2.12569665909;0.78984361887;0.0682409182191;2;True;38;1;74.90685032680491
471;471;1449491972;2.1257486343400003;0.789886295795;0.0682245790958;2;True;38;1;74.90685032680491
472;472;1449491972;2.12573957443;0.789947271347;0.0682225450873;2;True;38;1;74.90685032680491
473;473;1449491972;2.1257605552700003;0.7899266481399999;0.068164229393;2;True;38;1;74.90685032680491
474;474;1449491972;2.12570476532;0.789907157421;0.0682362020016;2;True;38;1;74.90685032680491
475;475;1449491972;2.12576246262;0.7899483442309999;0.068145737052;2;True;38;1;74.90685032680491
476;476;1449491972;2.1257443428;0.7900326251980001;0.0681815817952;2;True;38;1;74.90685032680491
477;477;1449491972;2.12569236755;0.7898612618449999;0.068247422576;2;True;38;1;74.90685032680491
478;478;1449491972;2.12577080727;0.789905846119;0.0682036578655;2;True;38;1;74.90685032680491
479;479;1449491972;2.12575006485;0.7898843884469999;0.0682586506009;2;True;38;1;74.90685032680491
480;480;1449491972;2.12576389313;0.790059804916;0.0681487396359;2;True;38;1;74.90685032680491
481;481;1449491972;2.12567853928;0.789699912071;0.06819784641269999;2;True;38;1;74.90685032680491
482;482;1449491972;2.12578368187;0.789930105209;0.0682589262724;2;True;38;1;74.90685032680491
483;483;1449491972;2.12577557564;0.7899183630940001;0.0681765899062;2;True;38;1;74.90685032680491
484;484;1449491972;2.1257576942400003;0.790052056313;0.06817340105769999;2;True;38;1;74.90685032680491
485;485;1449491972;2.1257619857799996;0.7899242639540001;0.0681743398309;2;True;38;1;74.90685032680491
486;486;1449491972;2.1257691383400004;0.789945244789;0.068260371685;2;True;38;1;74.90685032680491
487;487;1449491972;2.12575364113;0.7898085713390001;0.0683046132326;2;True;38;1;74.90685032680491
488;488;1449491972;2.1257894039200003;0.78996860981;0.0681757107377;2;True;38;1;74.90685032680491
489;489;1449491972;2.1257479190799997;0.7898327708239999;0.06826426088809999;2;True;38;1;74.90685032680491
490;490;1449491972;2.1257553100599997;0.789933621883;0.06817264109849999;2;True;38;1;74.90685032680491
491;491;1449491972;2.12577152252;0.789941191673;0.068254224956;2;True;38;1;74.90685032680491
492;492;1449491972;2.12574958801;0.789901614189;0.0682834088802;2;True;38;1;74.90685032680491
493;493;1449491972;2.1257746219599998;0.789954304695;0.0682633370161;2;True;38;1;74.90685032680491
494;494;1449491972;2.1257486343400003;0.789947509766;0.0682868137956;2;True;38;1;74.90685032680491
495;495;1449491972;2.12566542625;0.7897327542300001;0.0681847631931;2;True;38;1;74.90685032680491
496;496;1449491972;2.1257627010299998;0.7898903489110001;0.0682300776243;2;True;38;1;74.90685032680491
497;497;1449491972;2.1257789135;0.789918124676;0.0681946277618;2;True;38;1;74.90685032680491
498;498;1449491972;2.12574028969;0.789834678173;0.06825073063369999;2;True;38;1;74.90685032680491
499;499;1449491972;2.12576770782;0.789916336536;0.0681767016649;2;True;38;1;74.90685032680491
500;500;1449491972;2.12569999695;0.789947271347;0.06832758337259999;2;True;38;1;74.90685032680491
501;501;1449491972;2.12573313713;0.789805948734;0.068326190114;2;True;38;1;74.90685032680491
502;502;1449491972;2.12576532364;0.789935648441;0.06825004518029999;2;True;38;1;74.90685032680491
503;503;1449491972;2.12576627731;0.789945363998;0.0681621730328;2;True;38;1;74.90685032680491
504;504;1449491972;2.12575602531;0.789910078049;0.0681787207723;2;True;38;1;74.90685032680491
505;505;1449491972;2.12575721741;0.790042519569;0.06827360391619999;2;True;38;1;74.90685032680491
506;506;1449491972;2.12574219704;0.7898502349850001;0.0682624429464;2;True;38;1;74.90685032680491
507;507;1449491972;2.12574362755;0.789811193943;0.06831404566759999;2;True;38;1;74.90685032680491
508;508;1449491972;2.12574505806;0.789881467819;0.068193256855;2;True;38;1;74.90685032680491
509;509;1449491972;2.12576532364;0.789985895157;0.06817325204609999;2;True;38;1;74.90685032680491
510;510;1449491972;2.1257276535;0.789886951447;0.0683300793171;2;True;38;1;74.90685032680491
511;511;1449491972;2.12573266029;0.7898749113079999;0.0682389885187;2;True;38;1;74.90685032680491
512;512;1449491972;2.12574887276;0.789953947067;0.0681585371494;2;True;38;1;74.90685032680491
513;513;1449491972;2.12576246262;0.789937794209;0.0681599229574;2;True;38;1;74.90685032680491
514;514;1449491972;2.12571883202;0.789866149426;0.0682206004858;2;True;38;1;74.90685032680491
515;515;1449491972;2.1257696151700003;0.789947330952;0.0682805478573;2;True;38;1;74.90685032680491
516;516;1449491972;2.12572479248;0.7899475693699999;0.0682723298669;2;True;38;1;74.90685032680491
517;517;1449491972;2.12572979927;0.789935648441;0.0682163760066;2;True;38;1;74.90685032680491
518;518;1449491972;2.12570810318;0.790042459965;0.068272665143;2;True;38;1;74.90685032680491
519;519;1449491972;2.12570405006;0.789907038212;0.0682437643409;2;True;38;1;74.90685032680491
520;520;1449491972;2.12573742867;0.7899401187899999;0.068223118782;2;True;38;1;74.90685032680491
521;521;1449491973;2.1257314682;0.789878606796;0.0681698769331;3;True;38;1;74.90685032680491
522;522;1449491973;2.12573432922;0.789934694767;0.0682050660253;3;True;38;1;74.90685032680491
523;523;1449491973;2.12573218346;0.789864897728;0.0682553872466;3;True;38;1;74.90685032680491
524;524;1449491973;2.12574648857;0.7900719642640001;0.0681402087212;3;True;38;1;74.90685032680491
525;525;1449491973;2.1257145404799997;0.789817929268;0.06816055625680001;3;True;38;1;74.90685032680491
526;526;1449491973;2.12569713593;0.7898082733149999;0.0681468248367;3;True;38;1;74.90685032680491
527;527;1449491973;2.1257507801099997;0.789882540703;0.06819747388360001;3;True;38;1;74.90685032680491
528;528;1449491973;2.12572860718;0.7898483872409999;0.0682244747877;3;True;38;1;74.90685032680491
529;529;1449491973;2.12573671341;0.789894580841;0.068217664957;3;True;38;1;74.90685032680491
530;530;1449491973;2.12574529648;0.789926767349;0.06826888024809999;3;True;38;1;74.90685032680491
531;531;1449491973;2.1257207393599997;0.789772987366;0.0682544857264;3;True;38;1;74.90685032680491
532;532;1449491973;2.12571048737;0.789887547493;0.0683018788695;3;True;38;1;74.90685032680491
533;533;1449491973;2.12572216988;0.789936900139;0.06823951750990001;3;True;38;1;74.90685032680491
534;534;1449491973;2.1257300376900004;0.789789557457;0.06821820139880001;3;True;38;1;74.90685032680491
535;535;1449491973;2.1257071495099997;0.789926230907;0.068212620914;3;True;38;1;74.90685032680491
536;536;1449491973;2.12568378448;0.7899355292319999;0.06828316301109999;3;True;38;1;74.90685032680491
537;537;1449491973;2.1257288456;0.789912700653;0.0681933909655;3;True;38;1;74.90685032680491
538;538;1449491973;2.1257250309;0.789912819862;0.0682389810681;3;True;38;1;74.90685032680491
539;539;1449491973;2.12576889992;0.789984941483;0.0681639239192;3;True;38;1;74.90685032680491
540;540;1449491973;2.12576580048;0.789877891541;0.0681509152055;3;True;38;1;74.90685032680491
541;541;1449491973;2.12572574615;0.789948225021;0.0681961923838;3;True;38;1;74.90685032680491
542;542;1449491973;2.1256518364;0.789754867554;0.0681563764811;3;True;38;1;74.90685032680491
543;543;1449491973;2.12571883202;0.789965093136;0.0682382211089;3;True;38;1;74.90685032680491
544;544;1449491973;2.1257386207599995;0.7899033427240001;0.0681505724788;3;True;38;1;74.90685032680491
545;545;1449491973;2.12568974495;0.789922177792;0.0682897269726;3;True;38;1;74.90685032680491
546;546;1449491973;2.12574028969;0.78998452425;0.06819941848519999;3;True;38;1;74.90685032680491
547;547;1449491973;2.12573695183;0.790073990822;0.0682373344898;3;True;38;1;74.90685032680491
548;548;1449491973;2.12574100494;0.7899706959720001;0.0681719705462;3;True;38;1;74.90685032680491
549;549;1449491973;2.1256818771400003;0.789816737175;0.0681876167655;3;True;38;1;74.90685032680491
550;550;1449491973;2.12573313713;0.789889812469;0.0681403726339;3;True;38;1;74.90685032680491
551;551;1449491973;2.12572383881;0.789930164814;0.0681940838695;3;True;38;1;74.90685032680491
552;552;1449491973;2.1257302761099997;0.7898951172830001;0.0682751610875;3;True;38;1;74.90685032680491
553;553;1449491973;2.12575125694;0.790086209774;0.0681199878454;3;True;38;1;74.90685032680491
554;554;1449491973;2.1257314682;0.789977610111;0.0682424083352;3;True;38;1;74.90685032680491
555;555;1449491973;2.12569069862;0.7898482084270001;0.0681472718716;3;True;38;1;74.90685032680491
556;556;1449491973;2.1257162094099997;0.789854645729;0.068256855011;3;True;38;1;74.90685032680491
557;557;1449491973;2.12570738792;0.789812624454;0.06820125877859999;3;True;38;1;74.90685032680491
558;558;1449491973;2.1257185936000003;0.7899341583249999;0.068204022944;3;True;38;1;74.90685032680491
559;559;1449491973;2.12571263313;0.790083169937;0.06810510158540001;3;True;38;1;74.90685032680491
560;560;1449491973;2.12569928169;0.7898253798479999;0.0683424845338;3;True;38;1;74.90685032680491
561;561;1449491973;2.12572264671;0.789934396744;0.0681959912181;3;True;38;1;74.90685032680491
562;562;1449491973;2.12566661835;0.789873957634;0.0682805851102;3;True;38;1;74.90685032680491
563;563;1449491973;2.12570142746;0.789879143238;0.06822308152909999;3;True;38;1;74.90685032680491
564;564;1449491973;2.1257383823400002;0.789965927601;0.0682353377342;3;True;38;1;74.90685032680491
565;565;1449491973;2.12575507164;0.7899109125139999;0.0681795105338;3;True;38;1;74.90685032680491
566;566;1449491973;2.12571978569;0.789863586426;0.0682304874063;3;True;38;1;74.90685032680491
567;567;1449491973;2.12571024895;0.7900169491769999;0.0682730674744;3;True;38;1;74.90685032680491
568;568;1449491973;2.12573218346;0.789856374264;0.068239942193;3;True;38;1;74.90685032680491
569;569;1449491973;2.12573242188;0.7899503111839999;0.0682349428535;3;True;38;1;74.90685032680491
570;570;1449491973;2.1256711483;0.789794147015;0.06819395720959999;3;True;38;1;74.90685032680491
571;571;1449491973;2.12568378448;0.789940297604;0.06829415261749999;3;True;38;1;74.90685032680491
572;572;1449491973;2.12567734718;0.7899312376980001;0.0683146417141;3;True;38;1;74.90685032680491
573;573;1449491973;2.12565803528;0.78975880146;0.068185262382;3;True;38;1;74.90685032680491
574;574;1449491973;2.1257696151700003;0.789928674698;0.06818003207449999;3;True;38;1;74.90685032680491
575;575;1449491973;2.12573814392;0.789841175079;0.068200878799;3;True;38;1;74.90685032680491
576;576;1449491973;2.12574648857;0.789996802807;0.0682050734758;3;True;38;1;74.90685032680491
577;577;1449491973;2.12568616867;0.789821326733;0.0682151466608;3;True;38;1;74.90685032680491
578;578;1449491973;2.12567806244;0.789760828018;0.0682845786214;3;True;38;1;74.90685032680491
579;579;1449491973;2.1257021427200002;0.789911985397;0.0682547166944;3;True;38;1;74.90685032680491
580;580;1449491973;2.1256864070900003;0.789805114269;0.0681803897023;3;True;38;1;74.90685032680491
581;581;1449491973;2.12569594383;0.7898370027539999;0.0681810230017;3;True;38;1;74.90685032680491
582;582;1449491973;2.12575936317;0.789937615395;0.0682411938906;3;True;38;1;74.90685032680491
583;583;1449491973;2.12575268745;0.789961099625;0.068200007081;3;True;38;1;74.90685032680491
584;584;1449491973;2.12571835518;0.7899263501170001;0.0682370737195;3;True;38;1;74.90685032680491
585;585;1449491973;2.1257505416900004;0.789954125881;0.06828247010710001;3;True;38;1;74.90685032680491
586;586;1449491973;2.12571525574;0.790020883083;0.0683031380177;3;True;38;1;74.90685032680491
587;587;1449491973;2.12569880486;0.789895892143;0.0683132857084;3;True;38;1;74.90685032680491
588;588;1449491973;2.12576770782;0.7899459600450001;0.068223901093;3;True;38;1;74.90685032680491
589;589;1449491973;2.12577199936;0.789946615696;0.0682702809572;3;True;38;1;74.90685032680491
590;590;1449491973;2.12574028969;0.789927601814;0.0682522431016;3;True;38;1;74.90685032680491
591;591;1449491973;2.12572383881;0.7899263501170001;0.0682515129447;3;True;38;1;74.90685032680491
592;592;1449491973;2.12570524216;0.789934515953;0.0683300346136;3;True;38;1;74.90685032680491
593;593;1449491973;2.12571763992;0.7898027300830001;0.068170055747;3;True;38;1;74.90685032680491
594;594;1449491973;2.12575268745;0.7899120450020001;0.0681654885411;3;True;38;1;74.90685032680491
595;595;1449491973;2.12569236755;0.7898395657539999;0.0682518333197;3;True;38;1;74.90685032680491
596;596;1449491973;2.12571883202;0.7898604273800001;0.06822894513609999;3;True;38;1;74.90685032680491
597;597;1449491973;2.1257545948;0.789979040623;0.0681484565139;3;True;38;1;74.90685032680491
598;598;1449491973;2.12573194504;0.789939701557;0.0681751742959;3;True;38;1;74.90685032680491
599;599;1449491973;2.1256864070900003;0.789923429489;0.0682948231697;3;True;38;1;74.90685032680491
600;600;1449491973;2.12576174736;0.78993999958;0.06813707947730001;3;True;38;1;74.90685032680491
601;601;1449491973;2.12571525574;0.790020704269;0.0682056695223;3;True;38;1;74.90685032680491
602;602;1449491973;2.12576389313;0.790062248707;0.0681335330009;3;True;38;1;74.90685032680491
603;603;1449491973;2.12574267387;0.7899074554440001;0.0681578591466;3;True;38;1;74.90685032680491
604;604;1449491973;2.12572813034;0.789955496788;0.0682033672929;3;True;38;1;74.90685032680491
605;605;1449491973;2.1257259845700003;0.789905667305;0.06815045326949999;3;True;38;1;74.90685032680491
606;606;1449491973;2.12571287155;0.789859056473;0.0682105123997;3;True;38;1;74.90685032680491
607;607;1449491973;2.12570405006;0.789864480495;0.0682382956147;3;True;38;1;74.90685032680491
608;608;1449491973;2.1256909370400003;0.789888262749;0.0682812854648;3;True;38;1;74.90685032680491
609;609;1449491973;2.12572741508;0.789919435978;0.0681982859969;3;True;38;1;74.90685032680491
610;610;1449491973;2.12573313713;0.789907217026;0.06821088492869999;3;True;38;1;74.90685032680491
611;611;1449491973;2.12574124336;0.7898793220520001;0.0681835114956;3;True;38;1;74.90685032680491
612;612;1449491973;2.12569928169;0.7899087667470001;0.06826898455620001;3;True;38;1;74.90685032680491
