;Unnamed: 0;header_stamp_secs;pose_position_x;pose_position_y;pose_position_z;seconds;drop_values;flight_number;label;dtw
0;0;1449492439;2.14808440208;0.8057241439820001;0.0680876672268;0;True;39;1;77.76033645868529
1;1;1449492439;2.1480548381799998;0.8056934475900001;0.0681339725852;0;True;39;1;77.76033645868529
2;2;1449492439;2.1480734348299997;0.805745601654;0.0680749341846;0;True;39;1;77.76033645868529
3;3;1449492439;2.14806747437;0.8056578040119999;0.0680846348405;0;True;39;1;77.76033645868529
4;4;1449492439;2.1479580402400003;0.805553376675;0.0681557953358;0;True;39;1;77.76033645868529
5;5;1449492439;2.14796805382;0.805568516254;0.0681727677584;0;True;39;1;77.76033645868529
6;6;1449492439;2.14805173874;0.8056725263600001;0.068154156208;0;True;39;1;77.76033645868529
7;7;1449492439;2.1480135917700003;0.805675625801;0.06811325252059999;0;True;39;1;77.76033645868529
8;8;1449492439;2.1480560302700002;0.805681586266;0.0680646374822;0;True;39;1;77.76033645868529
9;9;1449492439;2.1480712890599998;0.805745244026;0.0680742487311;0;True;39;1;77.76033645868529
10;10;1449492439;2.14798879623;0.805598914623;0.0681650191545;0;True;39;1;77.76033645868529
11;11;1449492439;2.14806365967;0.8056830167769999;0.0681370645761;0;True;39;1;77.76033645868529
12;12;1449492439;2.14797616005;0.8055733442309999;0.068178653717;0;True;39;1;77.76033645868529
13;13;1449492439;2.14796686172;0.805679678917;0.0681057199836;0;True;39;1;77.76033645868529
14;14;1449492439;2.14811873436;0.805751621723;0.0680737420917;0;True;39;1;77.76033645868529
15;15;1449492439;2.148011446;0.805665254593;0.06810161471369999;0;True;39;1;77.76033645868529
16;16;1449492439;2.1480555534400003;0.8057320714;0.06814904510969999;0;True;39;1;77.76033645868529
17;17;1449492439;2.14806604385;0.8057487606999999;0.0680691748857;0;True;39;1;77.76033645868529
18;18;1449492439;2.14808702469;0.8056898117069999;0.0680776536465;0;True;39;1;77.76033645868529
19;19;1449492439;2.14800882339;0.8056013584139999;0.06818150728939999;0;True;39;1;77.76033645868529
20;20;1449492439;2.1480026245099997;0.8056176900859999;0.06815145164730001;0;True;39;1;77.76033645868529
21;21;1449492439;2.1480512619;0.8057156205179999;0.06813833117490001;0;True;39;1;77.76033645868529
22;22;1449492439;2.1480486393000002;0.8056671023370001;0.0681311488152;0;True;39;1;77.76033645868529
23;23;1449492439;2.1481122970599995;0.805700004101;0.068089954555;0;True;39;1;77.76033645868529
24;24;1449492439;2.14804053307;0.805646955967;0.06808242946859999;0;True;39;1;77.76033645868529
25;25;1449492439;2.1481084823599996;0.8056943416600001;0.068075299263;0;True;39;1;77.76033645868529
26;26;1449492439;2.14800524712;0.8056467771529999;0.0680982619524;0;True;39;1;77.76033645868529
27;27;1449492439;2.1480026245099997;0.8055869340899999;0.06819438934330001;0;True;39;1;77.76033645868529
28;28;1449492439;2.14809083939;0.805697143078;0.0681342035532;0;True;39;1;77.76033645868529
29;29;1449492439;2.14810013771;0.805676877499;0.068142272532;0;True;39;1;77.76033645868529
30;30;1449492439;2.14802336693;0.8055784702300001;0.0681793689728;0;True;39;1;77.76033645868529
31;31;1449492439;2.14802479744;0.8056940436360001;0.0681293308735;0;True;39;1;77.76033645868529
32;32;1449492439;2.1479549408;0.80552560091;0.0681743398309;0;True;39;1;77.76033645868529
33;33;1449492439;2.14806842804;0.805728793144;0.068155027926;0;True;39;1;77.76033645868529
34;34;1449492439;2.1480865478499998;0.8057288527490001;0.06816609948869999;0;True;39;1;77.76033645868529
35;35;1449492439;2.14806056023;0.8056536912919999;0.0680921971798;0;True;39;1;77.76033645868529
36;36;1449492439;2.14801979065;0.805615067482;0.0681011751294;0;True;39;1;77.76033645868529
37;37;1449492439;2.14804697037;0.8056997060780001;0.06814277172090001;0;True;39;1;77.76033645868529
38;38;1449492439;2.14801669121;0.805656731129;0.06808460503819999;0;True;39;1;77.76033645868529
39;39;1449492439;2.14807605743;0.805735290051;0.06808348745109999;0;True;39;1;77.76033645868529
40;40;1449492439;2.14809608459;0.805691182613;0.068134650588;0;True;39;1;77.76033645868529
41;41;1449492439;2.14807534218;0.8057095408439999;0.0681058764458;0;True;39;1;77.76033645868529
42;42;1449492439;2.1480741500900002;0.8057024478910001;0.068093329668;0;True;39;1;77.76033645868529
43;43;1449492439;2.14793324471;0.8055349588390001;0.06817810237409999;0;True;39;1;77.76033645868529
44;44;1449492439;2.1480560302700002;0.805681884289;0.0681473091245;0;True;39;1;77.76033645868529
45;45;1449492439;2.14806294441;0.805681169033;0.0681170299649;0;True;39;1;77.76033645868529
46;46;1449492439;2.1480534076700004;0.805667877197;0.0681671053171;0;True;39;1;77.76033645868529
47;47;1449492439;2.14807009697;0.8057248592380001;0.0681505575776;0;True;39;1;77.76033645868529
48;48;1449492439;2.1481089592;0.805734634399;0.0681605413556;0;True;39;1;77.76033645868529
49;49;1449492439;2.1480593681299998;0.8057186603550001;0.0681635588408;0;True;39;1;77.76033645868529
50;50;1449492439;2.14800310135;0.805699467659;0.06812632083890001;0;True;39;1;77.76033645868529
51;51;1449492439;2.14797830582;0.805573642254;0.06818588078019999;0;True;39;1;77.76033645868529
52;52;1449492439;2.14801621437;0.8055989742280001;0.0681401714683;0;True;39;1;77.76033645868529
53;53;1449492439;2.14806842804;0.8056610822679999;0.0680754855275;0;True;39;1;77.76033645868529
54;54;1449492439;2.14803171158;0.805593371391;0.0681644678116;0;True;39;1;77.76033645868529
55;55;1449492439;2.14807248116;0.805655658245;0.0680917128921;0;True;39;1;77.76033645868529
56;56;1449492439;2.1480691433000003;0.8057106137279999;0.0680757164955;0;True;39;1;77.76033645868529
57;57;1449492439;2.14809989929;0.8057145476340001;0.0680969357491;0;True;39;1;77.76033645868529
58;58;1449492439;2.14806652069;0.805704772472;0.068071462214;0;True;39;1;77.76033645868529
59;59;1449492439;2.1481013298;0.8056866526600001;0.068170234561;0;True;39;1;77.76033645868529
60;60;1449492439;2.1481177806900003;0.8057642579080001;0.0681137889624;0;True;39;1;77.76033645868529
61;61;1449492439;2.14809131622;0.8057677745819999;0.0680896043777;0;True;39;1;77.76033645868529
62;62;1449492439;2.1481084823599996;0.805752754211;0.068187341094;0;True;39;1;77.76033645868529
63;63;1449492439;2.1479933261900004;0.805579602718;0.0682096928358;0;True;39;1;77.76033645868529
64;64;1449492439;2.1481227874799997;0.8057329654690001;0.06814828515049999;0;True;39;1;77.76033645868529
65;65;1449492439;2.1480441093400002;0.8055921792980001;0.0681866407394;0;True;39;1;77.76033645868529
66;66;1449492439;2.14808273315;0.805730700493;0.06816657632590001;0;True;39;1;77.76033645868529
67;67;1449492439;2.1480460166900004;0.8056296110150001;0.0682135596871;0;True;39;1;77.76033645868529
68;68;1449492439;2.14812350273;0.8057338595389999;0.0681209564209;0;True;39;1;77.76033645868529
69;69;1449492439;2.14809155464;0.805702388287;0.0681407302618;0;True;39;1;77.76033645868529
70;70;1449492439;2.14812755585;0.805767059326;0.0681963115931;0;True;39;1;77.76033645868529
71;71;1449492439;2.1480810642200003;0.805712461472;0.0680974796414;0;True;39;1;77.76033645868529
72;72;1449492439;2.14812135696;0.8057351112369999;0.0681537762284;0;True;39;1;77.76033645868529
73;73;1449492439;2.1481282711;0.8057413101199999;0.0681480467319;0;True;39;1;77.76033645868529
74;74;1449492439;2.14810609818;0.805769324303;0.0681086629629;0;True;39;1;77.76033645868529
75;75;1449492439;2.1479845047;0.8055419325830001;0.0682111382484;0;True;39;1;77.76033645868529
76;76;1449492439;2.1480112075799997;0.80556589365;0.0682200118899;0;True;39;1;77.76033645868529
77;77;1449492439;2.1481084823599996;0.80575633049;0.0681205615401;0;True;39;1;77.76033645868529
78;78;1449492439;2.1481044292400004;0.805758416653;0.0681156739593;0;True;39;1;77.76033645868529
79;79;1449492439;2.14809608459;0.805751264095;0.0681135207415;0;True;39;1;77.76033645868529
80;80;1449492439;2.14808750153;0.8057662844660001;0.06810630112890001;0;True;39;1;77.76033645868529
81;81;1449492439;2.1480858326;0.805754125118;0.0681036189198;0;True;39;1;77.76033645868529
82;82;1449492439;2.1480576992;0.8056429028509999;0.06821301579479999;0;True;39;1;77.76033645868529
83;83;1449492439;2.1479787826499996;0.80555921793;0.06819703429940001;0;True;39;1;77.76033645868529
84;84;1449492439;2.1480455398599996;0.8056502938269999;0.068121381104;0;True;39;1;77.76033645868529
85;85;1449492439;2.1480712890599998;0.8057044148450001;0.0680835172534;0;True;39;1;77.76033645868529
86;86;1449492439;2.14805841446;0.80572193861;0.0681565105915;0;True;39;1;77.76033645868529
87;87;1449492439;2.1481156349200003;0.805709004402;0.0681038349867;0;True;39;1;77.76033645868529
88;88;1449492439;2.1479918956799997;0.805559635162;0.0681837648153;0;True;39;1;77.76033645868529
89;89;1449492439;2.1480658054400004;0.805704236031;0.0681287720799;0;True;39;1;77.76033645868529
90;90;1449492439;2.14805054665;0.805728316307;0.0681593567133;0;True;39;1;77.76033645868529
91;91;1449492439;2.14806675911;0.805744290352;0.0680836960673;0;True;39;1;77.76033645868529
92;92;1449492439;2.14807105064;0.805727958679;0.0680903717875;0;True;39;1;77.76033645868529
93;93;1449492439;2.14802384377;0.805716872215;0.0681338086724;0;True;39;1;77.76033645868529
94;94;1449492439;2.14804577827;0.8056861162190001;0.0681118443608;0;True;39;1;77.76033645868529
95;95;1449492439;2.14810061455;0.805738151073;0.0680988430977;0;True;39;1;77.76033645868529
96;96;1449492439;2.14794254303;0.805602729321;0.0681020990014;0;True;39;1;77.76033645868529
97;97;1449492439;2.1479713916799996;0.805566012859;0.0681798905134;0;True;39;1;77.76033645868529
98;98;1449492439;2.1480555534400003;0.805735290051;0.0680904611945;0;True;39;1;77.76033645868529
99;99;1449492439;2.14805841446;0.805735647678;0.0680740252137;0;True;39;1;77.76033645868529
100;100;1449492439;2.14793634415;0.8055400252339999;0.0681773200631;0;True;39;1;77.76033645868529
101;101;1449492439;2.1480181217200003;0.8057154417039999;0.0681301876903;0;True;39;1;77.76033645868529
102;102;1449492439;2.14806842804;0.805748403072;0.0681446865201;0;True;39;1;77.76033645868529
103;103;1449492439;2.1480765342700003;0.805738210678;0.0680957138538;0;True;39;1;77.76033645868529
104;104;1449492439;2.14806032181;0.805705785751;0.0681063905358;0;True;39;1;77.76033645868529
105;105;1449492439;2.1480350494400002;0.8056461811069999;0.06807762384409999;0;True;39;1;77.76033645868529
106;106;1449492439;2.14795708656;0.805584609509;0.06816256791349999;0;True;39;1;77.76033645868529
107;107;1449492439;2.14803981781;0.8056944012639999;0.06808775663380001;0;True;39;1;77.76033645868529
108;108;1449492439;2.148021698;0.8057085871699999;0.0681296139956;0;True;39;1;77.76033645868529
109;109;1449492439;2.14802742004;0.805755615234;0.06805004924540001;0;True;39;1;77.76033645868529
110;110;1449492439;2.14806222916;0.8057036399840001;0.0681043937802;0;True;39;1;77.76033645868529
111;111;1449492439;2.14802646637;0.805668056011;0.0681428387761;0;True;39;1;77.76033645868529
112;112;1449492439;2.14800524712;0.805684924126;0.0680439546704;0;True;39;1;77.76033645868529
113;113;1449492439;2.14806175232;0.8057086467739999;0.0680696219206;0;True;39;1;77.76033645868529
114;114;1449492439;2.14800882339;0.805637061596;0.06815192848439999;0;True;39;1;77.76033645868529
115;115;1449492439;2.147960186;0.805577516556;0.0681571885943;0;True;39;1;77.76033645868529
116;116;1449492439;2.14806246758;0.8057385683059999;0.068071320653;0;True;39;1;77.76033645868529
117;117;1449492439;2.14800858498;0.805656433105;0.0681341290474;0;True;39;1;77.76033645868529
118;118;1449492439;2.14801216125;0.8056995272640001;0.0680292472243;0;True;39;1;77.76033645868529
119;119;1449492439;2.14797759056;0.805641770363;0.0681423544884;0;True;39;1;77.76033645868529
120;120;1449492439;2.1478998661;0.805524587631;0.06814695894719999;0;True;39;1;77.76033645868529
121;121;1449492439;2.1480448246;0.805721580982;0.0680768340826;0;True;39;1;77.76033645868529
122;122;1449492439;2.14803934097;0.8056970238689999;0.06807287782430001;0;True;39;1;77.76033645868529
123;123;1449492439;2.1479721069299997;0.8056290149690001;0.0681267827749;0;True;39;1;77.76033645868529
124;124;1449492439;2.1480329036700003;0.8056914210320001;0.06807091832159999;0;True;39;1;77.76033645868529
125;125;1449492439;2.1478803157799997;0.805537641048;0.0680349767208;0;True;39;1;77.76033645868529
126;126;1449492439;2.1480653286;0.80570346117;0.0680887103081;0;True;39;1;77.76033645868529
127;127;1449492439;2.14804005623;0.805690467358;0.0681118890643;0;True;39;1;77.76033645868529
128;128;1449492439;2.1479542255400004;0.8055676817890001;0.0681400448084;0;True;39;1;77.76033645868529
129;129;1449492439;2.1479716301;0.805577754974;0.0681356266141;0;True;39;1;77.76033645868529
130;130;1449492439;2.14807963371;0.8056718707080001;0.0681525990367;0;True;39;1;77.76033645868529
131;131;1449492439;2.14796590805;0.805580377579;0.068154156208;0;True;39;1;77.76033645868529
132;132;1449492439;2.14802503586;0.805686712265;0.0680530667305;0;True;39;1;77.76033645868529
133;133;1449492439;2.14797401428;0.805571973324;0.0681694447994;0;True;39;1;77.76033645868529
134;134;1449492439;2.14803791046;0.805660486221;0.0681631043553;0;True;39;1;77.76033645868529
135;135;1449492439;2.14794135094;0.805530786514;0.0681639909744;0;True;39;1;77.76033645868529
136;136;1449492439;2.1480765342700003;0.8057019114489999;0.0681071728468;0;True;39;1;77.76033645868529
137;137;1449492439;2.14808297157;0.8057304024699999;0.0680897608399;0;True;39;1;77.76033645868529
138;138;1449492439;2.14796614647;0.8056051731110001;0.0680665671825;0;True;39;1;77.76033645868529
139;139;1449492439;2.14801311493;0.805627644062;0.0681772828102;0;True;39;1;77.76033645868529
140;140;1449492439;2.14803719521;0.80567920208;0.068141259253;0;True;39;1;77.76033645868529
141;141;1449492439;2.1480996608700003;0.805688500404;0.0681572780013;0;True;39;1;77.76033645868529
142;142;1449492439;2.1479692459099997;0.805556714535;0.06816504895690001;0;True;39;1;77.76033645868529
143;143;1449492439;2.14800333977;0.805607616901;0.0681773945689;0;True;39;1;77.76033645868529
144;144;1449492439;2.14804673195;0.805648446083;0.06811068207030001;0;True;39;1;77.76033645868529
145;145;1449492439;2.1480152607;0.805623829365;0.0681267753243;0;True;39;1;77.76033645868529
146;146;1449492439;2.1479980945599997;0.8055956959720001;0.0681617036462;0;True;39;1;77.76033645868529
147;147;1449492439;2.14809942245;0.805722355843;0.068103954196;0;True;39;1;77.76033645868529
148;148;1449492439;2.14812469482;0.8057636022570001;0.0681627839804;0;True;39;1;77.76033645868529
149;149;1449492439;2.14808440208;0.805755317211;0.06807893514630001;0;True;39;1;77.76033645868529
150;150;1449492439;2.1480414867400004;0.805671155453;0.0681239068508;0;True;39;1;77.76033645868529
151;151;1449492439;2.1480741500900002;0.8057798743250001;0.0680641904473;0;True;39;1;77.76033645868529
152;152;1449492439;2.1480615138999997;0.80567163229;0.0680872574449;0;True;39;1;77.76033645868529
153;153;1449492439;2.14806842804;0.8057685494419999;0.0680784359574;0;True;39;1;77.76033645868529
154;154;1449492439;2.14810776711;0.805720806122;0.0681052356958;0;True;39;1;77.76033645868529
155;155;1449492439;2.1479864120500003;0.805690467358;0.0681336969137;0;True;39;1;77.76033645868529
156;156;1449492439;2.14806675911;0.8057002425190001;0.0681593939662;0;True;39;1;77.76033645868529
157;157;1449492439;2.1480884552;0.80567073822;0.0681793987751;0;True;39;1;77.76033645868529
158;158;1449492439;2.1480889320400003;0.805712640285;0.0680998638272;0;True;39;1;77.76033645868529
159;159;1449492439;2.1480793952900004;0.805758714676;0.06810898333790001;0;True;39;1;77.76033645868529
160;160;1449492439;2.1480691433000003;0.805774271488;0.0681926161051;0;True;39;1;77.76033645868529
161;161;1449492439;2.1480984687799998;0.8057587742810001;0.068120777607;0;True;39;1;77.76033645868529
162;162;1449492439;2.14807844162;0.80577403307;0.0681790187955;0;True;39;1;77.76033645868529
163;163;1449492439;2.14806485176;0.805697977543;0.0680732801557;0;True;39;1;77.76033645868529
164;164;1449492439;2.1480593681299998;0.805695056915;0.0681848376989;0;True;39;1;77.76033645868529
165;165;1449492439;2.14809942245;0.8057359457019999;0.0681432113051;0;True;39;1;77.76033645868529
166;166;1449492440;2.14798355103;0.8055528402330001;0.0682001709938;1;True;39;1;77.76033645868529
167;167;1449492440;2.1481115818000003;0.805689632893;0.06819123029709999;1;True;39;1;77.76033645868529
168;168;1449492440;2.14806413651;0.805698096752;0.0681016072631;1;True;39;1;77.76033645868529
169;169;1449492440;2.1480944156599997;0.805751144886;0.06813368201259999;1;True;39;1;77.76033645868529
170;170;1449492440;2.14811372757;0.80571526289;0.0680904388428;1;True;39;1;77.76033645868529
171;171;1449492440;2.14812254906;0.8057385087010001;0.06814242899419999;1;True;39;1;77.76033645868529
172;172;1449492440;2.1481130123099996;0.805726885796;0.0681572332978;1;True;39;1;77.76033645868529
173;173;1449492440;2.14810800552;0.805719673634;0.0681688040495;1;True;39;1;77.76033645868529
174;174;1449492440;2.1481044292400004;0.80572861433;0.0681328102946;1;True;39;1;77.76033645868529
175;175;1449492440;2.14799714088;0.805554032326;0.068197324872;1;True;39;1;77.76033645868529
176;176;1449492440;2.14813065529;0.805764079094;0.0681372359395;1;True;39;1;77.76033645868529
177;177;1449492440;2.14797759056;0.805547058582;0.06822789460419999;1;True;39;1;77.76033645868529
178;178;1449492440;2.14807367325;0.8057816028589999;0.06812732666730001;1;True;39;1;77.76033645868529
179;179;1449492440;2.1480653286;0.80565983057;0.06809426844119999;1;True;39;1;77.76033645868529
180;180;1449492440;2.14809083939;0.8057425618170001;0.0681832283735;1;True;39;1;77.76033645868529
181;181;1449492440;2.14804124832;0.8057194948199999;0.06814064830540001;1;True;39;1;77.76033645868529
182;182;1449492440;2.1480460166900004;0.805711686611;0.0681530088186;1;True;39;1;77.76033645868529
183;183;1449492440;2.1480455398599996;0.8056828975679999;0.0680949762464;1;True;39;1;77.76033645868529
184;184;1449492440;2.14796614647;0.8055351376530001;0.0681914314628;1;True;39;1;77.76033645868529
185;185;1449492440;2.14793872833;0.8055446743970001;0.0681791082025;1;True;39;1;77.76033645868529
186;186;1449492440;2.1480576992;0.8057210445399999;0.068178512156;1;True;39;1;77.76033645868529
187;187;1449492440;2.1480786800400002;0.805746912956;0.0681651905179;1;True;39;1;77.76033645868529
188;188;1449492440;2.14805102348;0.805727303028;0.0681718289852;1;True;39;1;77.76033645868529
189;189;1449492440;2.14798164368;0.805552363396;0.06818542629480001;1;True;39;1;77.76033645868529
190;190;1449492440;2.1480123996700002;0.8055884838099999;0.06815028935669999;1;True;39;1;77.76033645868529
191;191;1449492440;2.14792990685;0.8055193424220001;0.06817564368250001;1;True;39;1;77.76033645868529
192;192;1449492440;2.1480486393000002;0.805703103542;0.0680790022016;1;True;39;1;77.76033645868529
193;193;1449492440;2.14805173874;0.805723309517;0.06814704090359999;1;True;39;1;77.76033645868529
194;194;1449492440;2.14803671837;0.805644392967;0.0681268274784;1;True;39;1;77.76033645868529
195;195;1449492440;2.1481089592;0.805719673634;0.0681161209941;1;True;39;1;77.76033645868529
196;196;1449492440;2.14809060097;0.805722296238;0.06807942688469999;1;True;39;1;77.76033645868529
197;197;1449492440;2.1480519771599997;0.805698156357;0.068115465343;1;True;39;1;77.76033645868529
198;198;1449492440;2.14806127548;0.805736124516;0.0681409239769;1;True;39;1;77.76033645868529
199;199;1449492440;2.14806866646;0.8056794404979999;0.0681526437402;1;True;39;1;77.76033645868529
200;200;1449492440;2.1479277610799996;0.8055374622339999;0.0681560859084;1;True;39;1;77.76033645868529
201;201;1449492440;2.14797234535;0.805711627007;0.0680885761976;1;True;39;1;77.76033645868529
202;202;1449492440;2.1479706764200004;0.8056073784829999;0.0681536048651;1;True;39;1;77.76033645868529
203;203;1449492440;2.14804673195;0.805744290352;0.0681329220533;1;True;39;1;77.76033645868529
204;204;1449492440;2.1480026245099997;0.8056439757350001;0.0681482255459;1;True;39;1;77.76033645868529
205;205;1449492440;2.14803981781;0.805661976337;0.0681686103344;1;True;39;1;77.76033645868529
206;206;1449492440;2.1478486061099997;0.805491745472;0.0681408643723;1;True;39;1;77.76033645868529
207;207;1449492440;2.1479542255400004;0.805615186691;0.0681286007166;1;True;39;1;77.76033645868529
208;208;1449492440;2.14796447754;0.8056576251980001;0.0680757388473;1;True;39;1;77.76033645868529
209;209;1449492440;2.14805173874;0.8057057261470001;0.0680946037173;1;True;39;1;77.76033645868529
210;210;1449492440;2.14806365967;0.8056867718699999;0.0681510493159;1;True;39;1;77.76033645868529
211;211;1449492440;2.14806175232;0.805749237537;0.0680717453361;1;True;39;1;77.76033645868529
212;212;1449492440;2.14789533615;0.8055371642110001;0.0681410878897;1;True;39;1;77.76033645868529
213;213;1449492440;2.14794135094;0.8056282997130001;0.0681467801332;1;True;39;1;77.76033645868529
214;214;1449492440;2.1480343341799997;0.805709064007;0.06814008951190001;1;True;39;1;77.76033645868529
215;215;1449492440;2.14807224274;0.8057656884190001;0.0681484639645;1;True;39;1;77.76033645868529
216;216;1449492440;2.14807271957;0.8057119250300001;0.0681143477559;1;True;39;1;77.76033645868529
217;217;1449492440;2.14790391922;0.8055347204209999;0.0681546479464;1;True;39;1;77.76033645868529
218;218;1449492440;2.14803910255;0.8057104349140001;0.06808327138419999;1;True;39;1;77.76033645868529
219;219;1449492440;2.1480515003200003;0.805701494217;0.0680896192789;1;True;39;1;77.76033645868529
220;220;1449492440;2.14807367325;0.8057168126109999;0.06807848811150001;1;True;39;1;77.76033645868529
221;221;1449492440;2.1479773521400003;0.805572390556;0.0681624114513;1;True;39;1;77.76033645868529
222;222;1449492440;2.14806723595;0.8057222366329999;0.0681309252977;1;True;39;1;77.76033645868529
223;223;1449492440;2.1480128765099997;0.805681586266;0.0680661126971;1;True;39;1;77.76033645868529
224;224;1449492440;2.14791178703;0.8055713176729999;0.0680830702186;1;True;39;1;77.76033645868529
225;225;1449492440;2.1480507850599997;0.805684387684;0.068147547543;1;True;39;1;77.76033645868529
226;226;1449492440;2.14795589447;0.805572271347;0.0681705400348;1;True;39;1;77.76033645868529
227;227;1449492440;2.1480755806;0.805737376213;0.0680727735162;1;True;39;1;77.76033645868529
228;228;1449492440;2.14810681343;0.8056814074519999;0.0681938230991;1;True;39;1;77.76033645868529
229;229;1449492440;2.14800071716;0.805669248104;0.0681058764458;1;True;39;1;77.76033645868529
230;230;1449492440;2.1480889320400003;0.805748939514;0.0681288614869;1;True;39;1;77.76033645868529
231;231;1449492440;2.1480865478499998;0.805687785149;0.0681309700012;1;True;39;1;77.76033645868529
232;232;1449492440;2.14804339409;0.8057354688639999;0.06812911480669999;1;True;39;1;77.76033645868529
233;233;1449492440;2.14810729027;0.80575299263;0.0680945366621;1;True;39;1;77.76033645868529
234;234;1449492440;2.14793753624;0.805536806583;0.0681767389178;1;True;39;1;77.76033645868529
235;235;1449492440;2.14808392525;0.805724799633;0.0680934637785;1;True;39;1;77.76033645868529
236;236;1449492440;2.14805102348;0.805694878101;0.06807128340009999;1;True;39;1;77.76033645868529
237;237;1449492440;2.1480705738099997;0.8056990504260001;0.0681503564119;1;True;39;1;77.76033645868529
238;238;1449492440;2.14804387093;0.805693089962;0.0680705308914;1;True;39;1;77.76033645868529
239;239;1449492440;2.1480658054400004;0.805731475353;0.0680791586637;1;True;39;1;77.76033645868529
240;240;1449492440;2.14810967445;0.80572617054;0.06810902804140001;1;True;39;1;77.76033645868529
241;241;1449492440;2.1481244564099997;0.805754303932;0.06812661141160001;1;True;39;1;77.76033645868529
242;242;1449492440;2.14807009697;0.805707514286;0.068101324141;1;True;39;1;77.76033645868529
243;243;1449492440;2.1480555534400003;0.805693387985;0.0681355521083;1;True;39;1;77.76033645868529
244;244;1449492440;2.1481089592;0.805742383003;0.0681099295616;1;True;39;1;77.76033645868529
245;245;1449492440;2.14805436134;0.805693864822;0.0680939629674;1;True;39;1;77.76033645868529
246;246;1449492440;2.14802122116;0.805632650852;0.0681576952338;1;True;39;1;77.76033645868529
247;247;1449492440;2.14795470238;0.8056269288060001;0.0681126713753;1;True;39;1;77.76033645868529
248;248;1449492440;2.14805674553;0.805778026581;0.0680789723992;1;True;39;1;77.76033645868529
249;249;1449492440;2.14797925949;0.805724024773;0.0681260079145;1;True;39;1;77.76033645868529
250;250;1449492440;2.14805626869;0.805702865124;0.068090364337;1;True;39;1;77.76033645868529
251;251;1449492440;2.14804697037;0.80576723814;0.0681821703911;1;True;39;1;77.76033645868529
252;252;1449492440;2.1481084823599996;0.805755138397;0.06812389194969999;1;True;39;1;77.76033645868529
253;253;1449492440;2.14809823036;0.80576813221;0.06814487278459999;1;True;39;1;77.76033645868529
254;254;1449492440;2.14806056023;0.805765926838;0.0681865513325;1;True;39;1;77.76033645868529
255;255;1449492440;2.1481041908300003;0.8057614564899999;0.06811613589530001;1;True;39;1;77.76033645868529
256;256;1449492440;2.14809632301;0.805756211281;0.0681042894721;1;True;39;1;77.76033645868529
257;257;1449492440;2.1481025219;0.8057501316069999;0.0681461691856;1;True;39;1;77.76033645868529
258;258;1449492440;2.14798998833;0.805599749088;0.0681874677539;1;True;39;1;77.76033645868529
259;259;1449492440;2.14806842804;0.8057379126549999;0.06817624717950001;1;True;39;1;77.76033645868529
260;260;1449492440;2.14808559418;0.805793881416;0.0681934580207;1;True;39;1;77.76033645868529
261;261;1449492440;2.14809131622;0.805686950684;0.0682144984603;1;True;39;1;77.76033645868529
262;262;1449492440;2.14806056023;0.805783867836;0.0681809335947;1;True;39;1;77.76033645868529
263;263;1449492440;2.1481320858;0.805790543556;0.06812115758659999;1;True;39;1;77.76033645868529
264;264;1449492440;2.1480808258099997;0.8057352304459999;0.0681318640709;1;True;39;1;77.76033645868529
265;265;1449492440;2.14806270599;0.805734872818;0.0681530386209;1;True;39;1;77.76033645868529
266;266;1449492440;2.14811491966;0.8056887388230001;0.068172223866;1;True;39;1;77.76033645868529
267;267;1449492440;2.14803171158;0.80565404892;0.0681481435895;1;True;39;1;77.76033645868529
268;268;1449492440;2.1480853557599997;0.805743515491;0.0680977627635;1;True;39;1;77.76033645868529
269;269;1449492440;2.14812493324;0.805794119835;0.06810778379440001;1;True;39;1;77.76033645868529
270;270;1449492440;2.14808869362;0.8057495355609999;0.068159930408;1;True;39;1;77.76033645868529
271;271;1449492440;2.1480922699000002;0.805756449699;0.068170003593;1;True;39;1;77.76033645868529
272;272;1449492440;2.1481115818000003;0.805719673634;0.0680996254086;1;True;39;1;77.76033645868529
273;273;1449492440;2.14806962013;0.805761098862;0.0680732950568;1;True;39;1;77.76033645868529
274;274;1449492440;2.1479918956799997;0.8056645989419999;0.0680836215615;1;True;39;1;77.76033645868529
275;275;1449492440;2.1480810642200003;0.805734395981;0.068143427372;1;True;39;1;77.76033645868529
276;276;1449492440;2.14804124832;0.8057195544239999;0.0681539550424;1;True;39;1;77.76033645868529
277;277;1449492440;2.14808154106;0.8056860566140001;0.0681535303593;1;True;39;1;77.76033645868529
278;278;1449492440;2.1480531692500002;0.805692613125;0.06809579581019999;1;True;39;1;77.76033645868529
279;279;1449492440;2.1480712890599998;0.805696487427;0.06808052212;1;True;39;1;77.76033645868529
280;280;1449492440;2.14796066284;0.805578172207;0.06816793978209999;1;True;39;1;77.76033645868529
281;281;1449492440;2.14806437492;0.805688261986;0.0680673792958;1;True;39;1;77.76033645868529
282;282;1449492440;2.14795160294;0.8056814074519999;0.0681012198329;1;True;39;1;77.76033645868529
283;283;1449492440;2.148021698;0.8056411147120001;0.0681554079056;1;True;39;1;77.76033645868529
284;284;1449492440;2.1480646133400003;0.8056826591490001;0.06814395636319999;1;True;39;1;77.76033645868529
285;285;1449492440;2.1480281353;0.805691182613;0.0680804401636;1;True;39;1;77.76033645868529
286;286;1449492440;2.14791226387;0.805664241314;0.06809949129819999;1;True;39;1;77.76033645868529
287;287;1449492440;2.14795732498;0.8056378960609999;0.06814683228730001;1;True;39;1;77.76033645868529
288;288;1449492440;2.1479747295400005;0.805672764778;0.0680592656136;1;True;39;1;77.76033645868529
289;289;1449492440;2.1478855609900003;0.805535018444;0.0680684670806;1;True;39;1;77.76033645868529
290;290;1449492440;2.14801931381;0.8056420087809999;0.06816193461419999;1;True;39;1;77.76033645868529
291;291;1449492440;2.14805579185;0.805702209473;0.0681076347828;1;True;39;1;77.76033645868529
292;292;1449492440;2.14804339409;0.8056996464730001;0.0680952519178;1;True;39;1;77.76033645868529
293;293;1449492440;2.1479918956799997;0.805683851242;0.0680548101664;1;True;39;1;77.76033645868529
294;294;1449492440;2.14803195;0.8057059049609999;0.0680877044797;1;True;39;1;77.76033645868529
295;295;1449492440;2.14796566963;0.8056340813639999;0.0680755004287;1;True;39;1;77.76033645868529
296;296;1449492440;2.14793515205;0.805555403233;0.0681691095233;1;True;39;1;77.76033645868529
297;297;1449492440;2.14803099632;0.805700778961;0.0680724233389;1;True;39;1;77.76033645868529
298;298;1449492440;2.14804029465;0.8057136535639999;0.0681002214551;1;True;39;1;77.76033645868529
299;299;1449492440;2.14805531502;0.8057229518889999;0.0680897012353;1;True;39;1;77.76033645868529
300;300;1449492440;2.14808130264;0.805709779263;0.0680785477161;1;True;39;1;77.76033645868529
301;301;1449492440;2.14803719521;0.805726468563;0.0680619105697;1;True;39;1;77.76033645868529
302;302;1449492440;2.1479938030200003;0.805653631687;0.0681477412581;1;True;39;1;77.76033645868529
303;303;1449492440;2.1479671001400003;0.8056045174600001;0.0681653395295;1;True;39;1;77.76033645868529
304;304;1449492440;2.14797401428;0.805617451668;0.068161226809;1;True;39;1;77.76033645868529
305;305;1449492440;2.1480474472;0.8057095408439999;0.0680764690042;1;True;39;1;77.76033645868529
306;306;1449492440;2.14796495438;0.805586338043;0.0681663453579;1;True;39;1;77.76033645868529
307;307;1449492440;2.1481037139900003;0.8057222366329999;0.06809871643780001;1;True;39;1;77.76033645868529
308;308;1449492440;2.14796590805;0.8055728673929999;0.0681465268135;1;True;39;1;77.76033645868529
309;309;1449492440;2.14806699753;0.8056884408;0.06815238296989999;1;True;39;1;77.76033645868529
310;310;1449492440;2.14806652069;0.805725812912;0.0681056082249;1;True;39;1;77.76033645868529
311;311;1449492440;2.14802837372;0.8056352734569999;0.068107843399;1;True;39;1;77.76033645868529
312;312;1449492440;2.14799308777;0.8055738806720001;0.0681627467275;1;True;39;1;77.76033645868529
313;313;1449492440;2.14806723595;0.805702924728;0.0681265890598;1;True;39;1;77.76033645868529
314;314;1449492440;2.1480927467299997;0.80569934845;0.0681467056274;1;True;39;1;77.76033645868529
315;315;1449492440;2.14805817604;0.805732011795;0.068160943687;1;True;39;1;77.76033645868529
316;316;1449492440;2.14809942245;0.805755019188;0.0681169256568;1;True;39;1;77.76033645868529
317;317;1449492440;2.1481051444999997;0.805737495422;0.0681170672178;1;True;39;1;77.76033645868529
318;318;1449492440;2.14805960655;0.805706739426;0.06809137016530001;1;True;39;1;77.76033645868529
319;319;1449492440;2.14813542366;0.805719673634;0.0681300014257;1;True;39;1;77.76033645868529
320;320;1449492440;2.14807963371;0.8057353496549999;0.068112924695;1;True;39;1;77.76033645868529
321;321;1449492440;2.14795684814;0.805583894253;0.0682117789984;1;True;39;1;77.76033645868529
322;322;1449492440;2.14812731743;0.805769562721;0.0681100934744;1;True;39;1;77.76033645868529
323;323;1449492440;2.14799499512;0.805566847324;0.06821539253;1;True;39;1;77.76033645868529
324;324;1449492440;2.14801025391;0.805655956268;0.0681942924857;1;True;39;1;77.76033645868529
325;325;1449492440;2.14798665047;0.8055550456049999;0.0682069435716;1;True;39;1;77.76033645868529
326;326;1449492440;2.14795994759;0.805615365505;0.06811398267749999;1;True;39;1;77.76033645868529
327;327;1449492440;2.14803791046;0.805619716644;0.0682108402252;1;True;39;1;77.76033645868529
328;328;1449492440;2.14808440208;0.8057011961939999;0.0681643113494;1;True;39;1;77.76033645868529
329;329;1449492440;2.14807367325;0.8057833909990001;0.0680984184146;1;True;39;1;77.76033645868529
330;330;1449492440;2.14811754227;0.805770337582;0.0681086629629;1;True;39;1;77.76033645868529
331;331;1449492440;2.14806389809;0.8057039380069999;0.06820141524079999;1;True;39;1;77.76033645868529
332;332;1449492440;2.14797663689;0.805573821068;0.0682466551661;1;True;39;1;77.76033645868529
333;333;1449492440;2.14800190926;0.805592238903;0.0682152807713;1;True;39;1;77.76033645868529
334;334;1449492440;2.1481156349200003;0.805771231651;0.0681434720755;1;True;39;1;77.76033645868529
335;335;1449492440;2.14800214767;0.8057372570039999;0.068144492805;1;True;39;1;77.76033645868529
336;336;1449492440;2.1481230258900004;0.80574631691;0.0681846663356;1;True;39;1;77.76033645868529
337;337;1449492440;2.14809608459;0.8057213425640001;0.0681116208434;1;True;39;1;77.76033645868529
338;338;1449492440;2.14808750153;0.8057692646979999;0.0681111067533;1;True;39;1;77.76033645868529
339;339;1449492440;2.14798855782;0.805579304695;0.0682145580649;1;True;39;1;77.76033645868529
340;340;1449492440;2.14804959297;0.805684924126;0.0682131946087;1;True;39;1;77.76033645868529
341;341;1449492440;2.14802074432;0.805658578873;0.068163305521;1;True;39;1;77.76033645868529
342;342;1449492440;2.14808273315;0.805753946304;0.0681595802307;1;True;39;1;77.76033645868529
343;343;1449492440;2.1480519771599997;0.805752873421;0.0681728124619;1;True;39;1;77.76033645868529
344;344;1449492440;2.1481170654299997;0.8057513237;0.06817359477280001;1;True;39;1;77.76033645868529
345;345;1449492440;2.14807581902;0.8056975603100001;0.0681179761887;1;True;39;1;77.76033645868529
346;346;1449492440;2.14807772636;0.805734574795;0.0681321546435;1;True;39;1;77.76033645868529
347;347;1449492440;2.14808964729;0.805777013302;0.06809192150830001;1;True;39;1;77.76033645868529
348;348;1449492440;2.14813494682;0.805778205395;0.0681380033493;1;True;39;1;77.76033645868529
349;349;1449492440;2.14807462692;0.8056997656820001;0.0681635588408;1;True;39;1;77.76033645868529
350;350;1449492440;2.1480531692500002;0.805732131004;0.0681561008096;1;True;39;1;77.76033645868529
351;351;1449492440;2.14806056023;0.805712640285;0.0681513696909;1;True;39;1;77.76033645868529
352;352;1449492440;2.1480956077599997;0.805769741535;0.0681075006723;1;True;39;1;77.76033645868529
353;353;1449492440;2.148042202;0.8056365251540001;0.0682303085923;1;True;39;1;77.76033645868529
354;354;1449492440;2.1479706764200004;0.805653631687;0.0681143850088;1;True;39;1;77.76033645868529
355;355;1449492440;2.14809298515;0.805710911751;0.0681679546833;1;True;39;1;77.76033645868529
356;356;1449492440;2.14804887772;0.805733382702;0.0680758431554;1;True;39;1;77.76033645868529
357;357;1449492440;2.14807534218;0.8057611584659999;0.0681763589382;1;True;39;1;77.76033645868529
358;358;1449492440;2.14805102348;0.8056915402410001;0.0681368336082;1;True;39;1;77.76033645868529
359;359;1449492440;2.1480150222799996;0.805715978146;0.0681268125772;1;True;39;1;77.76033645868529
360;360;1449492440;2.14809656143;0.80571359396;0.0681203976274;1;True;39;1;77.76033645868529
361;361;1449492440;2.14807081223;0.8057678341869999;0.0680636540055;1;True;39;1;77.76033645868529
362;362;1449492440;2.14802479744;0.8056181669239999;0.0681831166148;1;True;39;1;77.76033645868529
363;363;1449492440;2.1479933261900004;0.805570781231;0.0681866854429;1;True;39;1;77.76033645868529
364;364;1449492440;2.1480910778;0.805759727955;0.06815381348130001;1;True;39;1;77.76033645868529
365;365;1449492440;2.14806365967;0.805705964565;0.0680825337768;1;True;39;1;77.76033645868529
366;366;1449492440;2.14807581902;0.8056802153589999;0.0681518986821;1;True;39;1;77.76033645868529
367;367;1449492440;2.14803409576;0.805686235428;0.06811865419150001;1;True;39;1;77.76033645868529
368;368;1449492440;2.14805984497;0.8056637048720001;0.0681597590446;1;True;39;1;77.76033645868529
369;369;1449492440;2.14804053307;0.805681467056;0.0681350305676;1;True;39;1;77.76033645868529
370;370;1449492440;2.1480050087;0.8056480288510001;0.0681467503309;1;True;39;1;77.76033645868529
371;371;1449492440;2.14797997475;0.805577635765;0.068167924881;1;True;39;1;77.76033645868529
372;372;1449492440;2.1480779647799997;0.8056842088699999;0.0681325793266;1;True;39;1;77.76033645868529
373;373;1449492440;2.14804053307;0.805673956871;0.0681187734008;1;True;39;1;77.76033645868529
374;374;1449492440;2.1479580402400003;0.80560952425;0.0681693479419;1;True;39;1;77.76033645868529
375;375;1449492440;2.1480615138999997;0.80572450161;0.06809595227239999;1;True;39;1;77.76033645868529
376;376;1449492440;2.14808702469;0.80570346117;0.0680883601308;1;True;39;1;77.76033645868529
377;377;1449492440;2.1480693817099996;0.8057092428210001;0.0681017786264;1;True;39;1;77.76033645868529
378;378;1449492440;2.14793658257;0.8055433630940001;0.06816160678859999;1;True;39;1;77.76033645868529
379;379;1449492440;2.14808297157;0.805715680122;0.0680740252137;1;True;39;1;77.76033645868529
380;380;1449492440;2.14808344841;0.8057221770290001;0.0681043788791;1;True;39;1;77.76033645868529
381;381;1449492440;2.14809060097;0.805670559406;0.0681462138891;1;True;39;1;77.76033645868529
382;382;1449492440;2.14794778824;0.8055870532989999;0.0681465342641;1;True;39;1;77.76033645868529
383;383;1449492440;2.14793181419;0.805670559406;0.0680785998702;1;True;39;1;77.76033645868529
384;384;1449492440;2.1481082439400003;0.805788338184;0.068093650043;1;True;39;1;77.76033645868529
385;385;1449492440;2.14805221558;0.805694878101;0.0680949315429;1;True;39;1;77.76033645868529
386;386;1449492440;2.14794659615;0.8055455088619999;0.06814281642440001;1;True;39;1;77.76033645868529
387;387;1449492440;2.14803528786;0.8056964278219999;0.068060785532;1;True;39;1;77.76033645868529
388;388;1449492440;2.14802598953;0.805665373802;0.0681559741497;1;True;39;1;77.76033645868529
389;389;1449492440;2.14790391922;0.8055230379100001;0.0681553483009;1;True;39;1;77.76033645868529
390;390;1449492440;2.14804053307;0.805743694305;0.0680469870567;1;True;39;1;77.76033645868529
391;391;1449492440;2.14791727066;0.805650830269;0.0680967345834;1;True;39;1;77.76033645868529
392;392;1449492440;2.14803647995;0.805726885796;0.0681264773011;1;True;39;1;77.76033645868529
393;393;1449492440;2.1480565071099997;0.805723845959;0.0681075006723;1;True;39;1;77.76033645868529
394;394;1449492440;2.14806771278;0.805634140968;0.06818255037069999;1;True;39;1;77.76033645868529
395;395;1449492440;2.14807462692;0.8056826591490001;0.06811650097369999;1;True;39;1;77.76033645868529
396;396;1449492440;2.14801907539;0.805703997612;0.0681354701519;1;True;39;1;77.76033645868529
397;397;1449492440;2.14806127548;0.805705547333;0.0680713281035;1;True;39;1;77.76033645868529
398;398;1449492440;2.14807271957;0.805693984032;0.0680809393525;1;True;39;1;77.76033645868529
399;399;1449492440;2.1480269432099997;0.805669844151;0.0681302696466;1;True;39;1;77.76033645868529
400;400;1449492440;2.14793896675;0.8055374622339999;0.0681461319327;1;True;39;1;77.76033645868529
401;401;1449492440;2.14806032181;0.8056839108470001;0.0681040212512;1;True;39;1;77.76033645868529
402;402;1449492440;2.1480548381799998;0.8056843280789999;0.06808310002090001;1;True;39;1;77.76033645868529
403;403;1449492440;2.1480944156599997;0.805778443813;0.0681160986423;1;True;39;1;77.76033645868529
404;404;1449492440;2.14803361893;0.8056852221490001;0.0680713430047;1;True;39;1;77.76033645868529
405;405;1449492441;2.14811658859;0.805694639683;0.06809306144709999;2;True;39;1;77.76033645868529
406;406;1449492441;2.14806294441;0.805755913258;0.0680837854743;2;True;39;1;77.76033645868529
407;407;1449492441;2.1479742527;0.805682063103;0.0681148171425;2;True;39;1;77.76033645868529
408;408;1449492441;2.1479005813599996;0.805543124676;0.0681373849511;2;True;39;1;77.76033645868529
409;409;1449492441;2.14797663689;0.805603384972;0.0681868866086;2;True;39;1;77.76033645868529
410;410;1449492441;2.14807605743;0.8057010173800001;0.0681265667081;2;True;39;1;77.76033645868529
411;411;1449492441;2.14809179306;0.805711209774;0.0681525990367;2;True;39;1;77.76033645868529
412;412;1449492441;2.1480937004099996;0.805717110634;0.06816007941959999;2;True;39;1;77.76033645868529
413;413;1449492441;2.1480894088699998;0.8057530522349999;0.0681325793266;2;True;39;1;77.76033645868529
414;414;1449492441;2.1480851173400004;0.80576890707;0.0681810602546;2;True;39;1;77.76033645868529
415;415;1449492441;2.1480712890599998;0.805650055408;0.0680951178074;2;True;39;1;77.76033645868529
416;416;1449492441;2.1480572223700003;0.8057520985600001;0.0681774690747;2;True;39;1;77.76033645868529
417;417;1449492441;2.14809799194;0.805745244026;0.0680993422866;2;True;39;1;77.76033645868529
418;418;1449492441;2.14808130264;0.805730700493;0.06811386346819999;2;True;39;1;77.76033645868529
419;419;1449492441;2.14809131622;0.805693209171;0.0681552961469;2;True;39;1;77.76033645868529
420;420;1449492441;2.14812731743;0.8057385683059999;0.0681444630027;2;True;39;1;77.76033645868529
421;421;1449492441;2.1481025219;0.8057412505149999;0.0681158825755;2;True;39;1;77.76033645868529
422;422;1449492441;2.14806079865;0.8057841658589999;0.068113990128;2;True;39;1;77.76033645868529
423;423;1449492441;2.14794373512;0.80553650856;0.0682013109326;2;True;39;1;77.76033645868529
424;424;1449492441;2.14805436134;0.805742800236;0.0681324005127;2;True;39;1;77.76033645868529
425;425;1449492441;2.14809942245;0.805734813213;0.0681164264679;2;True;39;1;77.76033645868529
426;426;1449492441;2.1481342315700003;0.8057485818860001;0.0681201443076;2;True;39;1;77.76033645868529
427;427;1449492441;2.14809179306;0.805692970753;0.0681901648641;2;True;39;1;77.76033645868529
428;428;1449492441;2.14809298515;0.805658578873;0.0681402459741;2;True;39;1;77.76033645868529
429;429;1449492441;2.1480791568799997;0.805697977543;0.0680856853724;2;True;39;1;77.76033645868529
430;430;1449492441;2.1481473445900003;0.805808901787;0.0681330263615;2;True;39;1;77.76033645868529
431;431;1449492441;2.1480779647799997;0.8056796193119999;0.0681086182594;2;True;39;1;77.76033645868529
432;432;1449492441;2.14803385735;0.805620610714;0.0681629925966;2;True;39;1;77.76033645868529
433;433;1449492441;2.14808750153;0.8057039380069999;0.06811304390430001;2;True;39;1;77.76033645868529
434;434;1449492441;2.1480503082299998;0.8057363629340001;0.06815958768130001;2;True;39;1;77.76033645868529
435;435;1449492441;2.14803767204;0.805688798428;0.0681250467896;2;True;39;1;77.76033645868529
436;436;1449492441;2.1480956077599997;0.805765271187;0.0681707784534;2;True;39;1;77.76033645868529
437;437;1449492441;2.14807772636;0.805672645569;0.06812421977519999;2;True;39;1;77.76033645868529
438;438;1449492441;2.1480679512000003;0.805696904659;0.0681562721729;2;True;39;1;77.76033645868529
439;439;1449492441;2.1480157375299997;0.80563223362;0.0681371763349;2;True;39;1;77.76033645868529
440;440;1449492441;2.1480646133400003;0.805754303932;0.0680726766586;2;True;39;1;77.76033645868529
441;441;1449492441;2.14803767204;0.805713891983;0.06814515590669999;2;True;39;1;77.76033645868529
442;442;1449492441;2.14806604385;0.805734694004;0.0681723207235;2;True;39;1;77.76033645868529
443;443;1449492441;2.1479687690700002;0.8055793643000001;0.0681975185871;2;True;39;1;77.76033645868529
444;444;1449492441;2.14797091484;0.8055503368379999;0.06818965822459999;2;True;39;1;77.76033645868529
445;445;1449492441;2.1481091976199997;0.805765092373;0.0681108534336;2;True;39;1;77.76033645868529
446;446;1449492441;2.1480679512000003;0.805751264095;0.0681611523032;2;True;39;1;77.76033645868529
447;447;1449492441;2.14804768562;0.805673182011;0.068176150322;2;True;39;1;77.76033645868529
448;448;1449492441;2.14808392525;0.805703520775;0.0681078583002;2;True;39;1;77.76033645868529
449;449;1449492441;2.1480417251599997;0.805724978447;0.0681315213442;2;True;39;1;77.76033645868529
450;450;1449492441;2.14796566963;0.805564284325;0.0681798607111;2;True;39;1;77.76033645868529
451;451;1449492441;2.14806342125;0.805689573288;0.0680876597762;2;True;39;1;77.76033645868529
452;452;1449492441;2.14808821678;0.805717289448;0.0681222528219;2;True;39;1;77.76033645868529
453;453;1449492441;2.14802479744;0.805705964565;0.068126283586;2;True;39;1;77.76033645868529
454;454;1449492441;2.1479673385599996;0.8056687116619999;0.0680746287107;2;True;39;1;77.76033645868529
455;455;1449492441;2.14803886414;0.805689752102;0.0680700466037;2;True;39;1;77.76033645868529
456;456;1449492441;2.1480474472;0.80567073822;0.0681680515409;2;True;39;1;77.76033645868529
457;457;1449492441;2.14804816246;0.805706977844;0.0680693462491;2;True;39;1;77.76033645868529
458;458;1449492441;2.14803171158;0.805752754211;0.0680799484253;2;True;39;1;77.76033645868529
459;459;1449492441;2.1480734348299997;0.805722117424;0.0680901706219;2;True;39;1;77.76033645868529
460;460;1449492441;2.14801883698;0.805672824383;0.0681479498744;2;True;39;1;77.76033645868529
461;461;1449492441;2.14804768562;0.8057366609569999;0.0681389868259;2;True;39;1;77.76033645868529
462;462;1449492441;2.14793848991;0.8055631518359999;0.06815919280050001;2;True;39;1;77.76033645868529
463;463;1449492441;2.14806199074;0.805671572685;0.0681439489126;2;True;39;1;77.76033645868529
464;464;1449492441;2.14801597595;0.805669188499;0.0680552497506;2;True;39;1;77.76033645868529
465;465;1449492441;2.1480512619;0.805725216866;0.0680928826332;2;True;39;1;77.76033645868529
466;466;1449492441;2.14806652069;0.8057146668430001;0.06810249388220001;2;True;39;1;77.76033645868529
467;467;1449492441;2.1480503082299998;0.8056759834289999;0.068151704967;2;True;39;1;77.76033645868529
468;468;1449492441;2.14802026749;0.805688083172;0.06812477856869999;2;True;39;1;77.76033645868529
469;469;1449492441;2.1480178833;0.805696487427;0.0680968686938;2;True;39;1;77.76033645868529
470;470;1449492441;2.14804053307;0.805691361427;0.0681249424815;2;True;39;1;77.76033645868529
471;471;1449492441;2.14804649353;0.805698275566;0.06810862571000001;2;True;39;1;77.76033645868529
472;472;1449492441;2.14804840088;0.805687785149;0.0681152194738;2;True;39;1;77.76033645868529
473;473;1449492441;2.14809656143;0.8057026267049999;0.0680781006813;2;True;39;1;77.76033645868529
474;474;1449492441;2.14806270599;0.805701673031;0.0681082755327;2;True;39;1;77.76033645868529
475;475;1449492441;2.1480257511099996;0.805722594261;0.0681360438466;2;True;39;1;77.76033645868529
476;476;1449492441;2.14799880981;0.805692195892;0.0681125819683;2;True;39;1;77.76033645868529
477;477;1449492441;2.1480560302700002;0.805695176125;0.0680872648954;2;True;39;1;77.76033645868529
478;478;1449492441;2.1479818821000003;0.805658042431;0.068086989224;2;True;39;1;77.76033645868529
479;479;1449492441;2.14803910255;0.8057012557979999;0.0680966451764;2;True;39;1;77.76033645868529
480;480;1449492441;2.1478998661;0.805556297302;0.06807551532980001;2;True;39;1;77.76033645868529
481;481;1449492441;2.14801931381;0.8057059049609999;0.06814432144169999;2;True;39;1;77.76033645868529
482;482;1449492441;2.14795923233;0.805580437183;0.0681684091687;2;True;39;1;77.76033645868529
483;483;1449492441;2.14802670479;0.805648565292;0.0681579783559;2;True;39;1;77.76033645868529
484;484;1449492441;2.14806985855;0.805700838566;0.0680987685919;2;True;39;1;77.76033645868529
485;485;1449492441;2.14805102348;0.8057169318199999;0.0680829584599;2;True;39;1;77.76033645868529
486;486;1449492441;2.14803314209;0.805678784847;0.0680866166949;2;True;39;1;77.76033645868529
487;487;1449492441;2.14803123474;0.805680453777;0.0681446120143;2;True;39;1;77.76033645868529
488;488;1449492441;2.1480503082299998;0.805676996708;0.0681542679667;2;True;39;1;77.76033645868529
489;489;1449492441;2.1480691433000003;0.805755138397;0.0681521072984;2;True;39;1;77.76033645868529
490;490;1449492441;2.1480243206;0.80569589138;0.0680927187204;2;True;39;1;77.76033645868529
491;491;1449492441;2.14802861214;0.8056815266609999;0.0681480169296;2;True;39;1;77.76033645868529
492;492;1449492441;2.14806723595;0.8057183623309999;0.0680863112211;2;True;39;1;77.76033645868529
493;493;1449492441;2.1480329036700003;0.805690586567;0.06805021315809999;2;True;39;1;77.76033645868529
494;494;1449492441;2.14796209335;0.805554628372;0.0681547522545;2;True;39;1;77.76033645868529
495;495;1449492441;2.14804959297;0.805738985538;0.0680714249611;2;True;39;1;77.76033645868529
496;496;1449492441;2.14802265167;0.8057522773739999;0.0681478232145;2;True;39;1;77.76033645868529
497;497;1449492441;2.14808130264;0.805747210979;0.0680945143104;2;True;39;1;77.76033645868529
498;498;1449492441;2.14804315567;0.805729329586;0.0681359693408;2;True;39;1;77.76033645868529
499;499;1449492441;2.14804077148;0.805715501308;0.0681519880891;2;True;39;1;77.76033645868529
500;500;1449492441;2.1479160785699998;0.805524468422;0.06819060444830001;2;True;39;1;77.76033645868529
501;501;1449492441;2.1480498313900003;0.8057295084;0.06815320998430001;2;True;39;1;77.76033645868529
502;502;1449492441;2.1479513645200004;0.805581748486;0.0681937709451;2;True;39;1;77.76033645868529
503;503;1449492441;2.14801454544;0.805681586266;0.0681214109063;2;True;39;1;77.76033645868529
504;504;1449492441;2.1479091644299997;0.805567741394;0.0680883526802;2;True;39;1;77.76033645868529
505;505;1449492441;2.14807701111;0.805705010891;0.0680846497416;2;True;39;1;77.76033645868529
506;506;1449492441;2.14800524712;0.8056693077089999;0.06817615777250001;2;True;39;1;77.76033645868529
507;507;1449492441;2.1480128765099997;0.805631816387;0.0680968388915;2;True;39;1;77.76033645868529
508;508;1449492441;2.14809632301;0.8057141304019999;0.0680887624621;2;True;39;1;77.76033645868529
509;509;1449492441;2.14799618721;0.805564761162;0.0681665986776;2;True;39;1;77.76033645868529
510;510;1449492441;2.1480779647799997;0.805699408054;0.0681255161762;2;True;39;1;77.76033645868529
511;511;1449492441;2.14798617363;0.8055451512340001;0.0681752860546;2;True;39;1;77.76033645868529
512;512;1449492441;2.14805054665;0.805718898773;0.0681520700455;2;True;39;1;77.76033645868529
513;513;1449492441;2.14798593521;0.8057061433789999;0.0681157931685;2;True;39;1;77.76033645868529
514;514;1449492441;2.14805245399;0.805730521679;0.06815469264980001;2;True;39;1;77.76033645868529
515;515;1449492441;2.14811658859;0.805758833885;0.0681627690792;2;True;39;1;77.76033645868529
516;516;1449492441;2.14806962013;0.805658757687;0.0681171417236;2;True;39;1;77.76033645868529
517;517;1449492441;2.1480786800400002;0.805691182613;0.0680813267827;2;True;39;1;77.76033645868529
518;518;1449492441;2.14806222916;0.805681169033;0.0681359544396;2;True;39;1;77.76033645868529
519;519;1449492441;2.1480956077599997;0.805757761002;0.0680912807584;2;True;39;1;77.76033645868529
520;520;1449492441;2.1480705738099997;0.8057226538660001;0.0681380629539;2;True;39;1;77.76033645868529
521;521;1449492441;2.14808034897;0.805699586868;0.0680767297745;2;True;39;1;77.76033645868529
522;522;1449492441;2.14803671837;0.805599331856;0.0681913495064;2;True;39;1;77.76033645868529
523;523;1449492441;2.14810585976;0.805758655071;0.06810630112890001;2;True;39;1;77.76033645868529
524;524;1449492441;2.14810752869;0.8057284355159999;0.0681215673685;2;True;39;1;77.76033645868529
525;525;1449492441;2.14813399315;0.805773437023;0.06811477988959999;2;True;39;1;77.76033645868529
526;526;1449492441;2.1479938030200003;0.805656850338;0.0680897608399;2;True;39;1;77.76033645868529
527;527;1449492441;2.14809584618;0.805718481541;0.0680959001184;2;True;39;1;77.76033645868529
528;528;1449492441;2.14806294441;0.8056905269619999;0.06812967360019999;2;True;39;1;77.76033645868529
529;529;1449492441;2.14813041687;0.8057229518889999;0.0681560635567;2;True;39;1;77.76033645868529
530;530;1449492441;2.14803051949;0.8056243658069999;0.06813833117490001;2;True;39;1;77.76033645868529
531;531;1449492441;2.14814066887;0.805725514889;0.0681060105562;2;True;39;1;77.76033645868529
532;532;1449492441;2.14801621437;0.805585741997;0.0682002529502;2;True;39;1;77.76033645868529
533;533;1449492441;2.14803314209;0.8056427836419999;0.06818475574249999;2;True;39;1;77.76033645868529
534;534;1449492441;2.14807081223;0.805712640285;0.06807360798119999;2;True;39;1;77.76033645868529
535;535;1449492441;2.14811110497;0.805765211582;0.0681051239371;2;True;39;1;77.76033645868529
536;536;1449492441;2.14806962013;0.8057162165639999;0.0680764466524;2;True;39;1;77.76033645868529
537;537;1449492441;2.14804792404;0.805687248707;0.06812813133;2;True;39;1;77.76033645868529
538;538;1449492441;2.1480574607799996;0.8056938052179999;0.0681575015187;2;True;39;1;77.76033645868529
539;539;1449492441;2.1480276584599998;0.805598795414;0.0681806579232;2;True;39;1;77.76033645868529
540;540;1449492441;2.14806962013;0.805678725243;0.0681754499674;2;True;39;1;77.76033645868529
541;541;1449492441;2.14810180664;0.805739045143;0.0681231245399;2;True;39;1;77.76033645868529
542;542;1449492441;2.14799642563;0.80557101965;0.0681800693274;2;True;39;1;77.76033645868529
543;543;1449492441;2.14805960655;0.805727422237;0.0681439861655;2;True;39;1;77.76033645868529
544;544;1449492441;2.14808344841;0.80569601059;0.06814742833380001;2;True;39;1;77.76033645868529
545;545;1449492441;2.14809298515;0.805687785149;0.0681236237288;2;True;39;1;77.76033645868529
546;546;1449492441;2.14805102348;0.8056306838989999;0.06819527596239999;2;True;39;1;77.76033645868529
547;547;1449492441;2.14805054665;0.8057325482369999;0.06814900040630001;2;True;39;1;77.76033645868529
548;548;1449492441;2.14807629585;0.8056963682170001;0.0681575983763;2;True;39;1;77.76033645868529
549;549;1449492441;2.14807486534;0.80578070879;0.068087041378;2;True;39;1;77.76033645868529
550;550;1449492441;2.14799761772;0.8055859804150001;0.0681997016072;2;True;39;1;77.76033645868529
551;551;1449492441;2.14808559418;0.805728793144;0.0681113451719;2;True;39;1;77.76033645868529
552;552;1449492441;2.14805793762;0.8057235479350001;0.0680578351021;2;True;39;1;77.76033645868529
553;553;1449492441;2.14800071716;0.805581152439;0.0681691095233;2;True;39;1;77.76033645868529
554;554;1449492441;2.14807224274;0.805738210678;0.0681491196156;2;True;39;1;77.76033645868529
555;555;1449492441;2.14802002907;0.8056396842;0.0681486278772;2;True;39;1;77.76033645868529
556;556;1449492441;2.14806604385;0.8057260513310001;0.0681497678161;2;True;39;1;77.76033645868529
557;557;1449492441;2.14804506302;0.805664658546;0.0681788548827;2;True;39;1;77.76033645868529
558;558;1449492441;2.14799571037;0.805600345135;0.0681330934167;2;True;39;1;77.76033645868529
559;559;1449492441;2.1480832099900002;0.8057182431219999;0.0681358501315;2;True;39;1;77.76033645868529
560;560;1449492441;2.14803051949;0.8056733012199999;0.0681552663445;2;True;39;1;77.76033645868529
561;561;1449492441;2.14807224274;0.8056854605670001;0.0681689381599;2;True;39;1;77.76033645868529
562;562;1449492441;2.1480970382700004;0.805710852146;0.0681617036462;2;True;39;1;77.76033645868529
563;563;1449492441;2.1480050087;0.805582582951;0.0681905671954;2;True;39;1;77.76033645868529
564;564;1449492441;2.14797401428;0.8055978417399999;0.06818540394309999;2;True;39;1;77.76033645868529
565;565;1449492441;2.1479878425599996;0.805572807789;0.06816778332000001;2;True;39;1;77.76033645868529
566;566;1449492441;2.14798116684;0.8055486679080001;0.06817753613;2;True;39;1;77.76033645868529
567;567;1449492441;2.14804387093;0.8056734204289999;0.06814301759;2;True;39;1;77.76033645868529
568;568;1449492441;2.1480500698099996;0.805709302425;0.0681449770927;2;True;39;1;77.76033645868529
569;569;1449492441;2.14806723595;0.8056793212890001;0.0681718736887;2;True;39;1;77.76033645868529
570;570;1449492441;2.1479613781;0.805572211742;0.0681645274162;2;True;39;1;77.76033645868529
571;571;1449492441;2.14804077148;0.805675685406;0.0680688247085;2;True;39;1;77.76033645868529
572;572;1449492441;2.1480062007900003;0.8056052327159999;0.0681350305676;2;True;39;1;77.76033645868529
573;573;1449492441;2.1480987072;0.8057077527050001;0.0681087300181;2;True;39;1;77.76033645868529
574;574;1449492441;2.1479728221900003;0.8055651187899999;0.0681884363294;2;True;39;1;77.76033645868529
575;575;1449492441;2.1480705738099997;0.80574709177;0.06807388365269999;2;True;39;1;77.76033645868529
576;576;1449492441;2.1480658054400004;0.8056834936139999;0.06807307899000001;2;True;39;1;77.76033645868529
577;577;1449492441;2.14809036255;0.8057399392129999;0.06809486448760001;2;True;39;1;77.76033645868529
578;578;1449492441;2.1481127739;0.8057462573049999;0.068145878613;2;True;39;1;77.76033645868529
579;579;1449492441;2.1479978561400004;0.8056828975679999;0.0681161954999;2;True;39;1;77.76033645868529
580;580;1449492441;2.1481142044099997;0.805721402168;0.0681101828814;2;True;39;1;77.76033645868529
581;581;1449492441;2.14805579185;0.805723249912;0.0681570246816;2;True;39;1;77.76033645868529
582;582;1449492441;2.1479692459099997;0.80555832386;0.068183645606;2;True;39;1;77.76033645868529
583;583;1449492441;2.14806365967;0.805744111538;0.06816316396000001;2;True;39;1;77.76033645868529
584;584;1449492441;2.14806294441;0.805753409863;0.06809468567369999;2;True;39;1;77.76033645868529
585;585;1449492441;2.14808392525;0.805687069893;0.0681638345122;2;True;39;1;77.76033645868529
586;586;1449492441;2.14807677269;0.8056935667990001;0.0681434124708;2;True;39;1;77.76033645868529
587;587;1449492441;2.14794659615;0.8055400252339999;0.0681914314628;2;True;39;1;77.76033645868529
588;588;1449492441;2.1480898857099997;0.80569255352;0.0681701600552;2;True;39;1;77.76033645868529
589;589;1449492441;2.14811730385;0.805754125118;0.06811317056419999;2;True;39;1;77.76033645868529
590;590;1449492441;2.14804339409;0.805684506893;0.06813637912269999;2;True;39;1;77.76033645868529
591;591;1449492441;2.14805293083;0.80565994978;0.06806754320859999;2;True;39;1;77.76033645868529
592;592;1449492441;2.14807534218;0.8057087063789999;0.0680890530348;2;True;39;1;77.76033645868529
593;593;1449492441;2.14799165726;0.8056984543800001;0.0681366696954;2;True;39;1;77.76033645868529
594;594;1449492441;2.14809060097;0.805724620819;0.0681100562215;2;True;39;1;77.76033645868529
595;595;1449492441;2.1480078697200002;0.805596709251;0.0681501328945;2;True;39;1;77.76033645868529
596;596;1449492441;2.14805984497;0.8056691288950001;0.0681726038456;2;True;39;1;77.76033645868529
597;597;1449492441;2.1479747295400005;0.805574893951;0.0681941211224;2;True;39;1;77.76033645868529
598;598;1449492441;2.1480734348299997;0.805772602558;0.0680784732103;2;True;39;1;77.76033645868529
599;599;1449492441;2.14807701111;0.80571436882;0.0681190118194;2;True;39;1;77.76033645868529
600;600;1449492441;2.14810562134;0.805719912052;0.0680951550603;2;True;39;1;77.76033645868529
601;601;1449492441;2.1480269432099997;0.805599987507;0.0681765899062;2;True;39;1;77.76033645868529
602;602;1449492441;2.1480221748400004;0.805586218834;0.0681798383594;2;True;39;1;77.76033645868529
603;603;1449492441;2.14800548553;0.805589020252;0.0681640133262;2;True;39;1;77.76033645868529
604;604;1449492441;2.1480853557599997;0.8057568073270001;0.0680897086859;2;True;39;1;77.76033645868529
605;605;1449492441;2.1480717659;0.805649161339;0.0681487321854;2;True;39;1;77.76033645868529
606;606;1449492441;2.14808607101;0.805691480637;0.0681769028306;2;True;39;1;77.76033645868529
607;607;1449492441;2.1479635238599997;0.805558145046;0.0681916624308;2;True;39;1;77.76033645868529
608;608;1449492441;2.14797711372;0.805573999882;0.0682094469666;2;True;39;1;77.76033645868529
609;609;1449492441;2.14808392525;0.805706679821;0.0681471601129;2;True;39;1;77.76033645868529
