;Unnamed: 0;header_stamp_secs;pose_position_x;pose_position_y;pose_position_z;seconds;drop_values;flight_number;label;dtw
0;0;1449484264;2.13696312904;0.7945823073389999;0.0686350017786;0;True;4;1;77.60341007635164
1;1;1449484264;2.13681173325;0.7944685816760001;0.06884861737489999;0;True;4;1;77.60341007635164
2;2;1449484264;2.13683724403;0.79443436861;0.0686500295997;0;True;4;1;77.60341007635164
3;3;1449484264;2.1369459629099996;0.7944585680959999;0.0686467811465;0;True;4;1;77.60341007635164
4;4;1449484264;2.1368820667299997;0.794541060925;0.0687058717012;0;True;4;1;77.60341007635164
5;5;1449484264;2.13685965538;0.794445753098;0.0687529072165;0;True;4;1;77.60341007635164
6;6;1449484264;2.13696551323;0.794562041759;0.06869440525769999;0;True;4;1;77.60341007635164
7;7;1449484264;2.1369459629099996;0.7944516539569999;0.06865207850930001;0;True;4;1;77.60341007635164
8;8;1449484264;2.13696789742;0.79456949234;0.0687258765101;0;True;4;1;77.60341007635164
9;9;1449484264;2.13688826561;0.794569551945;0.06876993924380001;0;True;4;1;77.60341007635164
10;10;1449484264;2.13691973686;0.794546425343;0.0686888024211;0;True;4;1;77.60341007635164
11;11;1449484264;2.1370334625200003;0.794732391834;0.0685758143663;0;True;4;1;77.60341007635164
12;12;1449484264;2.1369955539700003;0.794448673725;0.0685667395592;0;True;4;1;77.60341007635164
13;13;1449484264;2.13705015182;0.794719159603;0.0685677155852;0;True;4;1;77.60341007635164
14;14;1449484264;2.13690805435;0.794638514519;0.068752259016;0;True;4;1;77.60341007635164
15;15;1449484264;2.13702559471;0.794750511646;0.0686036199331;0;True;4;1;77.60341007635164
16;16;1449484264;2.13688492775;0.794519722462;0.068799354136;0;True;4;1;77.60341007635164
17;17;1449484264;2.1369447708099996;0.794517040253;0.068740747869;0;True;4;1;77.60341007635164
18;18;1449484264;2.13697695732;0.7946698665620001;0.0687760040164;0;True;4;1;77.60341007635164
19;19;1449484264;2.1370146274599997;0.794573903084;0.0687796548009;0;True;4;1;77.60341007635164
20;20;1449484264;2.13695001602;0.79445797205;0.068759098649;0;True;4;1;77.60341007635164
21;21;1449484264;2.13692450523;0.794691324234;0.0687917545438;0;True;4;1;77.60341007635164
22;22;1449484264;2.13689947128;0.794477105141;0.0688199996948;0;True;4;1;77.60341007635164
23;23;1449484264;2.13697290421;0.794344365597;0.0686322152615;0;True;4;1;77.60341007635164
24;24;1449484264;2.1368873119400003;0.794471502304;0.0688147470355;0;True;4;1;77.60341007635164
25;25;1449484264;2.13701272011;0.7945559024809999;0.0686354413629;0;True;4;1;77.60341007635164
26;26;1449484264;2.1369216442099996;0.794429779053;0.0688541680574;0;True;4;1;77.60341007635164
27;27;1449484264;2.13687348366;0.794455468655;0.0687736421824;0;True;4;1;77.60341007635164
28;28;1449484264;2.1370089054099997;0.79453343153;0.0686316713691;0;True;4;1;77.60341007635164
29;29;1449484264;2.13693118095;0.79469370842;0.0687998458743;0;True;4;1;77.60341007635164
30;30;1449484264;2.13696670532;0.794557154179;0.068759098649;0;True;4;1;77.60341007635164
31;31;1449484264;2.1369664669;0.794612705708;0.06878306716680001;0;True;4;1;77.60341007635164
32;32;1449484264;2.13694429398;0.794442176819;0.0687627270818;0;True;4;1;77.60341007635164
33;33;1449484264;2.13688325882;0.794454455376;0.068824082613;0;True;4;1;77.60341007635164
34;34;1449484264;2.13693904877;0.7944865822789999;0.0687451288104;0;True;4;1;77.60341007635164
35;35;1449484264;2.1370275020599996;0.794646382332;0.0685796365142;0;True;4;1;77.60341007635164
36;36;1449484264;2.13698005676;0.794511318207;0.068756558001;0;True;4;1;77.60341007635164
37;37;1449484264;2.13695287704;0.7944668531419999;0.06864647567269999;0;True;4;1;77.60341007635164
38;38;1449484264;2.13683652878;0.7943211793899999;0.06873342394830001;0;True;4;1;77.60341007635164
39;39;1449484264;2.1367995739;0.7942773699760001;0.06881903856989999;0;True;4;1;77.60341007635164
40;40;1449484264;2.1369214057900003;0.794578254223;0.0687365680933;0;True;4;1;77.60341007635164
41;41;1449484264;2.13691306114;0.7942084074019999;0.06871927529569999;0;True;4;1;77.60341007635164
42;42;1449484264;2.13697433472;0.794491887093;0.0685241520405;0;True;4;1;77.60341007635164
43;43;1449484264;2.13689446449;0.794511198997;0.06879048794510001;0;True;4;1;77.60341007635164
44;44;1449484264;2.1369903087599997;0.7943726181980001;0.0685484036803;0;True;4;1;77.60341007635164
45;45;1449484264;2.13677072525;0.7943328619;0.06876118481160001;0;True;4;1;77.60341007635164
46;46;1449484264;2.13685584068;0.7945681214329999;0.06876759231089999;0;True;4;1;77.60341007635164
47;47;1449484264;2.13695287704;0.7944307327269999;0.0686277970672;0;True;4;1;77.60341007635164
48;48;1449484264;2.13687157631;0.794413089752;0.0687820389867;0;True;4;1;77.60341007635164
49;49;1449484264;2.13696813583;0.794534623623;0.0686576366425;0;True;4;1;77.60341007635164
50;50;1449484264;2.13702082634;0.7946857810019999;0.0685794204473;0;True;4;1;77.60341007635164
51;51;1449484264;2.13698029518;0.794483602047;0.0685285106301;0;True;4;1;77.60341007635164
52;52;1449484264;2.1367166042299996;0.794220685959;0.0688490197062;0;True;4;1;77.60341007635164
53;53;1449484264;2.13694810867;0.7942721247669999;0.06852380186319999;0;True;4;1;77.60341007635164
54;54;1449484264;2.13672423363;0.794507563114;0.0689472407103;0;True;4;1;77.60341007635164
55;55;1449484264;2.13685679436;0.7944338917730001;0.06871083378790001;0;True;4;1;77.60341007635164
56;56;1449484264;2.1368746757499997;0.794527232647;0.06874869018789999;0;True;4;1;77.60341007635164
57;57;1449484264;2.13698554039;0.794612467289;0.0685791820288;0;True;4;1;77.60341007635164
58;58;1449484264;2.13697481155;0.7944578528399999;0.06851517409090001;0;True;4;1;77.60341007635164
59;59;1449484264;2.13697361946;0.794640004635;0.0685485377908;0;True;4;1;77.60341007635164
60;60;1449484264;2.1369123458900003;0.794238507748;0.068552993238;0;True;4;1;77.60341007635164
61;61;1449484264;2.13699364662;0.79465341568;0.0685502365232;0;True;4;1;77.60341007635164
62;62;1449484264;2.13694405556;0.794440925121;0.06871199607850001;0;True;4;1;77.60341007635164
63;63;1449484264;2.13686037064;0.794543087482;0.06872980296610001;0;True;4;1;77.60341007635164
64;64;1449484264;2.13689994812;0.794406354427;0.06870880722999999;0;True;4;1;77.60341007635164
65;65;1449484264;2.1368689537;0.7943843007089999;0.0687403678894;0;True;4;1;77.60341007635164
66;66;1449484264;2.13697314262;0.7944659590719999;0.0686646401882;0;True;4;1;77.60341007635164
67;67;1449484264;2.13694620132;0.794215261936;0.0687307193875;0;True;4;1;77.60341007635164
68;68;1449484264;2.13687443733;0.794441819191;0.06875766813760001;0;True;4;1;77.60341007635164
69;69;1449484264;2.1368727684;0.794542074203;0.06868803501130001;0;True;4;1;77.60341007635164
70;70;1449484264;2.13699817657;0.794473409653;0.0685789212584;0;True;4;1;77.60341007635164
71;71;1449484264;2.1370279789;0.794507682323;0.0685306563973;0;True;4;1;77.60341007635164
72;72;1449484264;2.13696670532;0.7944352626800001;0.06865311414;0;True;4;1;77.60341007635164
73;73;1449484264;2.13692593575;0.7944379448890001;0.0687273219228;0;True;4;1;77.60341007635164
74;74;1449484264;2.13689208031;0.7944174408910001;0.0687456950545;0;True;4;1;77.60341007635164
75;75;1449484264;2.13697767258;0.794271945953;0.0685893073678;0;True;4;1;77.60341007635164
76;76;1449484264;2.13692045212;0.7944425344470001;0.0686962604523;0;True;4;1;77.60341007635164
77;77;1449484264;2.1370041370400004;0.794530928135;0.06853757798669999;0;True;4;1;77.60341007635164
78;78;1449484264;2.13691663742;0.794394671917;0.0688071474433;0;True;4;1;77.60341007635164
79;79;1449484264;2.13692998886;0.794426977634;0.06859105825419999;0;True;4;1;77.60341007635164
80;80;1449484264;2.1369240284;0.794403791428;0.06876365840439999;0;True;4;1;77.60341007635164
81;81;1449484264;2.1369054317500003;0.7945072054860001;0.0687302052975;0;True;4;1;77.60341007635164
82;82;1449484264;2.13690519333;0.7945148944850001;0.06871385872359999;0;True;4;1;77.60341007635164
83;83;1449484264;2.13695454597;0.79451751709;0.0686524957418;0;True;4;1;77.60341007635164
84;84;1449484264;2.1369287967700004;0.794420480728;0.068680524826;0;True;4;1;77.60341007635164
85;85;1449484264;2.13685107231;0.7941755652429999;0.0687731429935;0;True;4;1;77.60341007635164
86;86;1449484264;2.13702654839;0.7947236895559999;0.0685583278537;0;True;4;1;77.60341007635164
87;87;1449484264;2.13689780235;0.794376254082;0.06878986954689999;0;True;4;1;77.60341007635164
88;88;1449484264;2.13697433472;0.794348061085;0.068586230278;0;True;4;1;77.60341007635164
89;89;1449484264;2.1368906497999998;0.7944093346600001;0.0687722787261;0;True;4;1;77.60341007635164
90;90;1449484264;2.13696789742;0.794596493244;0.06864322721959999;0;True;4;1;77.60341007635164
91;91;1449484264;2.13689541817;0.794430077076;0.0687618330121;0;True;4;1;77.60341007635164
92;92;1449484264;2.13690328598;0.7944020032879999;0.06874509900810001;0;True;4;1;77.60341007635164
93;93;1449484264;2.1368663311000002;0.7943856716159999;0.0687324330211;0;True;4;1;77.60341007635164
94;94;1449484264;2.13699221611;0.794665038586;0.06873282045130001;0;True;4;1;77.60341007635164
95;95;1449484264;2.13686943054;0.794440925121;0.0687216073275;0;True;4;1;77.60341007635164
96;96;1449484264;2.13689136505;0.794501721859;0.0687527582049;0;True;4;1;77.60341007635164
97;97;1449484264;2.13691091537;0.794466018677;0.0687284171581;0;True;4;1;77.60341007635164
98;98;1449484264;2.13695001602;0.794568777084;0.0687129348516;0;True;4;1;77.60341007635164
99;99;1449484264;2.13691306114;0.794458091259;0.0687643513083;0;True;4;1;77.60341007635164
100;100;1449484264;2.13691163063;0.794506251812;0.0687266290188;0;True;4;1;77.60341007635164
101;101;1449484264;2.1369969844799996;0.794366300106;0.0685077160597;0;True;4;1;77.60341007635164
102;102;1449484264;2.1369073391;0.7944490313529999;0.06868468224999999;0;True;4;1;77.60341007635164
103;103;1449484264;2.13692450523;0.794553399086;0.0686953365803;0;True;4;1;77.60341007635164
104;104;1449484264;2.13694524765;0.794531583786;0.068705521524;0;True;4;1;77.60341007635164
105;105;1449484264;2.13687586784;0.794503748417;0.0686912387609;0;True;4;1;77.60341007635164
106;106;1449484264;2.1369519233700003;0.794455349445;0.0685681477189;0;True;4;1;77.60341007635164
107;107;1449484264;2.13688635826;0.7945796251299999;0.0687096118927;0;True;4;1;77.60341007635164
108;108;1449484264;2.1369361877400004;0.794305205345;0.0685728117824;0;True;4;1;77.60341007635164
109;109;1449484264;2.13700628281;0.79471385479;0.0685106739402;0;True;4;1;77.60341007635164
110;110;1449484264;2.1368470191999998;0.794414460659;0.0687389150262;0;True;4;1;77.60341007635164
111;111;1449484264;2.1369075775099997;0.794492125511;0.06871721148490001;0;True;4;1;77.60341007635164
112;112;1449484264;2.13690948486;0.7946419715880001;0.0686879083514;0;True;4;1;77.60341007635164
113;113;1449484264;2.1368367672;0.7943686842919999;0.0686990693212;0;True;4;1;77.60341007635164
114;114;1449484264;2.1369533538799996;0.794657349586;0.06862937659030001;0;True;4;1;77.60341007635164
115;115;1449484264;2.13691043854;0.794510364532;0.0686666816473;0;True;4;1;77.60341007635164
116;116;1449484264;2.1369206905400002;0.7944629788400001;0.0685826614499;0;True;4;1;77.60341007635164
117;117;1449484264;2.13696551323;0.794537901878;0.068527944386;0;True;4;1;77.60341007635164
118;118;1449484264;2.13691473007;0.7946591377259999;0.0686432942748;0;True;4;1;77.60341007635164
119;119;1449484265;2.1368780136099996;0.7945191860199999;0.0686129555106;1;True;4;1;77.60341007635164
120;120;1449484265;2.13690423965;0.79448479414;0.0685758814216;1;True;4;1;77.60341007635164
121;121;1449484265;2.1368389129599996;0.794361829758;0.06872638314960001;1;True;4;1;77.60341007635164
122;122;1449484265;2.13680124283;0.794414103031;0.0686585307121;1;True;4;1;77.60341007635164
123;123;1449484265;2.13691020012;0.7944924831389999;0.06863932311530001;1;True;4;1;77.60341007635164
124;124;1449484265;2.13669490814;0.794351100922;0.0688280910254;1;True;4;1;77.60341007635164
125;125;1449484265;2.13688778877;0.794428467751;0.0687453076243;1;True;4;1;77.60341007635164
126;126;1449484265;2.1369376182599997;0.794538199902;0.0685674771667;1;True;4;1;77.60341007635164
127;127;1449484265;2.13677239418;0.79444873333;0.06871785968539999;1;True;4;1;77.60341007635164
128;128;1449484265;2.13691306114;0.7944634556769999;0.0685234665871;1;True;4;1;77.60341007635164
129;129;1449484265;2.1368229389200004;0.7944557070730001;0.0686499625444;1;True;4;1;77.60341007635164
130;130;1449484265;2.13683366776;0.7944399714470001;0.0687008425593;1;True;4;1;77.60341007635164
131;131;1449484265;2.13684630394;0.7945325970649999;0.0686867088079;1;True;4;1;77.60341007635164
132;132;1449484265;2.13673353195;0.794169843197;0.068753965199;1;True;4;1;77.60341007635164
133;133;1449484265;2.1368155479400004;0.7943368554119999;0.0686914920807;1;True;4;1;77.60341007635164
134;134;1449484265;2.13690662384;0.7944651842120001;0.0686367303133;1;True;4;1;77.60341007635164
135;135;1449484265;2.13692712784;0.794566094875;0.06856746226549999;1;True;4;1;77.60341007635164
136;136;1449484265;2.1369030475599997;0.79451161623;0.0686463788152;1;True;4;1;77.60341007635164
137;137;1449484265;2.13693237305;0.794470369816;0.0686147287488;1;True;4;1;77.60341007635164
138;138;1449484265;2.13690805435;0.794387996197;0.0685719698668;1;True;4;1;77.60341007635164
139;139;1449484265;2.13692784309;0.7943082451819999;0.06847012042999999;1;True;4;1;77.60341007635164
140;140;1449484265;2.13675785065;0.7942714691159999;0.0687331706285;1;True;4;1;77.60341007635164
141;141;1449484265;2.1368639469099997;0.7942436337469999;0.06857520341869999;1;True;4;1;77.60341007635164
142;142;1449484265;2.13699603081;0.794517874718;0.06844967603680001;1;True;4;1;77.60341007635164
143;143;1449484265;2.13687515259;0.794426202774;0.06865209341049999;1;True;4;1;77.60341007635164
144;144;1449484265;2.13686776161;0.794330298901;0.0686172693968;1;True;4;1;77.60341007635164
145;145;1449484265;2.13672184944;0.7942045331;0.0688136965036;1;True;4;1;77.60341007635164
146;146;1449484265;2.13698792458;0.794509887695;0.06847882270809999;1;True;4;1;77.60341007635164
147;147;1449484265;2.1369137763999997;0.794410526752;0.0686026737094;1;True;4;1;77.60341007635164
148;148;1449484265;2.1368196010599996;0.7943904399869999;0.06869133561850001;1;True;4;1;77.60341007635164
149;149;1449484265;2.13669610023;0.79406774044;0.068827316165;1;True;4;1;77.60341007635164
150;150;1449484265;2.1370003223400005;0.7945106029510001;0.0684807524085;1;True;4;1;77.60341007635164
151;151;1449484265;2.1369206905400002;0.7944354414939999;0.06867644190790001;1;True;4;1;77.60341007635164
152;152;1449484265;2.13689160347;0.794324100018;0.0687572881579;1;True;4;1;77.60341007635164
153;153;1449484265;2.13690948486;0.794453918934;0.0686923936009;1;True;4;1;77.60341007635164
154;154;1449484265;2.1369097232799996;0.794249296188;0.0687425136566;1;True;4;1;77.60341007635164
155;155;1449484265;2.13693666458;0.7944266200069999;0.06870462000369999;1;True;4;1;77.60341007635164
156;156;1449484265;2.13697123528;0.794488549232;0.0686172246933;1;True;4;1;77.60341007635164
157;157;1449484265;2.13696265221;0.794344544411;0.0685994997621;1;True;4;1;77.60341007635164
158;158;1449484265;2.13693785667;0.794272482395;0.06859549880030001;1;True;4;1;77.60341007635164
159;159;1449484265;2.1369812488599997;0.794304430485;0.0685661882162;1;True;4;1;77.60341007635164
160;160;1449484265;2.1369643211400002;0.7945047020909999;0.0687815994024;1;True;4;1;77.60341007635164
161;161;1449484265;2.1369998455;0.794455766678;0.0686240196228;1;True;4;1;77.60341007635164
162;162;1449484265;2.1369566917400005;0.794494211674;0.06868071109059999;1;True;4;1;77.60341007635164
163;163;1449484265;2.1369223594699998;0.794469833374;0.068800330162;1;True;4;1;77.60341007635164
164;164;1449484265;2.13700175285;0.7942675352099999;0.0685843676329;1;True;4;1;77.60341007635164
165;165;1449484265;2.1370227336900003;0.7944875955580001;0.0686127468944;1;True;4;1;77.60341007635164
166;166;1449484265;2.13693356514;0.794413924217;0.0687902569771;1;True;4;1;77.60341007635164
167;167;1449484265;2.136936903;0.794372498989;0.0688062161207;1;True;4;1;77.60341007635164
168;168;1449484265;2.1370041370400004;0.794569253922;0.06873844563960001;1;True;4;1;77.60341007635164
169;169;1449484265;2.13694763184;0.7944292426109999;0.068857088685;1;True;4;1;77.60341007635164
170;170;1449484265;2.13705563545;0.794530034065;0.0686286836863;1;True;4;1;77.60341007635164
171;171;1449484265;2.13692951202;0.794446468353;0.0689135417342;1;True;4;1;77.60341007635164
172;172;1449484265;2.1370267868;0.794506132603;0.0688264369965;1;True;4;1;77.60341007635164
173;173;1449484265;2.1370370388;0.7943446040150001;0.0686151459813;1;True;4;1;77.60341007635164
174;174;1449484265;2.1369614601099998;0.7943170666689999;0.0687891691923;1;True;4;1;77.60341007635164
175;175;1449484265;2.13703417778;0.794528126717;0.0688120946288;1;True;4;1;77.60341007635164
176;176;1449484265;2.1370472908;0.794510304928;0.068705752492;1;True;4;1;77.60341007635164
177;177;1449484265;2.13710808754;0.794713973999;0.06868366897110001;1;True;4;1;77.60341007635164
178;178;1449484265;2.1369931697799998;0.794295907021;0.0687623545527;1;True;4;1;77.60341007635164
179;179;1449484265;2.13696956635;0.794484019279;0.0688351616263;1;True;4;1;77.60341007635164
180;180;1449484265;2.1369895935099996;0.794546604156;0.068843126297;1;True;4;1;77.60341007635164
181;181;1449484265;2.1370294094099997;0.7944651842120001;0.06883241236210001;1;True;4;1;77.60341007635164
182;182;1449484265;2.13700866699;0.7945107817649999;0.0688719376922;1;True;4;1;77.60341007635164
183;183;1449484265;2.1370000839200003;0.7945352196690001;0.06893519312139999;1;True;4;1;77.60341007635164
184;184;1449484265;2.13702130318;0.7945715188979999;0.0688558220863;1;True;4;1;77.60341007635164
185;185;1449484265;2.1369216442099996;0.7945017814640001;0.0688901096582;1;True;4;1;77.60341007635164
186;186;1449484265;2.13702964783;0.794636189938;0.0688444674015;1;True;4;1;77.60341007635164
187;187;1449484265;2.13696241379;0.7945121526719999;0.0688370317221;1;True;4;1;77.60341007635164
188;188;1449484265;2.13692951202;0.794539511204;0.0688612088561;1;True;4;1;77.60341007635164
189;189;1449484265;2.13693976402;0.794534146786;0.0688840895891;1;True;4;1;77.60341007635164
190;190;1449484265;2.13696956635;0.7945515513420001;0.06884690374139998;1;True;4;1;77.60341007635164
191;191;1449484265;2.13707590103;0.794590055943;0.0686412751675;1;True;4;1;77.60341007635164
192;192;1449484265;2.13695049286;0.794467628002;0.0687901377678;1;True;4;1;77.60341007635164
193;193;1449484265;2.13700556755;0.794371783733;0.06863559782510001;1;True;4;1;77.60341007635164
194;194;1449484265;2.13700079918;0.794537007809;0.0687910318375;1;True;4;1;77.60341007635164
195;195;1449484265;2.13700461388;0.794442355633;0.0687503293157;1;True;4;1;77.60341007635164
196;196;1449484265;2.13703012466;0.7945766448970001;0.0685776919127;1;True;4;1;77.60341007635164
197;197;1449484265;2.1370120048500003;0.7945312857629999;0.0685882270336;1;True;4;1;77.60341007635164
198;198;1449484265;2.13693666458;0.7945086956020001;0.0687421113253;1;True;4;1;77.60341007635164
199;199;1449484265;2.13691806793;0.794459044933;0.0688006058335;1;True;4;1;77.60341007635164
200;200;1449484265;2.13692331314;0.794555306435;0.0687534436584;1;True;4;1;77.60341007635164
201;201;1449484265;2.13686442375;0.7944754362109999;0.068693459034;1;True;4;1;77.60341007635164
202;202;1449484265;2.13694024086;0.79476827383;0.06873955577610001;1;True;4;1;77.60341007635164
203;203;1449484265;2.13693237305;0.794494509697;0.06872336566449999;1;True;4;1;77.60341007635164
204;204;1449484265;2.13692831993;0.7942947745319999;0.06858407706019999;1;True;4;1;77.60341007635164
205;205;1449484265;2.13696718216;0.7945517897609999;0.0686913952231;1;True;4;1;77.60341007635164
206;206;1449484265;2.13688540459;0.794464886189;0.0686790347099;1;True;4;1;77.60341007635164
207;207;1449484265;2.13692092896;0.7945109009739999;0.0687126815319;1;True;4;1;77.60341007635164
208;208;1449484265;2.1369738578799997;0.7947115898129999;0.0685805529356;1;True;4;1;77.60341007635164
209;209;1449484265;2.13692760468;0.794443130493;0.0686610043049;1;True;4;1;77.60341007635164
210;210;1449484265;2.13682389259;0.79430770874;0.0687244310975;1;True;4;1;77.60341007635164
211;211;1449484265;2.13699293137;0.794689536095;0.0685264989734;1;True;4;1;77.60341007635164
212;212;1449484265;2.13683795929;0.79450237751;0.068672016263;1;True;4;1;77.60341007635164
213;213;1449484265;2.1369395256;0.794520318508;0.0685169920325;1;True;4;1;77.60341007635164
214;214;1449484265;2.1368386745500003;0.7944229245190001;0.0686446428299;1;True;4;1;77.60341007635164
215;215;1449484265;2.13684129715;0.794665575027;0.0685782060027;1;True;4;1;77.60341007635164
216;216;1449484265;2.13679695129;0.794299006462;0.068687133491;1;True;4;1;77.60341007635164
217;217;1449484265;2.1368215084099997;0.794368565083;0.06861885637040001;1;True;4;1;77.60341007635164
218;218;1449484265;2.1369373798400004;0.7945107221600001;0.0685882344842;1;True;4;1;77.60341007635164
219;219;1449484265;2.13671755791;0.794201731682;0.0687078535557;1;True;4;1;77.60341007635164
220;220;1449484265;2.13691973686;0.7944986820219999;0.0685545578599;1;True;4;1;77.60341007635164
221;221;1449484265;2.13692045212;0.7943183779719999;0.0684119015932;1;True;4;1;77.60341007635164
222;222;1449484265;2.13680815697;0.794377923012;0.0686247497797;1;True;4;1;77.60341007635164
223;223;1449484265;2.13681149483;0.7943283915520001;0.0685383901;1;True;4;1;77.60341007635164
224;224;1449484265;2.1369333267200004;0.794372141361;0.0684240311384;1;True;4;1;77.60341007635164
225;225;1449484265;2.1368622779799997;0.7942681312559999;0.068466797471;1;True;4;1;77.60341007635164
226;226;1449484265;2.13694930077;0.794635057449;0.0683886185288;1;True;4;1;77.60341007635164
227;227;1449484265;2.1368925571400004;0.7943606972689999;0.0684378147125;1;True;4;1;77.60341007635164
228;228;1449484265;2.1368584632900003;0.794487297535;0.0685945898294;1;True;4;1;77.60341007635164
229;229;1449484265;2.1369173526800003;0.79436480999;0.068441323936;1;True;4;1;77.60341007635164
230;230;1449484265;2.13688826561;0.794515311718;0.0685548111796;1;True;4;1;77.60341007635164
231;231;1449484265;2.13686585426;0.794310986996;0.0683727040887;1;True;4;1;77.60341007635164
232;232;1449484265;2.1367623806;0.794289708138;0.0685994625092;1;True;4;1;77.60341007635164
233;233;1449484265;2.13686275482;0.7943664193150001;0.0685756206512;1;True;4;1;77.60341007635164
234;234;1449484265;2.13686108589;0.794450819492;0.0685335323215;1;True;4;1;77.60341007635164
235;235;1449484265;2.136749506;0.7943038940430001;0.0686276331544;1;True;4;1;77.60341007635164
236;236;1449484265;2.1368985176099997;0.7943625450130001;0.0684293583035;1;True;4;1;77.60341007635164
237;237;1449484265;2.1368985176099997;0.794380009174;0.06874167919160001;1;True;4;1;77.60341007635164
238;238;1449484265;2.13691806793;0.7943440675740001;0.0684633105993;1;True;4;1;77.60341007635164
239;239;1449484265;2.1368482112900002;0.794516205788;0.06862648576500001;1;True;4;1;77.60341007635164
240;240;1449484265;2.13694238663;0.7945034503939999;0.0683741420507;1;True;4;1;77.60341007635164
241;241;1449484265;2.13673758507;0.794475018978;0.0686094537377;1;True;4;1;77.60341007635164
242;242;1449484265;2.1367559433000003;0.7942837476729999;0.06873402744530001;1;True;4;1;77.60341007635164
243;243;1449484265;2.13691473007;0.794530212879;0.0685331374407;1;True;4;1;77.60341007635164
244;244;1449484265;2.1369228363;0.7943673729899999;0.06842456758019999;1;True;4;1;77.60341007635164
245;245;1449484265;2.13696265221;0.794672131538;0.0684363692999;1;True;4;1;77.60341007635164
246;246;1449484265;2.13695883751;0.794481098652;0.0684505179524;1;True;4;1;77.60341007635164
247;247;1449484265;2.13691163063;0.7944531440729999;0.0685447752476;1;True;4;1;77.60341007635164
248;248;1449484265;2.1369214057900003;0.794287979603;0.0685454234481;1;True;4;1;77.60341007635164
249;249;1449484265;2.13697552681;0.7944789528849999;0.06845796108249999;1;True;4;1;77.60341007635164
250;250;1449484265;2.1369125843;0.794584393501;0.0687033012509;1;True;4;1;77.60341007635164
251;251;1449484265;2.1367642879499997;0.7944270372390001;0.06878041476010001;1;True;4;1;77.60341007635164
252;252;1449484265;2.13696551323;0.7944783568379999;0.0685119852424;1;True;4;1;77.60341007635164
253;253;1449484265;2.13698744774;0.7946343421940001;0.0685180127621;1;True;4;1;77.60341007635164
254;254;1449484265;2.13683724403;0.794379353523;0.0687331184745;1;True;4;1;77.60341007635164
255;255;1449484265;2.13699603081;0.7946192622179999;0.0685582533479;1;True;4;1;77.60341007635164
256;256;1449484265;2.13685703278;0.794341444969;0.06879714876410001;1;True;4;1;77.60341007635164
257;257;1449484265;2.13687753677;0.794419407845;0.06873865425589999;1;True;4;1;77.60341007635164
258;258;1449484265;2.13695716858;0.79433131218;0.06861250102519999;1;True;4;1;77.60341007635164
259;259;1449484265;2.13682341576;0.79431861639;0.06881512701510001;1;True;4;1;77.60341007635164
260;260;1449484265;2.13687610626;0.7944813966750001;0.0688065364957;1;True;4;1;77.60341007635164
261;261;1449484265;2.13694763184;0.7944000959399999;0.06878029555080001;1;True;4;1;77.60341007635164
262;262;1449484265;2.1369059085799997;0.794456481934;0.0688370317221;1;True;4;1;77.60341007635164
263;263;1449484265;2.13694548607;0.7944881916050001;0.0688694939017;1;True;4;1;77.60341007635164
264;264;1449484265;2.13695454597;0.7945297956470001;0.068840444088;1;True;4;1;77.60341007635164
265;265;1449484265;2.13702821732;0.794527411461;0.06866273283959999;1;True;4;1;77.60341007635164
266;266;1449484265;2.1370663642900003;0.794599950314;0.06862797588109999;1;True;4;1;77.60341007635164
267;267;1449484265;2.13693284988;0.794475078583;0.0688631683588;1;True;4;1;77.60341007635164
268;268;1449484265;2.13698744774;0.7944754362109999;0.0688207149506;1;True;4;1;77.60341007635164
269;269;1449484265;2.13699913025;0.7945200800900001;0.06884861737489999;1;True;4;1;77.60341007635164
270;270;1449484265;2.1370360851299997;0.7945713996889999;0.0687245875597;1;True;4;1;77.60341007635164
271;271;1449484265;2.13698339462;0.794515430927;0.068809479475;1;True;4;1;77.60341007635164
272;272;1449484265;2.13708329201;0.794437110424;0.0686770826578;1;True;4;1;77.60341007635164
273;273;1449484265;2.13700985909;0.794552862644;0.0688540786505;1;True;4;1;77.60341007635164
274;274;1449484265;2.13700246811;0.7944972515109999;0.0688401833177;1;True;4;1;77.60341007635164
275;275;1449484265;2.13708424568;0.794782161713;0.0686613842845;1;True;4;1;77.60341007635164
276;276;1449484265;2.13700199127;0.7945255041120001;0.06882685422899999;1;True;4;1;77.60341007635164
277;277;1449484265;2.13701868057;0.794611990452;0.068854175508;1;True;4;1;77.60341007635164
278;278;1449484265;2.13704991341;0.7947089076039999;0.06881878525019999;1;True;4;1;77.60341007635164
279;279;1449484265;2.13701057434;0.7945488095280001;0.0688451901078;1;True;4;1;77.60341007635164
280;280;1449484265;2.1369519233700003;0.79448056221;0.06888661533589999;1;True;4;1;77.60341007635164
281;281;1449484265;2.13710713387;0.794705629349;0.0686712861061;1;True;4;1;77.60341007635164
282;282;1449484265;2.13695788383;0.794468402863;0.0688878521323;1;True;4;1;77.60341007635164
283;283;1449484265;2.13708806038;0.794740557671;0.0687037706375;1;True;4;1;77.60341007635164
284;284;1449484265;2.13700866699;0.794528365135;0.06887648999689999;1;True;4;1;77.60341007635164
285;285;1449484265;2.13699388504;0.79449814558;0.06882515549660001;1;True;4;1;77.60341007635164
286;286;1449484265;2.13693642616;0.794503509998;0.0688354298472;1;True;4;1;77.60341007635164
287;287;1449484265;2.1370275020599996;0.794614613056;0.06874817609789999;1;True;4;1;77.60341007635164
288;288;1449484265;2.1369214057900003;0.7944657802580001;0.0688320398331;1;True;4;1;77.60341007635164
289;289;1449484265;2.13691473007;0.794473111629;0.06887109577660001;1;True;4;1;77.60341007635164
290;290;1449484265;2.13705086708;0.794709265232;0.0686641260982;1;True;4;1;77.60341007635164
291;291;1449484265;2.13696551323;0.7944625616069999;0.0687869265676;1;True;4;1;77.60341007635164
292;292;1449484265;2.13702297211;0.7943983078;0.06876012682910002;1;True;4;1;77.60341007635164
293;293;1449484265;2.13690662384;0.7946155071259999;0.06879321485760001;1;True;4;1;77.60341007635164
294;294;1449484265;2.13688087463;0.7944363355640001;0.06880252808330001;1;True;4;1;77.60341007635164
295;295;1449484265;2.13697314262;0.794475734234;0.06870020926;1;True;4;1;77.60341007635164
296;296;1449484265;2.13706207275;0.794634401798;0.0686005651951;1;True;4;1;77.60341007635164
297;297;1449484265;2.13699626923;0.794518172741;0.0687801614404;1;True;4;1;77.60341007635164
298;298;1449484265;2.13687849045;0.794506847858;0.06878834217789999;1;True;4;1;77.60341007635164
299;299;1449484265;2.13689041138;0.794397056103;0.0688608139753;1;True;4;1;77.60341007635164
300;300;1449484265;2.13696479797;0.794326424599;0.0686438605189;1;True;4;1;77.60341007635164
301;301;1449484265;2.13686943054;0.7944195270540001;0.0687894076109;1;True;4;1;77.60341007635164
302;302;1449484265;2.13686823845;0.794436097145;0.0687143951654;1;True;4;1;77.60341007635164
303;303;1449484265;2.1369612216900005;0.794398486614;0.0686937347054;1;True;4;1;77.60341007635164
304;304;1449484265;2.1370146274599997;0.794463813305;0.0685624033213;1;True;4;1;77.60341007635164
305;305;1449484265;2.1368489265400004;0.794379353523;0.068748600781;1;True;4;1;77.60341007635164
306;306;1449484265;2.1369433403;0.7943855524060001;0.0687218308449;1;True;4;1;77.60341007635164
307;307;1449484265;2.13694620132;0.794321417809;0.068588770926;1;True;4;1;77.60341007635164
308;308;1449484265;2.1369388103499998;0.7944333553309999;0.0685892626643;1;True;4;1;77.60341007635164
309;309;1449484265;2.13691592216;0.794422626495;0.0686764717102;1;True;4;1;77.60341007635164
310;310;1449484265;2.13689088821;0.79441845417;0.0686698928475;1;True;4;1;77.60341007635164
311;311;1449484265;2.13695955276;0.794366121292;0.0685159638524;1;True;4;1;77.60341007635164
312;312;1449484265;2.13687539101;0.7944146394730001;0.0687112882733;1;True;4;1;77.60341007635164
313;313;1449484265;2.1370081901599995;0.794627904892;0.0684743151069;1;True;4;1;77.60341007635164
314;314;1449484265;2.13691568375;0.7944841980930001;0.06866136193280001;1;True;4;1;77.60341007635164
315;315;1449484265;2.13689994812;0.79443782568;0.06855714321140001;1;True;4;1;77.60341007635164
316;316;1449484265;2.1368253231;0.794340670109;0.0686941966414;1;True;4;1;77.60341007635164
317;317;1449484265;2.1368215084099997;0.79433786869;0.0686635822058;1;True;4;1;77.60341007635164
318;318;1449484265;2.1368038654299997;0.794283211231;0.0686498135328;1;True;4;1;77.60341007635164
319;319;1449484265;2.13694190979;0.794357419014;0.06846417486669999;1;True;4;1;77.60341007635164
320;320;1449484265;2.1368985176099997;0.7944521903990001;0.06862953305240001;1;True;4;1;77.60341007635164
321;321;1449484265;2.1368937492400004;0.7944537401199999;0.06867296248669999;1;True;4;1;77.60341007635164
322;322;1449484265;2.13684439659;0.79441845417;0.0686114281416;1;True;4;1;77.60341007635164
323;323;1449484265;2.13672041893;0.794234514236;0.0687047243118;1;True;4;1;77.60341007635164
324;324;1449484265;2.13690328598;0.794473111629;0.0686028599739;1;True;4;1;77.60341007635164
325;325;1449484265;2.13692259789;0.794517338276;0.0685723051429;1;True;4;1;77.60341007635164
326;326;1449484265;2.1369128227200003;0.794428706169;0.06846489757299999;1;True;4;1;77.60341007635164
327;327;1449484265;2.13686084747;0.7943822145460001;0.0684448480606;1;True;4;1;77.60341007635164
328;328;1449484265;2.1368703842200003;0.7943370938300001;0.0685437172651;1;True;4;1;77.60341007635164
329;329;1449484265;2.1368210315700003;0.794341444969;0.0686096251011;1;True;4;1;77.60341007635164
330;330;1449484265;2.1368389129599996;0.794602394104;0.0685953348875;1;True;4;1;77.60341007635164
331;331;1449484265;2.13690662384;0.794523358345;0.0685261711478;1;True;4;1;77.60341007635164
332;332;1449484265;2.1369559764900004;0.794503509998;0.0683731585741;1;True;4;1;77.60341007635164
333;333;1449484265;2.13690781593;0.7945351004600001;0.0685569345951;1;True;4;1;77.60341007635164
334;334;1449484265;2.13690805435;0.7944558262829999;0.0684808194637;1;True;4;1;77.60341007635164
335;335;1449484265;2.1369326114700002;0.794655203819;0.0684012845159;1;True;4;1;77.60341007635164
336;336;1449484265;2.13689160347;0.794371247292;0.0683972388506;1;True;4;1;77.60341007635164
337;337;1449484265;2.13686847687;0.794429421425;0.0686094537377;1;True;4;1;77.60341007635164
338;338;1449484265;2.1368923187299997;0.794441878796;0.0684920400381;1;True;4;1;77.60341007635164
339;339;1449484265;2.13694834709;0.794486522675;0.0683854296803;1;True;4;1;77.60341007635164
340;340;1449484265;2.13682341576;0.794443190098;0.0686412900686;1;True;4;1;77.60341007635164
341;341;1449484265;2.13673758507;0.794282376766;0.0686569064856;1;True;4;1;77.60341007635164
342;342;1449484265;2.13691949844;0.79450494051;0.0683899074793;1;True;4;1;77.60341007635164
343;343;1449484265;2.1368355751;0.794440865517;0.0685795545578;1;True;4;1;77.60341007635164
344;344;1449484265;2.13690853119;0.794467151165;0.06861858814949999;1;True;4;1;77.60341007635164
345;345;1449484265;2.13683342934;0.794462800026;0.0686216801405;1;True;4;1;77.60341007635164
346;346;1449484265;2.13688611984;0.794430375099;0.06850329786539999;1;True;4;1;77.60341007635164
347;347;1449484265;2.13678216934;0.794283807278;0.0687087625265;1;True;4;1;77.60341007635164
348;348;1449484265;2.13681173325;0.794549047947;0.0687664151192;1;True;4;1;77.60341007635164
349;349;1449484265;2.1368162632;0.794227421284;0.06860108673569999;1;True;4;1;77.60341007635164
350;350;1449484265;2.13689446449;0.79439073801;0.0685196071863;1;True;4;1;77.60341007635164
351;351;1449484265;2.1368923187299997;0.794459223747;0.0686243698001;1;True;4;1;77.60341007635164
352;352;1449484265;2.13688993454;0.794509232044;0.0685507506132;1;True;4;1;77.60341007635164
353;353;1449484265;2.13685131073;0.7944970726970001;0.06874600797889999;1;True;4;1;77.60341007635164
354;354;1449484265;2.13688540459;0.79446965456;0.06866728514430001;1;True;4;1;77.60341007635164
355;355;1449484265;2.13696360588;0.794491529465;0.06848166137930001;1;True;4;1;77.60341007635164
356;356;1449484265;2.13673973083;0.794309794903;0.0687558427453;1;True;4;1;77.60341007635164
357;357;1449484265;2.13693571091;0.794500410557;0.0686442553997;1;True;4;1;77.60341007635164
358;358;1449484266;2.13674974442;0.7943004965780001;0.0688009038568;2;True;4;1;77.60341007635164
359;359;1449484266;2.13692307472;0.794506728649;0.06870751827959999;2;True;4;1;77.60341007635164
360;360;1449484266;2.13684248924;0.7944806814190001;0.06874378770589999;2;True;4;1;77.60341007635164
361;361;1449484266;2.13701081276;0.794646918774;0.0685030519962;2;True;4;1;77.60341007635164
362;362;1449484266;2.1368572711900002;0.7943329811100001;0.068705432117;2;True;4;1;77.60341007635164
363;363;1449484266;2.1369123458900003;0.7943654060359999;0.0687083303928;2;True;4;1;77.60341007635164
364;364;1449484266;2.1368701458;0.7944514751430001;0.06876654922960002;2;True;4;1;77.60341007635164
365;365;1449484266;2.13691091537;0.7945019602779999;0.0687439888716;2;True;4;1;77.60341007635164
366;366;1449484266;2.1370370388;0.7947114109990001;0.0685472860932;2;True;4;1;77.60341007635164
367;367;1449484266;2.13685917854;0.794475197792;0.0687976330519;2;True;4;1;77.60341007635164
368;368;1449484266;2.13687181473;0.7944524288179999;0.06880318373439999;2;True;4;1;77.60341007635164
369;369;1449484266;2.1368651390099997;0.794334352016;0.068836376071;2;True;4;1;77.60341007635164
370;370;1449484266;2.13686013222;0.7944273352619999;0.06876501441;2;True;4;1;77.60341007635164
371;371;1449484266;2.1370079517400002;0.79452753067;0.068656489253;2;True;4;1;77.60341007635164
372;372;1449484266;2.136906147;0.794484496117;0.0688386410475;2;True;4;1;77.60341007635164
373;373;1449484266;2.13684535027;0.7944472432140001;0.0688812434673;2;True;4;1;77.60341007635164
374;374;1449484266;2.13691139221;0.7943938970569999;0.06878646463160001;2;True;4;1;77.60341007635164
375;375;1449484266;2.1369421482099997;0.794482290745;0.0688256025314;2;True;4;1;77.60341007635164
376;376;1449484266;2.13692331314;0.794618427753;0.06881497055289999;2;True;4;1;77.60341007635164
377;377;1449484266;2.1368906497999998;0.794427275658;0.0688073039055;2;True;4;1;77.60341007635164
378;378;1449484266;2.13701033592;0.7945576310160001;0.0687618479133;2;True;4;1;77.60341007635164
379;379;1449484266;2.13693642616;0.794473350048;0.06887649744749999;2;True;4;1;77.60341007635164
380;380;1449484266;2.13698506355;0.7945703268050001;0.06875102221969999;2;True;4;1;77.60341007635164
381;381;1449484266;2.13694262505;0.794506967068;0.0687857866287;2;True;4;1;77.60341007635164
382;382;1449484266;2.13704967499;0.79467433691;0.0687669217587;2;True;4;1;77.60341007635164
383;383;1449484266;2.1367526054400003;0.794319391251;0.0689179897308;2;True;4;1;77.60341007635164
384;384;1449484266;2.13692522049;0.794817090034;0.0687501505017;2;True;4;1;77.60341007635164
385;385;1449484266;2.1369490623500003;0.794462203979;0.06881147623060001;2;True;4;1;77.60341007635164
386;386;1449484266;2.13691449165;0.794475197792;0.06891506165269999;2;True;4;1;77.60341007635164
387;387;1449484266;2.13695073128;0.794468343258;0.0688509792089;2;True;4;1;77.60341007635164
388;388;1449484266;2.1368925571400004;0.7943117618559999;0.0688929855824;2;True;4;1;77.60341007635164
389;389;1449484266;2.13696718216;0.794399440289;0.0687894374132;2;True;4;1;77.60341007635164
390;390;1449484266;2.13688802719;0.794423997402;0.0688629448414;2;True;4;1;77.60341007635164
391;391;1449484266;2.13701915741;0.794555366039;0.068743608892;2;True;4;1;77.60341007635164
392;392;1449484266;2.1369805336;0.7944862842560001;0.0687325820327;2;True;4;1;77.60341007635164
393;393;1449484266;2.13688588142;0.7943341732029999;0.0688194260001;2;True;4;1;77.60341007635164
394;394;1449484266;2.1369216442099996;0.794449210167;0.0688430741429;2;True;4;1;77.60341007635164
395;395;1449484266;2.13691139221;0.79439675808;0.0687371641397;2;True;4;1;77.60341007635164
396;396;1449484266;2.13695859909;0.794452607632;0.06879880279299999;2;True;4;1;77.60341007635164
397;397;1449484266;2.13699746132;0.794528543949;0.0687993988395;2;True;4;1;77.60341007635164
398;398;1449484266;2.13696289062;0.794497489929;0.06880652904510001;2;True;4;1;77.60341007635164
399;399;1449484266;2.13689684868;0.7943986058239999;0.0688231959939;2;True;4;1;77.60341007635164
400;400;1449484266;2.13700151443;0.794523239136;0.0687243118882;2;True;4;1;77.60341007635164
401;401;1449484266;2.1369562149;0.794322013855;0.0686989501119;2;True;4;1;77.60341007635164
402;402;1449484266;2.13684988022;0.7943466901780001;0.0688133686781;2;True;4;1;77.60341007635164
403;403;1449484266;2.13692450523;0.794456124306;0.0688183754683;2;True;4;1;77.60341007635164
404;404;1449484266;2.13698482513;0.7945624589920001;0.0687417909503;2;True;4;1;77.60341007635164
405;405;1449484266;2.13695764542;0.794496834278;0.06876938045020001;2;True;4;1;77.60341007635164
406;406;1449484266;2.1368896961200003;0.794536054134;0.0688585415483;2;True;4;1;77.60341007635164
407;407;1449484266;2.13687992096;0.7944394946100001;0.06879349052910001;2;True;4;1;77.60341007635164
408;408;1449484266;2.13689947128;0.794417262077;0.0687308982015;2;True;4;1;77.60341007635164
409;409;1449484266;2.1369178295099998;0.794404983521;0.0686741247773;2;True;4;1;77.60341007635164
410;410;1449484266;2.13693976402;0.7945760488510001;0.0687758699059;2;True;4;1;77.60341007635164
411;411;1449484266;2.13687086105;0.794415175915;0.0687772929668;2;True;4;1;77.60341007635164
412;412;1449484266;2.13695955276;0.7944740653039999;0.0686895474792;2;True;4;1;77.60341007635164
413;413;1449484266;2.13688540459;0.794474601746;0.0687756165862;2;True;4;1;77.60341007635164
414;414;1449484266;2.13693070412;0.7943781614300001;0.06873655319210001;2;True;4;1;77.60341007635164
415;415;1449484266;2.1370000839200003;0.7944556474690001;0.068560756743;2;True;4;1;77.60341007635164
416;416;1449484266;2.1367845535299996;0.7942346334460001;0.06877764314410001;2;True;4;1;77.60341007635164
417;417;1449484266;2.1368522644;0.794390916824;0.0687120631337;2;True;4;1;77.60341007635164
418;418;1449484266;2.1368598938;0.794401347637;0.0687156170607;2;True;4;1;77.60341007635164
419;419;1449484266;2.13685131073;0.7944952845569999;0.0687089562416;2;True;4;1;77.60341007635164
420;420;1449484266;2.1369450092299997;0.794316709042;0.0685236155987;2;True;4;1;77.60341007635164
421;421;1449484266;2.1369020938900003;0.7944822311399999;0.068705111742;2;True;4;1;77.60341007635164
422;422;1449484266;2.13676786423;0.794237971306;0.0687495991588;2;True;4;1;77.60341007635164
423;423;1449484266;2.13697195053;0.794612407684;0.0685376375914;2;True;4;1;77.60341007635164
424;424;1449484266;2.13696408272;0.7943168878560001;0.0685200020671;2;True;4;1;77.60341007635164
425;425;1449484266;2.13680005074;0.7945289015770001;0.068753182888;2;True;4;1;77.60341007635164
426;426;1449484266;2.13691854477;0.7943421602249999;0.0685233697295;2;True;4;1;77.60341007635164
427;427;1449484266;2.13687682152;0.7944324612620001;0.0686539560556;2;True;4;1;77.60341007635164
428;428;1449484266;2.13692116737;0.794513642788;0.0686288923025;2;True;4;1;77.60341007635164
429;429;1449484266;2.1368680000299998;0.7943652272220001;0.068615205586;2;True;4;1;77.60341007635164
430;430;1449484266;2.13676929474;0.7942999005320001;0.0686485394835;2;True;4;1;77.60341007635164
431;431;1449484266;2.13678407669;0.7942992448810001;0.0687204822898;2;True;4;1;77.60341007635164
432;432;1449484266;2.13692378998;0.794456124306;0.0686072856188;2;True;4;1;77.60341007635164
433;433;1449484266;2.13700270653;0.794504344463;0.068418584764;2;True;4;1;77.60341007635164
434;434;1449484266;2.13694405556;0.7946113944050001;0.06841758638619999;2;True;4;1;77.60341007635164
435;435;1449484266;2.13693070412;0.794355213642;0.0684281587601;2;True;4;1;77.60341007635164
436;436;1449484266;2.13692951202;0.794447004795;0.06851233541969999;2;True;4;1;77.60341007635164
437;437;1449484266;2.13667845726;0.7941803932189999;0.06882652640339999;2;True;4;1;77.60341007635164
438;438;1449484266;2.1368560790999998;0.7944198250769999;0.0685804486275;2;True;4;1;77.60341007635164
439;439;1449484266;2.13672542572;0.7946150302889999;0.0686132311821;2;True;4;1;77.60341007635164
440;440;1449484266;2.1367468833900003;0.794261813164;0.0687106996775;2;True;4;1;77.60341007635164
441;441;1449484266;2.1369333267200004;0.794455528259;0.06851534545419999;2;True;4;1;77.60341007635164
442;442;1449484266;2.1367845535299996;0.7942389249799999;0.0686424896121;2;True;4;1;77.60341007635164
443;443;1449484266;2.1369073391;0.794483721256;0.0684852451086;2;True;4;1;77.60341007635164
444;444;1449484266;2.13684415817;0.794371843338;0.06858296692369999;2;True;4;1;77.60341007635164
445;445;1449484266;2.13681387901;0.794396162033;0.0686949715018;2;True;4;1;77.60341007635164
446;446;1449484266;2.13697528839;0.7944697737690001;0.0684437230229;2;True;4;1;77.60341007635164
447;447;1449484266;2.1368486881299997;0.7943061590189999;0.0685577988625;2;True;4;1;77.60341007635164
448;448;1449484266;2.13687682152;0.794360339642;0.0687824860215;2;True;4;1;77.60341007635164
449;449;1449484266;2.1369228363;0.7945371866230001;0.0685546398163;2;True;4;1;77.60341007635164
450;450;1449484266;2.13692831993;0.794533252716;0.0686366409063;2;True;4;1;77.60341007635164
451;451;1449484266;2.1368193626400003;0.794347047806;0.0686506330967;2;True;4;1;77.60341007635164
452;452;1449484266;2.1368482112900002;0.7944467663760001;0.0686447322369;2;True;4;1;77.60341007635164
453;453;1449484266;2.13698410988;0.794694006443;0.068502664566;2;True;4;1;77.60341007635164
454;454;1449484266;2.13691091537;0.794497907162;0.0685623586178;2;True;4;1;77.60341007635164
455;455;1449484266;2.13688802719;0.7944338917730001;0.0686190873384;2;True;4;1;77.60341007635164
456;456;1449484266;2.1369342803999998;0.794676542282;0.0685625970364;2;True;4;1;77.60341007635164
457;457;1449484266;2.13692188263;0.7945134043690001;0.0686825215816;2;True;4;1;77.60341007635164
458;458;1449484266;2.1368937492400004;0.794571459293;0.06873288005589999;2;True;4;1;77.60341007635164
459;459;1449484266;2.13678264618;0.794265985489;0.06872632354500001;2;True;4;1;77.60341007635164
460;460;1449484266;2.13697576523;0.794675350189;0.0686413943768;2;True;4;1;77.60341007635164
461;461;1449484266;2.13688349724;0.7944556474690001;0.0687298551202;2;True;4;1;77.60341007635164
462;462;1449484266;2.13691306114;0.7945104837420001;0.068724013865;2;True;4;1;77.60341007635164
463;463;1449484266;2.13700485229;0.7947149872779999;0.0684987530112;2;True;4;1;77.60341007635164
464;464;1449484266;2.13695764542;0.794719457626;0.06859880685809999;2;True;4;1;77.60341007635164
465;465;1449484266;2.13702297211;0.794668614864;0.06850582361219999;2;True;4;1;77.60341007635164
466;466;1449484266;2.1368625164;0.7944556474690001;0.0686774998903;2;True;4;1;77.60341007635164
467;467;1449484266;2.1368496418;0.794366836548;0.0687523111701;2;True;4;1;77.60341007635164
468;468;1449484266;2.13687586784;0.794468522072;0.0687163174152;2;True;4;1;77.60341007635164
469;469;1449484266;2.13684988022;0.794480741024;0.0687462761998;2;True;4;1;77.60341007635164
470;470;1449484266;2.13691544533;0.7944814562800001;0.0687042847276;2;True;4;1;77.60341007635164
471;471;1449484266;2.1369562149;0.7946088314059999;0.0686724111438;2;True;4;1;77.60341007635164
472;472;1449484266;2.13680887222;0.794596970081;0.06882118433710001;2;True;4;1;77.60341007635164
473;473;1449484266;2.13697743416;0.794491112232;0.0686699599028;2;True;4;1;77.60341007635164
474;474;1449484266;2.13698768616;0.794522762299;0.0685991048813;2;True;4;1;77.60341007635164
475;475;1449484266;2.13688468933;0.794438898563;0.06876027584080001;2;True;4;1;77.60341007635164
476;476;1449484266;2.13695311546;0.794712126255;0.0687140896916;2;True;4;1;77.60341007635164
477;477;1449484266;2.13695144653;0.79452252388;0.0686196014285;2;True;4;1;77.60341007635164
478;478;1449484266;2.13686299324;0.7944513559340001;0.0687076821923;2;True;4;1;77.60341007635164
479;479;1449484266;2.13696479797;0.794541835785;0.06876624375580001;2;True;4;1;77.60341007635164
480;480;1449484266;2.13689303398;0.794518709183;0.06879714876410001;2;True;4;1;77.60341007635164
481;481;1449484266;2.13690257072;0.794466018677;0.06872320175169999;2;True;4;1;77.60341007635164
482;482;1449484266;2.1369745731400003;0.7945091724400001;0.0687345638871;2;True;4;1;77.60341007635164
483;483;1449484266;2.13679218292;0.7945488691329999;0.0687929093838;2;True;4;1;77.60341007635164
484;484;1449484266;2.1367905139900003;0.7944909930230001;0.068768799305;2;True;4;1;77.60341007635164
485;485;1449484266;2.13691711426;0.7944957613950001;0.0688104629517;2;True;4;1;77.60341007635164
486;486;1449484266;2.13694620132;0.7944753766060001;0.068665549159;2;True;4;1;77.60341007635164
487;487;1449484266;2.1369433403;0.794304192066;0.0686102509499;2;True;4;1;77.60341007635164
488;488;1449484266;2.13698625565;0.794428229332;0.0686021894217;2;True;4;1;77.60341007635164
489;489;1449484266;2.1368889808700002;0.794413268566;0.06876568496230001;2;True;4;1;77.60341007635164
490;490;1449484266;2.1368706226299996;0.794436872005;0.0688094496727;2;True;4;1;77.60341007635164
491;491;1449484266;2.13696241379;0.794486939907;0.06860373914239999;2;True;4;1;77.60341007635164
492;492;1449484266;2.13697719574;0.7945314049719999;0.06874635815619999;2;True;4;1;77.60341007635164
493;493;1449484266;2.13691616058;0.794415414333;0.0687285959721;2;True;4;1;77.60341007635164
494;494;1449484266;2.13693356514;0.7943950295450001;0.068733625114;2;True;4;1;77.60341007635164
495;495;1449484266;2.1369798183400004;0.7946248650550001;0.0687150508165;2;True;4;1;77.60341007635164
496;496;1449484266;2.1369376182599997;0.794431209564;0.0687070041895;2;True;4;1;77.60341007635164
497;497;1449484266;2.13699221611;0.794376075268;0.0685657933354;2;True;4;1;77.60341007635164
498;498;1449484266;2.1369333267200004;0.794452905655;0.0687636211514;2;True;4;1;77.60341007635164
499;499;1449484266;2.1369688510900002;0.794363856316;0.0686327219009;2;True;4;1;77.60341007635164
500;500;1449484266;2.1366341114;0.794174909592;0.06894350796939999;2;True;4;1;77.60341007635164
501;501;1449484266;2.1369738578799997;0.7945317626;0.0686462447047;2;True;4;1;77.60341007635164
502;502;1449484266;2.13689732552;0.794466257095;0.06879199296239999;2;True;4;1;77.60341007635164
503;503;1449484266;2.13690471649;0.7944639325139999;0.06877897679810001;2;True;4;1;77.60341007635164
504;504;1449484266;2.13701915741;0.7946515679359999;0.0685722455382;2;True;4;1;77.60341007635164
505;505;1449484266;2.1369740963;0.7946209311489999;0.0686220228672;2;True;4;1;77.60341007635164
506;506;1449484266;2.13687157631;0.7943688035009999;0.06879375875;2;True;4;1;77.60341007635164
507;507;1449484266;2.13694119453;0.7944276332860001;0.06861909478900001;2;True;4;1;77.60341007635164
508;508;1449484266;2.1367964744599997;0.794454932213;0.0688078328967;2;True;4;1;77.60341007635164
509;509;1449484266;2.1369450092299997;0.7944774031640001;0.0685906559229;2;True;4;1;77.60341007635164
510;510;1449484266;2.1367535591099998;0.79421120882;0.06883218884469999;2;True;4;1;77.60341007635164
511;511;1449484266;2.1368229389200004;0.794345200062;0.0687667056918;2;True;4;1;77.60341007635164
512;512;1449484266;2.13677144051;0.794246375561;0.0687425285578;2;True;4;1;77.60341007635164
513;513;1449484266;2.13699126244;0.7944951057430001;0.0685043111444;2;True;4;1;77.60341007635164
514;514;1449484266;2.13679766655;0.7941735982889999;0.0687755569816;2;True;4;1;77.60341007635164
515;515;1449484266;2.13684773445;0.794535338879;0.0686995610595;2;True;4;1;77.60341007635164
516;516;1449484266;2.1368918418900003;0.794480741024;0.06870613992209999;2;True;4;1;77.60341007635164
517;517;1449484266;2.13689947128;0.794433474541;0.06872303783889999;2;True;4;1;77.60341007635164
518;518;1449484266;2.13691520691;0.7944347262379999;0.068737052381;2;True;4;1;77.60341007635164
519;519;1449484266;2.1368689537;0.7944951057430001;0.06873940676450001;2;True;4;1;77.60341007635164
520;520;1449484266;2.1366891861000004;0.7943503856659999;0.06882473081349999;2;True;4;1;77.60341007635164
521;521;1449484266;2.13688445091;0.794313549995;0.0686416700482;2;True;4;1;77.60341007635164
522;522;1449484266;2.136977911;0.79446208477;0.0685261934996;2;True;4;1;77.60341007635164
523;523;1449484266;2.1369128227200003;0.794551253319;0.0687148794532;2;True;4;1;77.60341007635164
524;524;1449484266;2.13691616058;0.7944453954699999;0.0686518996954;2;True;4;1;77.60341007635164
525;525;1449484266;2.13696360588;0.794457554817;0.0685242041945;2;True;4;1;77.60341007635164
526;526;1449484266;2.13698387146;0.794625639915;0.0685461908579;2;True;4;1;77.60341007635164
527;527;1449484266;2.1370043754599997;0.794517040253;0.06847865879540001;2;True;4;1;77.60341007635164
528;528;1449484266;2.1369347572299997;0.794372141361;0.0686095058918;2;True;4;1;77.60341007635164
529;529;1449484266;2.1368181705500002;0.7943116426469999;0.0687643438578;2;True;4;1;77.60341007635164
530;530;1449484266;2.1368911266299997;0.79419875145;0.0686759203672;2;True;4;1;77.60341007635164
531;531;1449484266;2.1368503570599997;0.794372558594;0.06872171163560001;2;True;4;1;77.60341007635164
532;532;1449484266;2.13686108589;0.7943686842919999;0.0687123686075;2;True;4;1;77.60341007635164
533;533;1449484266;2.1369087696099998;0.794257700443;0.0686196014285;2;True;4;1;77.60341007635164
534;534;1449484266;2.13686704636;0.7943978309630001;0.06869611889119999;2;True;4;1;77.60341007635164
535;535;1449484266;2.13701438904;0.794509112835;0.0684675350785;2;True;4;1;77.60341007635164
536;536;1449484266;2.1367852687799997;0.794353544712;0.0686926990747;2;True;4;1;77.60341007635164
537;537;1449484266;2.1368732452400003;0.794452726841;0.0687653794885;2;True;4;1;77.60341007635164
538;538;1449484266;2.1368663311000002;0.7943707108499999;0.0687608718872;2;True;4;1;77.60341007635164
539;539;1449484266;2.13691592216;0.7944055199619999;0.06866732984780001;2;True;4;1;77.60341007635164
540;540;1449484266;2.13691544533;0.794432163239;0.0686758980155;2;True;4;1;77.60341007635164
541;541;1449484266;2.1369836330400003;0.7943530678749999;0.06849446147680001;2;True;4;1;77.60341007635164
542;542;1449484266;2.1368408203099998;0.794326603413;0.0686852484941;2;True;4;1;77.60341007635164
543;543;1449484266;2.13695883751;0.794549882412;0.0686912164092;2;True;4;1;77.60341007635164
544;544;1449484266;2.1369512081099997;0.794335126877;0.0685375481844;2;True;4;1;77.60341007635164
545;545;1449484266;2.1369564533200003;0.7944861650470001;0.0687175244093;2;True;4;1;77.60341007635164
546;546;1449484266;2.13687682152;0.7944224476809999;0.0686938837171;2;True;4;1;77.60341007635164
547;547;1449484266;2.13680958748;0.794446885586;0.0687121972442;2;True;4;1;77.60341007635164
548;548;1449484266;2.1368637085;0.794459044933;0.0687695667148;2;True;4;1;77.60341007635164
549;549;1449484266;2.13692951202;0.794549882412;0.0687092244625;2;True;4;1;77.60341007635164
550;550;1449484266;2.1368594169599997;0.794364333153;0.0687877982855;2;True;4;1;77.60341007635164
551;551;1449484266;2.13699007034;0.794515252113;0.06855043768880001;2;True;4;1;77.60341007635164
552;552;1449484266;2.1369342803999998;0.7945525050159999;0.06876389682289999;2;True;4;1;77.60341007635164
553;553;1449484266;2.13691878319;0.794525325298;0.06871569156650001;2;True;4;1;77.60341007635164
554;554;1449484266;2.13693594933;0.794546961784;0.068708948791;2;True;4;1;77.60341007635164
555;555;1449484266;2.13695859909;0.79435312748;0.0685896500945;2;True;4;1;77.60341007635164
556;556;1449484266;2.13700270653;0.794702112675;0.0685910657048;2;True;4;1;77.60341007635164
557;557;1449484266;2.13690853119;0.794385492802;0.0687196329236;2;True;4;1;77.60341007635164
558;558;1449484266;2.1369969844799996;0.7945808172229999;0.0686791911721;2;True;4;1;77.60341007635164
559;559;1449484266;2.1370320320099996;0.794738948345;0.0685847327113;2;True;4;1;77.60341007635164
560;560;1449484266;2.13689017296;0.7944720387459999;0.0687477588654;2;True;4;1;77.60341007635164
561;561;1449484266;2.13697147369;0.7945340275759999;0.068706408143;2;True;4;1;77.60341007635164
562;562;1449484266;2.1369915008500002;0.7944332957269999;0.06858262419700001;2;True;4;1;77.60341007635164
563;563;1449484266;2.1370384693099997;0.794734477997;0.068535335362;2;True;4;1;77.60341007635164
564;564;1449484266;2.1368355751;0.7945070862770001;0.0687233135104;2;True;4;1;77.60341007635164
565;565;1449484266;2.13704252243;0.794709205627;0.0685482621193;2;True;4;1;77.60341007635164
566;566;1449484266;2.13696694374;0.7945460081100001;0.0685978606343;2;True;4;1;77.60341007635164
567;567;1449484266;2.1368155479400004;0.794318258762;0.068791680038;2;True;4;1;77.60341007635164
568;568;1449484266;2.1369302272799997;0.794476091862;0.0686834901571;2;True;4;1;77.60341007635164
569;569;1449484266;2.136947155;0.7946656942370001;0.06871626526119999;2;True;4;1;77.60341007635164
570;570;1449484266;2.13685369492;0.794477105141;0.06882349401710001;2;True;4;1;77.60341007635164
571;571;1449484266;2.13694620132;0.7945157885549999;0.06876545399430001;2;True;4;1;77.60341007635164
572;572;1449484266;2.13684535027;0.79440587759;0.0687812790275;2;True;4;1;77.60341007635164
573;573;1449484266;2.13697147369;0.79447978735;0.0685209780931;2;True;4;1;77.60341007635164
574;574;1449484266;2.1368589401199998;0.794477522373;0.0687247365713;2;True;4;1;77.60341007635164
575;575;1449484266;2.13688397408;0.7945263981820001;0.0686795786023;2;True;4;1;77.60341007635164
576;576;1449484266;2.13688874245;0.794509887695;0.0687095671892;2;True;4;1;77.60341007635164
577;577;1449484266;2.13684916496;0.794455766678;0.0687102153897;2;True;4;1;77.60341007635164
578;578;1449484266;2.13689780235;0.7944876551629999;0.0686756372452;2;True;4;1;77.60341007635164
579;579;1449484266;2.13683009148;0.794433712959;0.06866365671159999;2;True;4;1;77.60341007635164
580;580;1449484266;2.13695168495;0.7946182489399999;0.0686587840319;2;True;4;1;77.60341007635164
581;581;1449484266;2.1369256973299997;0.794513642788;0.0686263293028;2;True;4;1;77.60341007635164
582;582;1449484266;2.13683128357;0.794431090355;0.06870208680630001;2;True;4;1;77.60341007635164
583;583;1449484266;2.13678860664;0.7943823337549999;0.06870049238199999;2;True;4;1;77.60341007635164
584;584;1449484266;2.13682770729;0.7944208383560001;0.0686957016587;2;True;4;1;77.60341007635164
585;585;1449484266;2.13697004318;0.794643759727;0.0684738531709;2;True;4;1;77.60341007635164
586;586;1449484266;2.13689756393;0.794577002525;0.06863852590319999;2;True;4;1;77.60341007635164
587;587;1449484266;2.1368746757499997;0.794459462166;0.0686552524567;2;True;4;1;77.60341007635164
588;588;1449484266;2.1369473934200003;0.794503509998;0.0684818178415;2;True;4;1;77.60341007635164
589;589;1449484266;2.13695955276;0.794656813145;0.0685114040971;2;True;4;1;77.60341007635164
590;590;1449484266;2.1367440223700003;0.794263482094;0.0687615275383;2;True;4;1;77.60341007635164
591;591;1449484266;2.13691473007;0.794475078583;0.06859731674189999;2;True;4;1;77.60341007635164
592;592;1449484266;2.13675522804;0.794246077538;0.06878299266099999;2;True;4;1;77.60341007635164
593;593;1449484266;2.13689780235;0.7943816184999999;0.0686253383756;2;True;4;1;77.60341007635164
594;594;1449484266;2.13685178757;0.794510364532;0.0686639100313;2;True;4;1;77.60341007635164
595;595;1449484266;2.1369206905400002;0.7946092486380001;0.0686723217368;2;True;4;1;77.60341007635164
596;596;1449484266;2.13681411743;0.7943034768100001;0.0686868280172;2;True;4;1;77.60341007635164
597;597;1449484267;2.1368486881299997;0.794519126415;0.0686777308583;3;True;4;1;77.60341007635164
598;598;1449484267;2.13682126999;0.794436991215;0.0687138214707;3;True;4;1;77.60341007635164
599;599;1449484267;2.1368255615200002;0.794224143028;0.0686470046639;3;True;4;1;77.60341007635164
600;600;1449484267;2.1368746757499997;0.794422507286;0.06861829012630001;3;True;4;1;77.60341007635164
601;601;1449484267;2.1368980407700002;0.7944523096080001;0.0686830952764;3;True;4;1;77.60341007635164
602;602;1449484267;2.1369354724900003;0.79455447197;0.06864112615590001;3;True;4;1;77.60341007635164
603;603;1449484267;2.1369614601099998;0.7944909930230001;0.0684558749199;3;True;4;1;77.60341007635164
604;604;1449484267;2.13691306114;0.7945030927660001;0.0686706975102;3;True;4;1;77.60341007635164
605;605;1449484267;2.13697171211;0.794670403004;0.0684930607677;3;True;4;1;77.60341007635164
606;606;1449484267;2.1369566917400005;0.794652462006;0.0685383528471;3;True;4;1;77.60341007635164
607;607;1449484267;2.13694643974;0.7946008443829999;0.0685564354062;3;True;4;1;77.60341007635164
608;608;1449484267;2.1368486881299997;0.794494211674;0.06874396651980001;3;True;4;1;77.60341007635164
609;609;1449484267;2.13682627678;0.7943809032439999;0.06874596327539999;3;True;4;1;77.60341007635164
610;610;1449484267;2.13678574562;0.794286131859;0.0687666460872;3;True;4;1;77.60341007635164
611;611;1449484267;2.13688445091;0.794408321381;0.0687138289213;3;True;4;1;77.60341007635164
612;612;1449484267;2.13694572449;0.794331610203;0.0685160830617;3;True;4;1;77.60341007635164
613;613;1449484267;2.13698005676;0.7944643497470001;0.0685395970941;3;True;4;1;77.60341007635164
614;614;1449484267;2.136967659;0.7944692969320001;0.0685481503606;3;True;4;1;77.60341007635164
