;Unnamed: 0;header_stamp_secs;pose_position_x;pose_position_y;pose_position_z;seconds;drop_values;flight_number;label;dtw
0;0;1445943008;2.1132848262799997;0.849941015244;0.0332473069429;0;True;41;1;2.6682487875225007
1;1;1445943008;2.11326885223;0.849850952625;0.0332516245544;0;True;41;1;2.6682487875225007
2;2;1445943008;2.11312055588;0.8497744202609999;0.033296771347500004;0;True;41;1;2.6682487875225007
3;3;1445943008;2.11321949959;0.849811017513;0.0332340300083;0;True;41;1;2.6682487875225007
4;4;1445943008;2.11294388771;0.849545359612;0.033338326960800004;0;True;41;1;2.6682487875225007
5;5;1445943008;2.1132616996799998;0.8497927188869999;0.0332402586937;0;True;41;1;2.6682487875225007
6;6;1445943008;2.11317801476;0.849751055241;0.033244162797900004;0;True;41;1;2.6682487875225007
7;7;1445943008;2.11304688454;0.849759757519;0.033335179090499996;0;True;41;1;2.6682487875225007
8;8;1445943008;2.1132850647;0.849937081337;0.0332392156124;0;True;41;1;2.6682487875225007
9;9;1445943008;2.11331725121;0.8498497605320001;0.0332310013473;0;True;41;1;2.6682487875225007
10;10;1445943008;2.11329627037;0.849934399128;0.0332342721522;0;True;41;1;2.6682487875225007
11;11;1445943008;2.11310076714;0.849792599678;0.0333227291703;0;True;41;1;2.6682487875225007
12;12;1445943008;2.11322712898;0.849804401398;0.0332256406546;0;True;41;1;2.6682487875225007
13;13;1445943008;2.11327981949;0.8498454689980001;0.0332280471921;0;True;41;1;2.6682487875225007
14;14;1445943008;2.1129772663099997;0.849698066711;0.033390697091799995;0;True;41;1;2.6682487875225007
15;15;1445943008;2.1132822036700003;0.8499150276180001;0.0332286059856;0;True;41;1;2.6682487875225007
16;16;1445943008;2.11312103271;0.8497129082680001;0.0332780703902;0;True;41;1;2.6682487875225007
17;17;1445943008;2.1132967472099997;0.8499413132670001;0.0332198627293;0;True;41;1;2.6682487875225007
18;18;1445943008;2.11326408386;0.849780976772;0.0332266315818;0;True;41;1;2.6682487875225007
19;19;1445943008;2.11329126358;0.849874556065;0.033234518021299994;0;True;41;1;2.6682487875225007
20;20;1445943008;2.1129870414700003;0.849608063698;0.0332865566015;0;True;41;1;2.6682487875225007
21;21;1445943008;2.1132519245099997;0.849768459797;0.0332562327385;0;True;41;1;2.6682487875225007
22;22;1445943008;2.11328196526;0.8498722314830001;0.033233109861599996;0;True;41;1;2.6682487875225007
23;23;1445943008;2.11319375038;0.8498445749279999;0.0332671441138;0;True;41;1;2.6682487875225007
24;24;1445943008;2.11327457428;0.849811375141;0.0332392789423;0;True;41;1;2.6682487875225007
25;25;1445943008;2.11288690567;0.84959423542;0.033349402248900005;0;True;41;1;2.6682487875225007
26;26;1445943008;2.11315941811;0.849656283855;0.0332911238074;0;True;41;1;2.6682487875225007
27;27;1445943008;2.11328458786;0.8498891592030001;0.0332320183516;0;True;41;1;2.6682487875225007
28;28;1445943008;2.11327695847;0.8499264121060001;0.0332241542637;0;True;41;1;2.6682487875225007
29;29;1445943008;2.11325001717;0.849824965;0.033244766295;0;True;41;1;2.6682487875225007
30;30;1445943008;2.11326956749;0.849883139133;0.033243957907;0;True;41;1;2.6682487875225007
31;31;1445943008;2.1131570339200003;0.849697649479;0.0332705751061;0;True;41;1;2.6682487875225007
32;32;1445943008;2.11325621605;0.849856734276;0.0332384929061;0;True;41;1;2.6682487875225007
33;33;1445943008;2.1129631996200002;0.8496397137639999;0.0334143787622;0;True;41;1;2.6682487875225007
34;34;1445943008;2.11319804192;0.849692940712;0.033263765275500005;0;True;41;1;2.6682487875225007
35;35;1445943008;2.1132676601400004;0.8497639298440001;0.0332245863974;0;True;41;1;2.6682487875225007
36;36;1445943008;2.11326432228;0.8499265313150001;0.0332236848772;0;True;41;1;2.6682487875225007
37;37;1445943008;2.11327457428;0.849816918373;0.0332321822643;0;True;41;1;2.6682487875225007
38;38;1445943008;2.11314463615;0.849766492844;0.033284984529;0;True;41;1;2.6682487875225007
39;39;1445943008;2.1131756305700002;0.8497464060780001;0.0332208052278;0;True;41;1;2.6682487875225007
40;40;1445943008;2.1132543087;0.849840641022;0.0332181043923;0;True;41;1;2.6682487875225007
41;41;1445943008;2.11320567131;0.849837303162;0.0332471579313;0;True;41;1;2.6682487875225007
42;42;1445943008;2.11328458786;0.8498762845990001;0.033225961029500005;0;True;41;1;2.6682487875225007
43;43;1445943008;2.11310553551;0.849740743637;0.033310171216700005;0;True;41;1;2.6682487875225007
44;44;1445943008;2.11325526237;0.849828064442;0.0332316793501;0;True;41;1;2.6682487875225007
45;45;1445943008;2.11325621605;0.849901854992;0.0332158021629;0;True;41;1;2.6682487875225007
46;46;1445943008;2.1130771637;0.849657893181;0.0332383289933;0;True;41;1;2.6682487875225007
47;47;1445943008;2.1132817268400004;0.849941909313;0.033213607966900004;0;True;41;1;2.6682487875225007
48;48;1445943008;2.1132717132599996;0.849863946438;0.0332173295319;0;True;41;1;2.6682487875225007
49;49;1445943008;2.11327385902;0.849893152714;0.0332345329225;0;True;41;1;2.6682487875225007
50;50;1445943008;2.11320877075;0.8497402668;0.0332495942712;0;True;41;1;2.6682487875225007
51;51;1445943008;2.11319994926;0.8497272133830001;0.033251337707;0;True;41;1;2.6682487875225007
52;52;1445943008;2.1132605075799997;0.8499138951299999;0.0332307033241;0;True;41;1;2.6682487875225007
53;53;1445943008;2.11321258545;0.8497950434679999;0.0332496799529;0;True;41;1;2.6682487875225007
54;54;1445943008;2.11314606667;0.849698603153;0.0332641750574;0;True;41;1;2.6682487875225007
55;55;1445943008;2.11324906349;0.849894881248;0.0332371033728;0;True;41;1;2.6682487875225007
56;56;1445943008;2.11326646805;0.849812090397;0.0332493036985;0;True;41;1;2.6682487875225007
57;57;1445943008;2.11316394806;0.8497498631479999;0.0332558378577;0;True;41;1;2.6682487875225007
58;58;1445943008;2.11315608025;0.8496320843699999;0.0332675464451;0;True;41;1;2.6682487875225007
59;59;1445943008;2.11320710182;0.849731624126;0.0332700535655;0;True;41;1;2.6682487875225007
60;60;1445943008;2.11325716972;0.849698543549;0.033241070807;0;True;41;1;2.6682487875225007
61;61;1445943008;2.1132910251599997;0.849815309048;0.0332453660667;0;True;41;1;2.6682487875225007
62;62;1445943008;2.1131689548500003;0.849732398987;0.0332775935531;0;True;41;1;2.6682487875225007
63;63;1445943008;2.11310553551;0.849712073803;0.0332832299173;0;True;41;1;2.6682487875225007
64;64;1445943008;2.11328816414;0.849829137325;0.0332394428551;0;True;41;1;2.6682487875225007
65;65;1445943008;2.11325478554;0.849751472473;0.03324617818;0;True;41;1;2.6682487875225007
66;66;1445943008;2.11308145523;0.849660813808;0.0332767032087;0;True;41;1;2.6682487875225007
67;67;1445943008;2.11299729347;0.849689424038;0.033395390957599996;0;True;41;1;2.6682487875225007
68;68;1445943008;2.1132671833;0.849824905396;0.0332540869713;0;True;41;1;2.6682487875225007
69;69;1445943008;2.11327075958;0.849821865559;0.033256769180299996;0;True;41;1;2.6682487875225007
70;70;1445943008;2.11299419403;0.849575936794;0.0333567336202;0;True;41;1;2.6682487875225007
71;71;1445943008;2.11326217651;0.849866747856;0.0332509428263;0;True;41;1;2.6682487875225007
72;72;1445943008;2.1131670475;0.849702775478;0.0332510434091;0;True;41;1;2.6682487875225007
73;73;1445943008;2.11318826675;0.849839925766;0.0332622081041;0;True;41;1;2.6682487875225007
74;74;1445943008;2.11311244965;0.8497783541680001;0.033284813165700006;0;True;41;1;2.6682487875225007
75;75;1445943008;2.1130301952400004;0.8497133255;0.0333702415228;0;True;41;1;2.6682487875225007
76;76;1445943008;2.11324596405;0.8497301936149999;0.0332476273179;0;True;41;1;2.6682487875225007
77;77;1445943009;2.1132762432099996;0.849890887737;0.033227011561400004;1;True;41;1;2.6682487875225007
78;78;1445943009;2.11304545403;0.8497608304019999;0.033334925770799995;1;True;41;1;2.6682487875225007
79;79;1445943009;2.11322450638;0.849813997746;0.033219929784499995;1;True;41;1;2.6682487875225007
80;80;1445943009;2.1132154464700004;0.849811255932;0.0332213714719;1;True;41;1;2.6682487875225007
81;81;1445943009;2.11329770088;0.849955976009;0.0332216247916;1;True;41;1;2.6682487875225007
82;82;1445943009;2.11325931549;0.8499576449390001;0.0332180373371;1;True;41;1;2.6682487875225007
83;83;1445943009;2.11327528954;0.849808216095;0.0332207903266;1;True;41;1;2.6682487875225007
84;84;1445943009;2.1131920814500003;0.849832296371;0.0332238674164;1;True;41;1;2.6682487875225007
85;85;1445943009;2.11322569847;0.84984511137;0.033245880156799995;1;True;41;1;2.6682487875225007
86;86;1445943009;2.1132631301900004;0.8499408364300001;0.033215995878;1;True;41;1;2.6682487875225007
87;87;1445943009;2.1131319999700002;0.8498114347460001;0.0332337580621;1;True;41;1;2.6682487875225007
88;88;1445943009;2.11324167252;0.8498102426530001;0.0332403331995;1;True;41;1;2.6682487875225007
89;89;1445943009;2.11317825317;0.8497750163079999;0.033245161175700005;1;True;41;1;2.6682487875225007
90;90;1445943009;2.11322665215;0.849803686142;0.0332176722586;1;True;41;1;2.6682487875225007
91;91;1445943009;2.11316633224;0.849781930447;0.0332385860384;1;True;41;1;2.6682487875225007
92;92;1445943009;2.11326932907;0.8497540950779999;0.0332123450935;1;True;41;1;2.6682487875225007
93;93;1445943009;2.11321163177;0.849796950817;0.0332121662796;1;True;41;1;2.6682487875225007
94;94;1445943009;2.1129446029700003;0.849606692791;0.0333522371948;1;True;41;1;2.6682487875225007
95;95;1445943009;2.11328005791;0.849953591824;0.033231779933;1;True;41;1;2.6682487875225007
96;96;1445943009;2.11327075958;0.849864602089;0.0332296527922;1;True;41;1;2.6682487875225007
97;97;1445943009;2.11319518089;0.849766850471;0.0332248061895;1;True;41;1;2.6682487875225007
98;98;1445943009;2.11324906349;0.8497804999349999;0.033233191817999996;1;True;41;1;2.6682487875225007
99;99;1445943009;2.11326408386;0.849928736687;0.033220037818;1;True;41;1;2.6682487875225007
100;100;1445943009;2.1131837368;0.84983754158;0.033219948411;1;True;41;1;2.6682487875225007
101;101;1445943009;2.1132473945599997;0.849831342697;0.033220548182700003;1;True;41;1;2.6682487875225007
102;102;1445943009;2.11325454712;0.8498471379279999;0.0332143455744;1;True;41;1;2.6682487875225007
103;103;1445943009;2.11326551437;0.849962294102;0.033233329653699996;1;True;41;1;2.6682487875225007
104;104;1445943009;2.11323428154;0.8499109745029999;0.0332390218973;1;True;41;1;2.6682487875225007
105;105;1445943009;2.11330032349;0.84988206625;0.0332267619669;1;True;41;1;2.6682487875225007
106;106;1445943009;2.11329436302;0.849985897541;0.0332179553807;1;True;41;1;2.6682487875225007
107;107;1445943009;2.1132862567900004;0.849973320961;0.0332248173654;1;True;41;1;2.6682487875225007
108;108;1445943009;2.1130917072299997;0.8496958613400001;0.033323336392599996;1;True;41;1;2.6682487875225007
109;109;1445943009;2.113104105;0.8496748805050001;0.0332872457802;1;True;41;1;2.6682487875225007
110;110;1445943009;2.11330604553;0.849988102913;0.0332365818322;1;True;41;1;2.6682487875225007
111;111;1445943009;2.1132833957700004;0.849824488163;0.0332098044455;1;True;41;1;2.6682487875225007
112;112;1445943009;2.11319565773;0.849740087986;0.0332351587713;1;True;41;1;2.6682487875225007
113;113;1445943009;2.1132192611700003;0.8498517870899999;0.033229373395400004;1;True;41;1;2.6682487875225007
114;114;1445943009;2.113270998;0.849892735481;0.033230792731;1;True;41;1;2.6682487875225007
115;115;1445943009;2.1129887104;0.849803745747;0.033369217068;1;True;41;1;2.6682487875225007
116;116;1445943009;2.11319231987;0.8498118519779999;0.033261861652099996;1;True;41;1;2.6682487875225007
117;117;1445943009;2.11316418648;0.8498128652570001;0.033302012831000004;1;True;41;1;2.6682487875225007
118;118;1445943009;2.11329436302;0.849985957146;0.033230829983900007;1;True;41;1;2.6682487875225007
119;119;1445943009;2.11315488815;0.849728405476;0.0332785844803;1;True;41;1;2.6682487875225007
120;120;1445943009;2.11328911781;0.849991202354;0.0332190729678;1;True;41;1;2.6682487875225007
121;121;1445943009;2.11322021484;0.849754214287;0.0332412756979;1;True;41;1;2.6682487875225007
122;122;1445943009;2.11329984665;0.849844813347;0.033224701881400004;1;True;41;1;2.6682487875225007
123;123;1445943009;2.11328148842;0.8498315215109999;0.033229123801;1;True;41;1;2.6682487875225007
124;124;1445943009;2.1132473945599997;0.849828004837;0.0332213006914;1;True;41;1;2.6682487875225007
125;125;1445943009;2.1132948398599996;0.849987447262;0.0332257449627;1;True;41;1;2.6682487875225007
126;126;1445943009;2.1132774353;0.849967479706;0.033223241567599995;1;True;41;1;2.6682487875225007
127;127;1445943009;2.11325335503;0.849877953529;0.0332190096378;1;True;41;1;2.6682487875225007
128;128;1445943009;2.11328792572;0.850021004677;0.0332302823663;1;True;41;1;2.6682487875225007
129;129;1445943009;2.11293506622;0.849584639072;0.0333372578025;1;True;41;1;2.6682487875225007
130;130;1445943009;2.11327695847;0.849975943565;0.0332288630307;1;True;41;1;2.6682487875225007
131;131;1445943009;2.1132848262799997;0.849981188774;0.0332238972187;1;True;41;1;2.6682487875225007
132;132;1445943009;2.1132144928;0.849763035774;0.0332438796759;1;True;41;1;2.6682487875225007
133;133;1445943009;2.11317133904;0.8497887253759999;0.0332248359919;1;True;41;1;2.6682487875225007
134;134;1445943009;2.1131148338299997;0.849746584892;0.0332789085805;1;True;41;1;2.6682487875225007
135;135;1445943009;2.11303663254;0.849732935429;0.0333577021956;1;True;41;1;2.6682487875225007
136;136;1445943009;2.11327886581;0.8500089049339999;0.033220812678299995;1;True;41;1;2.6682487875225007
137;137;1445943009;2.11319112778;0.849833488464;0.0332658030093;1;True;41;1;2.6682487875225007
138;138;1445943009;2.1131749153099997;0.849593400955;0.033239871263500004;1;True;41;1;2.6682487875225007
139;139;1445943009;2.1131553649900003;0.849756479263;0.0332316160202;1;True;41;1;2.6682487875225007
140;140;1445943009;2.11300182343;0.8495525717739999;0.0333225764334;1;True;41;1;2.6682487875225007
141;141;1445943009;2.1130821704900002;0.849708676338;0.033319529146;1;True;41;1;2.6682487875225007
142;142;1445943009;2.11297011375;0.849848747253;0.0333584845066;1;True;41;1;2.6682487875225007
143;143;1445943009;2.1132569313;0.849830448627;0.0332229547203;1;True;41;1;2.6682487875225007
144;144;1445943009;2.11328125;0.849982023239;0.0332168973982;1;True;41;1;2.6682487875225007
145;145;1445943009;2.11323904991;0.849793672562;0.0332071520388;1;True;41;1;2.6682487875225007
146;146;1445943009;2.11325621605;0.849876761436;0.0332166925073;1;True;41;1;2.6682487875225007
147;147;1445943009;2.11326503754;0.8499804139139999;0.0332154780626;1;True;41;1;2.6682487875225007
148;148;1445943009;2.1132724285099997;0.8499858379359999;0.0332194492221;1;True;41;1;2.6682487875225007
149;149;1445943009;2.11318397522;0.849889755249;0.0332129336894;1;True;41;1;2.6682487875225007
150;150;1445943009;2.11318969727;0.849852800369;0.0332146808505;1;True;41;1;2.6682487875225007
151;151;1445943009;2.1129899025;0.8496971726420001;0.033362027257699996;1;True;41;1;2.6682487875225007
152;152;1445943009;2.1132168769799997;0.84985357523;0.0332171022892;1;True;41;1;2.6682487875225007
153;153;1445943009;2.11326527596;0.849899530411;0.0332085005939;1;True;41;1;2.6682487875225007
154;154;1445943009;2.11315584183;0.8497824072840001;0.0332759469748;1;True;41;1;2.6682487875225007
155;155;1445943009;2.1132791042299996;0.84997856617;0.033219225704700005;1;True;41;1;2.6682487875225007
156;156;1445943009;2.1132674217200003;0.849857211113;0.0332145988941;1;True;41;1;2.6682487875225007
157;157;1445943009;2.1132645607;0.8499021530149999;0.033241380006099996;1;True;41;1;2.6682487875225007
158;158;1445943009;2.11328005791;0.849969863892;0.0332321859896;1;True;41;1;2.6682487875225007
159;159;1445943009;2.11326146126;0.849878787994;0.0332336351275;1;True;41;1;2.6682487875225007
160;160;1445943009;2.1130771637;0.849715352058;0.0332950986922;1;True;41;1;2.6682487875225007
161;161;1445943009;2.11321997643;0.849806368351;0.0332249104977;1;True;41;1;2.6682487875225007
162;162;1445943009;2.11322999001;0.849803388119;0.0332504920661;1;True;41;1;2.6682487875225007
163;163;1445943009;2.1132628917700003;0.8498381972310001;0.0332233086228;1;True;41;1;2.6682487875225007
164;164;1445943009;2.113270998;0.8498287200929999;0.0332406833768;1;True;41;1;2.6682487875225007
165;165;1445943009;2.1132950782799997;0.8498868942260001;0.0332269966602;1;True;41;1;2.6682487875225007
166;166;1445943009;2.11326670647;0.849954247475;0.0332344062626;1;True;41;1;2.6682487875225007
167;167;1445943009;2.11321353912;0.8498040437700001;0.0332383066416;1;True;41;1;2.6682487875225007
168;168;1445943009;2.11291337013;0.849652826786;0.033383049070799996;1;True;41;1;2.6682487875225007
169;169;1445943009;2.1132807731599996;0.849944889545;0.0332302078605;1;True;41;1;2.6682487875225007
170;170;1445943009;2.11314916611;0.849676787853;0.0332271121442;1;True;41;1;2.6682487875225007
171;171;1445943009;2.11327934265;0.8498357534409999;0.0332214534283;1;True;41;1;2.6682487875225007
172;172;1445943009;2.11330461502;0.849947154522;0.0332254767418;1;True;41;1;2.6682487875225007
173;173;1445943009;2.11326980591;0.849962770939;0.0332381017506;1;True;41;1;2.6682487875225007
174;174;1445943009;2.11329340935;0.849959433079;0.033217262476699996;1;True;41;1;2.6682487875225007
175;175;1445943009;2.11323070526;0.849844098091;0.0332143194973;1;True;41;1;2.6682487875225007
176;176;1445943009;2.11320996284;0.8497776389120001;0.0332850106061;1;True;41;1;2.6682487875225007
177;177;1445943009;2.1133081913;0.8498441576960001;0.0332226417959;1;True;41;1;2.6682487875225007
178;178;1445943009;2.11314606667;0.849714934826;0.0332181341946;1;True;41;1;2.6682487875225007
179;179;1445943009;2.1131513118700003;0.84970253706;0.0332307182252;1;True;41;1;2.6682487875225007
180;180;1445943009;2.1132838726;0.849779784679;0.0332130417228;1;True;41;1;2.6682487875225007
181;181;1445943009;2.11327028275;0.849832594395;0.0332193076611;1;True;41;1;2.6682487875225007
182;182;1445943009;2.11330628395;0.8499687314030001;0.0332147851586;1;True;41;1;2.6682487875225007
183;183;1445943009;2.11332345009;0.849855482578;0.0332205072045;1;True;41;1;2.6682487875225007
184;184;1445943009;2.11319875717;0.849806904793;0.0332199074328;1;True;41;1;2.6682487875225007
185;185;1445943009;2.1132209301;0.849854767323;0.0332142449915;1;True;41;1;2.6682487875225007
186;186;1445943009;2.1132807731599996;0.849935829639;0.0332444794476;1;True;41;1;2.6682487875225007
187;187;1445943009;2.1131949424700003;0.8497707247730001;0.0332996211946;1;True;41;1;2.6682487875225007
188;188;1445943009;2.11325788498;0.849788367748;0.0332223884761;1;True;41;1;2.6682487875225007
189;189;1445943009;2.11327719688;0.849766016006;0.0332276672125;1;True;41;1;2.6682487875225007
190;190;1445943009;2.1132774353;0.849775910378;0.0332263223827;1;True;41;1;2.6682487875225007
191;191;1445943009;2.11331939697;0.849871754646;0.0332292877138;1;True;41;1;2.6682487875225007
192;192;1445943009;2.113301754;0.849953234196;0.0332246161997;1;True;41;1;2.6682487875225007
193;193;1445943009;2.11327338219;0.8498632907870001;0.0332142226398;1;True;41;1;2.6682487875225007
194;194;1445943009;2.1133153438599996;0.849949002266;0.0332222692668;1;True;41;1;2.6682487875225007
195;195;1445943009;2.11314201355;0.849776566029;0.0332625322044;1;True;41;1;2.6682487875225007
196;196;1445943009;2.1130831241599997;0.8497359752660001;0.0333124212921;1;True;41;1;2.6682487875225007
197;197;1445943009;2.1132049560499997;0.84975284338;0.033326216042;1;True;41;1;2.6682487875225007
198;198;1445943009;2.11330795288;0.849863648415;0.0332407169044;1;True;41;1;2.6682487875225007
199;199;1445943009;2.11327457428;0.849929273129;0.0332361012697;1;True;41;1;2.6682487875225007
200;200;1445943009;2.11317133904;0.849776923656;0.033344052732;1;True;41;1;2.6682487875225007
201;201;1445943009;2.1132671833;0.849748969078;0.0332456491888;1;True;41;1;2.6682487875225007
202;202;1445943009;2.11312413216;0.849651873112;0.0332834012806;1;True;41;1;2.6682487875225007
203;203;1445943009;2.11329627037;0.8498366475110001;0.0332449600101;1;True;41;1;2.6682487875225007
204;204;1445943009;2.11330223083;0.8499685525890001;0.0332399606705;1;True;41;1;2.6682487875225007
205;205;1445943009;2.11331319809;0.849959611893;0.0332369059324;1;True;41;1;2.6682487875225007
206;206;1445943009;2.1132967472099997;0.849961102009;0.0332391485572;1;True;41;1;2.6682487875225007
207;207;1445943009;2.1131739616400003;0.849646747112;0.033275749534400004;1;True;41;1;2.6682487875225007
208;208;1445943009;2.11328554153;0.8498695492739999;0.033236015588000004;1;True;41;1;2.6682487875225007
209;209;1445943009;2.1132967472099997;0.849825561047;0.0332491770387;1;True;41;1;2.6682487875225007
210;210;1445943009;2.11322641373;0.849897623062;0.0332340821624;1;True;41;1;2.6682487875225007
211;211;1445943009;2.1133012771599997;0.849820196629;0.0332375466824;1;True;41;1;2.6682487875225007
212;212;1445943009;2.11323618889;0.849834620953;0.033235665410799996;1;True;41;1;2.6682487875225007
213;213;1445943009;2.11330389977;0.8499476313590001;0.0332558304071;1;True;41;1;2.6682487875225007
214;214;1445943009;2.1132440566999997;0.849894344807;0.033232986927;1;True;41;1;2.6682487875225007
215;215;1445943009;2.1132397651700003;0.849824786186;0.03324444592;1;True;41;1;2.6682487875225007
216;216;1445943009;2.11324286461;0.849923431873;0.0332510359585;1;True;41;1;2.6682487875225007
217;217;1445943009;2.11327958107;0.8498885631559999;0.0332439206541;1;True;41;1;2.6682487875225007
218;218;1445943009;2.1132237911200003;0.849825203419;0.033248078078;1;True;41;1;2.6682487875225007
219;219;1445943009;2.11322283745;0.849857509136;0.033263448625799996;1;True;41;1;2.6682487875225007
220;220;1445943009;2.11330604553;0.849994659424;0.0332451015711;1;True;41;1;2.6682487875225007
221;221;1445943009;2.11326265335;0.849850296974;0.0332430899143;1;True;41;1;2.6682487875225007
222;222;1445943009;2.1132833957700004;0.849946975708;0.0332489907742;1;True;41;1;2.6682487875225007
223;223;1445943009;2.1131513118700003;0.849729418755;0.033246781677;1;True;41;1;2.6682487875225007
224;224;1445943009;2.1132946014400003;0.84991812706;0.0332491546869;1;True;41;1;2.6682487875225007
225;225;1445943009;2.1129212379499998;0.8496527671809999;0.0333972461522;1;True;41;1;2.6682487875225007
226;226;1445943009;2.11308145523;0.849671423435;0.033323969692;1;True;41;1;2.6682487875225007
227;227;1445943009;2.11329579353;0.849861085415;0.0332430116832;1;True;41;1;2.6682487875225007
228;228;1445943009;2.11324977875;0.8498289585109999;0.033240549266300004;1;True;41;1;2.6682487875225007
229;229;1445943009;2.11300373077;0.849796772003;0.0335700474679;1;True;41;1;2.6682487875225007
230;230;1445943009;2.1132848262799997;0.8499639630320001;0.033247660845499995;1;True;41;1;2.6682487875225007
231;231;1445943009;2.1131625175499997;0.849702775478;0.0332665815949;1;True;41;1;2.6682487875225007
232;232;1445943009;2.11330604553;0.849952697754;0.0332450121641;1;True;41;1;2.6682487875225007
233;233;1445943009;2.1132376194;0.8498017191889999;0.033237248659099994;1;True;41;1;2.6682487875225007
234;234;1445943009;2.11325359344;0.849842429161;0.0332365632057;1;True;41;1;2.6682487875225007
235;235;1445943009;2.11327600479;0.8499130606649999;0.033250965178;1;True;41;1;2.6682487875225007
236;236;1445943009;2.11327791214;0.849930047989;0.0332572124898;1;True;41;1;2.6682487875225007
237;237;1445943009;2.1130888462099997;0.8496614098549999;0.033321019262099995;1;True;41;1;2.6682487875225007
238;238;1445943009;2.11298942566;0.8496397137639999;0.0333908423781;1;True;41;1;2.6682487875225007
239;239;1445943009;2.11322116852;0.849792361259;0.0332347378135;1;True;41;1;2.6682487875225007
240;240;1445943009;2.11306929588;0.8497076630589999;0.0333288423717;1;True;41;1;2.6682487875225007
241;241;1445943009;2.1132948398599996;0.8498758673669999;0.0332358181477;1;True;41;1;2.6682487875225007
242;242;1445943009;2.1131336688999998;0.849632620811;0.0333090238273;1;True;41;1;2.6682487875225007
243;243;1445943009;2.11331796646;0.84985601902;0.033235155046;1;True;41;1;2.6682487875225007
244;244;1445943009;2.1132946014400003;0.849979162216;0.033231023698999995;1;True;41;1;2.6682487875225007
245;245;1445943009;2.11312770844;0.8498043417929999;0.0332512333989;1;True;41;1;2.6682487875225007
246;246;1445943009;2.11322712898;0.8498289585109999;0.0332258455455;1;True;41;1;2.6682487875225007
247;247;1445943009;2.11327290535;0.849946558475;0.033242490142599994;1;True;41;1;2.6682487875225007
248;248;1445943009;2.11327505112;0.8498442173;0.0332247614861;1;True;41;1;2.6682487875225007
249;249;1445943009;2.11321353912;0.849799990654;0.033234115689999996;1;True;41;1;2.6682487875225007
250;250;1445943009;2.11297774315;0.849665760994;0.0333835668862;1;True;41;1;2.6682487875225007
251;251;1445943009;2.1131088733700003;0.849669277668;0.0333260186017;1;True;41;1;2.6682487875225007
252;252;1445943009;2.11308455467;0.849733948708;0.0332495123148;1;True;41;1;2.6682487875225007
253;253;1445943009;2.1131093502000002;0.849710047245;0.0332617349923;1;True;41;1;2.6682487875225007
254;254;1445943009;2.1131935119599996;0.849774003029;0.0332671180367;1;True;41;1;2.6682487875225007
255;255;1445943009;2.11320114136;0.8497301340100001;0.0332689620554;1;True;41;1;2.6682487875225007
256;256;1445943009;2.11324477196;0.849814713001;0.0332201756537;1;True;41;1;2.6682487875225007
257;257;1445943009;2.11327004433;0.8498647809029999;0.0332288779318;1;True;41;1;2.6682487875225007
258;258;1445943009;2.11325740814;0.849862396717;0.0332397073507;1;True;41;1;2.6682487875225007
259;259;1445943009;2.11316919327;0.849794209003;0.0332466624677;1;True;41;1;2.6682487875225007
260;260;1445943009;2.11319327354;0.849834442139;0.0332468561828;1;True;41;1;2.6682487875225007
261;261;1445943009;2.1131954193099998;0.849802494049;0.0332656167448;1;True;41;1;2.6682487875225007
262;262;1445943009;2.11329174042;0.849793076515;0.0332339517772;1;True;41;1;2.6682487875225007
263;263;1445943009;2.1131606102;0.849716722965;0.0332782790065;1;True;41;1;2.6682487875225007
264;264;1445943009;2.11322045326;0.8497948050499999;0.0332267694175;1;True;41;1;2.6682487875225007
265;265;1445943009;2.11327815056;0.849827706814;0.0332371853292;1;True;41;1;2.6682487875225007
266;266;1445943009;2.11327648163;0.849896252155;0.0332386419177;1;True;41;1;2.6682487875225007
267;267;1445943009;2.11312389374;0.849681437016;0.033246956765700005;1;True;41;1;2.6682487875225007
268;268;1445943009;2.113260746;0.8499000072480001;0.033238470554400004;1;True;41;1;2.6682487875225007
269;269;1445943009;2.1131756305700002;0.849752724171;0.033267185092;1;True;41;1;2.6682487875225007
270;270;1445943009;2.11327791214;0.849920332432;0.033226262778;1;True;41;1;2.6682487875225007
271;271;1445943009;2.1131670475;0.849789559841;0.0332325771451;1;True;41;1;2.6682487875225007
272;272;1445943009;2.1131739616400003;0.84987694025;0.033247720450200004;1;True;41;1;2.6682487875225007
273;273;1445943009;2.11324930191;0.849840581417;0.0332080312073;1;True;41;1;2.6682487875225007
274;274;1445943009;2.1130945682499997;0.8496891856190001;0.0332998968661;1;True;41;1;2.6682487875225007
275;275;1445943009;2.11325478554;0.849851608276;0.033202771097400004;1;True;41;1;2.6682487875225007
276;276;1445943009;2.11323618889;0.849766671658;0.033199712634099994;1;True;41;1;2.6682487875225007
277;277;1445943009;2.1132473945599997;0.849867224693;0.0331999994814;1;True;41;1;2.6682487875225007
278;278;1445943009;2.11319684982;0.8498652577399999;0.0332236178219;1;True;41;1;2.6682487875225007
279;279;1445943009;2.113260746;0.849907875061;0.0332051925361;1;True;41;1;2.6682487875225007
280;280;1445943009;2.11321640015;0.8498178124429999;0.0331865623593;1;True;41;1;2.6682487875225007
281;281;1445943009;2.11327719688;0.849865317345;0.0331956073642;1;True;41;1;2.6682487875225007
282;282;1445943009;2.11325454712;0.8498829007150001;0.0332016535103;1;True;41;1;2.6682487875225007
283;283;1445943009;2.11321139336;0.849825680256;0.0332077778876;1;True;41;1;2.6682487875225007
284;284;1445943009;2.11314558983;0.8497362732889999;0.0332217290998;1;True;41;1;2.6682487875225007
285;285;1445943009;2.11324071884;0.8498538732529999;0.0332067199051;1;True;41;1;2.6682487875225007
286;286;1445943009;2.1132235527;0.8498274087909999;0.0332168750465;1;True;41;1;2.6682487875225007
287;287;1445943009;2.1132671833;0.8498166203499999;0.0332174040377;1;True;41;1;2.6682487875225007
288;288;1445943009;2.11322522163;0.849947988987;0.033203981816799996;1;True;41;1;2.6682487875225007
289;289;1445943009;2.11326813698;0.8498721122740001;0.033207301050400005;1;True;41;1;2.6682487875225007
290;290;1445943009;2.11327934265;0.849974095821;0.033214502036599994;1;True;41;1;2.6682487875225007
291;291;1445943009;2.11315369606;0.849711537361;0.0332568995655;1;True;41;1;2.6682487875225007
292;292;1445943009;2.11320257187;0.8498906493189999;0.0332273282111;1;True;41;1;2.6682487875225007
293;293;1445943009;2.1131260395099996;0.849739968777;0.0332552529871;1;True;41;1;2.6682487875225007
294;294;1445943009;2.11318731308;0.84983420372;0.033205464482299996;1;True;41;1;2.6682487875225007
295;295;1445943009;2.11315584183;0.849934577942;0.0332376807928;1;True;41;1;2.6682487875225007
296;296;1445943009;2.11294651031;0.849644482136;0.0333226323128;1;True;41;1;2.6682487875225007
297;297;1445943009;2.1129887104;0.849707424641;0.033304952085;1;True;41;1;2.6682487875225007
298;298;1445943009;2.11324524879;0.8498328328129999;0.033204581588499996;1;True;41;1;2.6682487875225007
299;299;1445943009;2.11327075958;0.849923491478;0.033211745321800004;1;True;41;1;2.6682487875225007
300;300;1445943009;2.1131789684299997;0.849853694439;0.0332064032555;1;True;41;1;2.6682487875225007
301;301;1445943009;2.11326622963;0.850000977516;0.033220179379;1;True;41;1;2.6682487875225007
302;302;1445943009;2.11317873001;0.849827885628;0.0332076139748;1;True;41;1;2.6682487875225007
303;303;1445943009;2.1132338047;0.8497779369349999;0.033224824816000004;1;True;41;1;2.6682487875225007
304;304;1445943009;2.1130216121700003;0.849736690521;0.0333299227059;1;True;41;1;2.6682487875225007
305;305;1445943009;2.11311841011;0.849761068821;0.0332500003278;1;True;41;1;2.6682487875225007
306;306;1445943009;2.11326384544;0.8498671650890001;0.033218003809500005;1;True;41;1;2.6682487875225007
307;307;1445943009;2.1129999160799997;0.849729716778;0.033351559191900006;1;True;41;1;2.6682487875225007
308;308;1445943009;2.11323451996;0.849984228611;0.0332284271717;1;True;41;1;2.6682487875225007
309;309;1445943009;2.11322140694;0.849890947342;0.033220045268500004;1;True;41;1;2.6682487875225007
310;310;1445943009;2.11316084862;0.849860429764;0.0332171432674;1;True;41;1;2.6682487875225007
311;311;1445943009;2.1129853725400003;0.849743247032;0.0332948900759;1;True;41;1;2.6682487875225007
312;312;1445943009;2.1131935119599996;0.849865674973;0.033221885561900005;1;True;41;1;2.6682487875225007
313;313;1445943009;2.11322903633;0.8498755097390001;0.0332237742841;1;True;41;1;2.6682487875225007
314;314;1445943009;2.11308073997;0.84970420599;0.0333684794605;1;True;41;1;2.6682487875225007
315;315;1445943010;2.11323285103;0.8497946262360001;0.033213365822999996;2;True;41;1;2.6682487875225007
316;316;1445943010;2.11324882507;0.849934875965;0.033233817666799996;2;True;41;1;2.6682487875225007
317;317;1445943010;2.11287307739;0.849649190903;0.0333064571023;2;True;41;1;2.6682487875225007
318;318;1445943010;2.1131212711300003;0.849733531475;0.03324038907890001;2;True;41;1;2.6682487875225007
319;319;1445943010;2.1132519245099997;0.8499366045000001;0.0332145243883;2;True;41;1;2.6682487875225007
320;320;1445943010;2.11328673363;0.8499380350110001;0.033234335482099996;2;True;41;1;2.6682487875225007
321;321;1445943010;2.1131296157799997;0.849724531174;0.0332557894289;2;True;41;1;2.6682487875225007
322;322;1445943010;2.1132628917700003;0.8498578667640001;0.033241666853400006;2;True;41;1;2.6682487875225007
323;323;1445943010;2.1132516861000004;0.8499591350560001;0.0332540646195;2;True;41;1;2.6682487875225007
324;324;1445943010;2.11318612099;0.849844813347;0.0332598127425;2;True;41;1;2.6682487875225007
325;325;1445943010;2.11315560341;0.849768519402;0.0333719216287;2;True;41;1;2.6682487875225007
326;326;1445943010;2.11327815056;0.849891722202;0.03324459865690001;2;True;41;1;2.6682487875225007
327;327;1445943010;2.1132225990299998;0.8498578667640001;0.033258009702;2;True;41;1;2.6682487875225007
328;328;1445943010;2.11318325996;0.8497241735459999;0.0332321152091;2;True;41;1;2.6682487875225007
329;329;1445943010;2.11289906502;0.84969419241;0.0334019139409;2;True;41;1;2.6682487875225007
330;330;1445943010;2.11326599121;0.8499340415000001;0.033227853477;2;True;41;1;2.6682487875225007
331;331;1445943010;2.11329865456;0.849869012833;0.0332345589995;2;True;41;1;2.6682487875225007
332;332;1445943010;2.11310458183;0.8497110009190001;0.0332429260015;2;True;41;1;2.6682487875225007
333;333;1445943010;2.1131975650799997;0.849890053272;0.0332193858922;2;True;41;1;2.6682487875225007
334;334;1445943010;2.11328363419;0.849969983101;0.0332177914679;2;True;41;1;2.6682487875225007
335;335;1445943010;2.1131610870400004;0.8497253060340001;0.0332453511655;2;True;41;1;2.6682487875225007
336;336;1445943010;2.11311078072;0.8497360944750001;0.0332527346909;2;True;41;1;2.6682487875225007
337;337;1445943010;2.11328911781;0.8499653339390001;0.0332256704569;2;True;41;1;2.6682487875225007
338;338;1445943010;2.11328697205;0.849982023239;0.0332252532244;2;True;41;1;2.6682487875225007
339;339;1445943010;2.11315798759;0.84977388382;0.0332761965692;2;True;41;1;2.6682487875225007
340;340;1445943010;2.11315774918;0.849801182747;0.0332488194108;2;True;41;1;2.6682487875225007
341;341;1445943010;2.1132531166099997;0.849653720856;0.0332144238055;2;True;41;1;2.6682487875225007
342;342;1445943010;2.11329388618;0.849985957146;0.0332263670862;2;True;41;1;2.6682487875225007
343;343;1445943010;2.1133043766;0.849979937077;0.0332310348749;2;True;41;1;2.6682487875225007
344;344;1445943010;2.11299133301;0.849584162235;0.0336575470865;2;True;41;1;2.6682487875225007
345;345;1445943010;2.11327576637;0.849902629852;0.0332277901471;2;True;41;1;2.6682487875225007
346;346;1445943010;2.11317229271;0.849830389023;0.033280741423400005;2;True;41;1;2.6682487875225007
347;347;1445943010;2.11327028275;0.849844813347;0.0332285687327;2;True;41;1;2.6682487875225007
348;348;1445943010;2.11315083504;0.849823236465;0.0332256630063;2;True;41;1;2.6682487875225007
349;349;1445943010;2.11291861534;0.8496206402779999;0.0334721133113;2;True;41;1;2.6682487875225007
350;350;1445943010;2.1132583618200003;0.84988451004;0.0332263484597;2;True;41;1;2.6682487875225007
351;351;1445943010;2.11327028275;0.849828362465;0.033206228166799995;2;True;41;1;2.6682487875225007
352;352;1445943010;2.11318683624;0.8498349189759999;0.0332095399499;2;True;41;1;2.6682487875225007
353;353;1445943010;2.1132791042299996;0.849853396416;0.033220041543200005;2;True;41;1;2.6682487875225007
354;354;1445943010;2.11318802834;0.849814295769;0.0332333557308;2;True;41;1;2.6682487875225007
355;355;1445943010;2.11329817772;0.849827945232;0.033232294023;2;True;41;1;2.6682487875225007
356;356;1445943010;2.11326146126;0.849914550781;0.0332142785192;2;True;41;1;2.6682487875225007
357;357;1445943010;2.11325621605;0.8499306440350001;0.0332379117608;2;True;41;1;2.6682487875225007
358;358;1445943010;2.1132481098199998;0.849846482277;0.0332344211638;2;True;41;1;2.6682487875225007
359;359;1445943010;2.1131658554099997;0.849782705307;0.0332758687437;2;True;41;1;2.6682487875225007
360;360;1445943010;2.11305761337;0.8497233986849999;0.0333073809743;2;True;41;1;2.6682487875225007
361;361;1445943010;2.11321568489;0.8498729467389999;0.0332644879818;2;True;41;1;2.6682487875225007
362;362;1445943010;2.11315608025;0.8497645258900001;0.033294390887;2;True;41;1;2.6682487875225007
363;363;1445943010;2.1132473945599997;0.849852621555;0.0332602225244;2;True;41;1;2.6682487875225007
364;364;1445943010;2.11327123642;0.8498795032500001;0.0332457087934;2;True;41;1;2.6682487875225007
365;365;1445943010;2.11323952675;0.849871873856;0.033245109021700005;2;True;41;1;2.6682487875225007
366;366;1445943010;2.11326217651;0.8498955965039999;0.0332440584898;2;True;41;1;2.6682487875225007
367;367;1445943010;2.11325287819;0.8499186038969999;0.033245880156799995;2;True;41;1;2.6682487875225007
368;368;1445943010;2.1130666732799996;0.849765360355;0.033351112157099995;2;True;41;1;2.6682487875225007
369;369;1445943010;2.11309552193;0.8497498035430001;0.0333490334451;2;True;41;1;2.6682487875225007
370;370;1445943010;2.1132590770700004;0.8498080372810001;0.0332366973162;2;True;41;1;2.6682487875225007
371;371;1445943010;2.11304783821;0.849766433239;0.033349510282299995;2;True;41;1;2.6682487875225007
372;372;1445943010;2.11312103271;0.8496501445769999;0.0333054363728;2;True;41;1;2.6682487875225007
373;373;1445943010;2.1131708622;0.849915981293;0.0332571938634;2;True;41;1;2.6682487875225007
374;374;1445943010;2.11323928833;0.8498409390449999;0.0332490094006;2;True;41;1;2.6682487875225007
375;375;1445943010;2.11303734779;0.8497607111929999;0.033357180655;2;True;41;1;2.6682487875225007
376;376;1445943010;2.11327362061;0.84997177124;0.0332381613553;2;True;41;1;2.6682487875225007
377;377;1445943010;2.1132485866499997;0.849870443344;0.0332672558725;2;True;41;1;2.6682487875225007
378;378;1445943010;2.11320757866;0.849839925766;0.0332302637398;2;True;41;1;2.6682487875225007
379;379;1445943010;2.11312770844;0.8497858047490001;0.03326510638;2;True;41;1;2.6682487875225007
380;380;1445943010;2.1131308078799997;0.849788963795;0.0333089902997;2;True;41;1;2.6682487875225007
381;381;1445943010;2.1132631301900004;0.849861741066;0.0332458913326;2;True;41;1;2.6682487875225007
382;382;1445943010;2.11325931549;0.849843919277;0.033229295164299996;2;True;41;1;2.6682487875225007
383;383;1445943010;2.1131749153099997;0.84991645813;0.033255442977;2;True;41;1;2.6682487875225007
384;384;1445943010;2.1132628917700003;0.849976658821;0.0332464911044;2;True;41;1;2.6682487875225007
385;385;1445943010;2.11325669289;0.8499702215189999;0.0332489907742;2;True;41;1;2.6682487875225007
386;386;1445943010;2.11323046684;0.849860966206;0.033260717987999996;2;True;41;1;2.6682487875225007
387;387;1445943010;2.11318612099;0.84988963604;0.0332623906434;2;True;41;1;2.6682487875225007
388;388;1445943010;2.11327028275;0.849966943264;0.0332366153598;2;True;41;1;2.6682487875225007
389;389;1445943010;2.11329126358;0.849992215633;0.033236596733300004;2;True;41;1;2.6682487875225007
390;390;1445943010;2.11328697205;0.8498920798299999;0.0332517437637;2;True;41;1;2.6682487875225007
391;391;1445943010;2.11325454712;0.849884986877;0.0332302376628;2;True;41;1;2.6682487875225007
392;392;1445943010;2.11310982704;0.849750995636;0.0333018302917;2;True;41;1;2.6682487875225007
393;393;1445943010;2.1131842136400003;0.849808633327;0.033224307000599994;2;True;41;1;2.6682487875225007
394;394;1445943010;2.1130480766299997;0.8497439026829999;0.033360004425;2;True;41;1;2.6682487875225007
395;395;1445943010;2.1132822036700003;0.849881649017;0.0332346782088;2;True;41;1;2.6682487875225007
396;396;1445943010;2.1132717132599996;0.849967002869;0.0332238487899;2;True;41;1;2.6682487875225007
397;397;1445943010;2.1132645607;0.849815964699;0.0332215689123;2;True;41;1;2.6682487875225007
398;398;1445943010;2.1132471561400004;0.8499211072920001;0.0332098901272;2;True;41;1;2.6682487875225007
399;399;1445943010;2.11304736137;0.8497070670129999;0.0334490761161;2;True;41;1;2.6682487875225007
400;400;1445943010;2.11327838898;0.8499557375910001;0.0332067795098;2;True;41;1;2.6682487875225007
401;401;1445943010;2.11322069168;0.84983587265;0.033216290175900005;2;True;41;1;2.6682487875225007
402;402;1445943010;2.11296057701;0.849615395069;0.033334903419;2;True;41;1;2.6682487875225007
403;403;1445943010;2.11324930191;0.849813878536;0.033225852996099994;2;True;41;1;2.6682487875225007
404;404;1445943010;2.11303639412;0.849725425243;0.0333356484771;2;True;41;1;2.6682487875225007
405;405;1445943010;2.1132144928;0.849849939346;0.0332394763827;2;True;41;1;2.6682487875225007
406;406;1445943010;2.11317801476;0.849764943123;0.0332886725664;2;True;41;1;2.6682487875225007
407;407;1445943010;2.1131472587599998;0.849820196629;0.033278118819;2;True;41;1;2.6682487875225007
408;408;1445943010;2.1130797863;0.8496380448340001;0.0332824252546;2;True;41;1;2.6682487875225007
409;409;1445943010;2.1131806373599997;0.849741995335;0.033229291439099994;2;True;41;1;2.6682487875225007
410;410;1445943010;2.1132776737200003;0.849958896637;0.0332161970437;2;True;41;1;2.6682487875225007
411;411;1445943010;2.1132838726;0.849801063538;0.0332195572555;2;True;41;1;2.6682487875225007
412;412;1445943010;2.1132774353;0.849851429462;0.0332233011723;2;True;41;1;2.6682487875225007
413;413;1445943010;2.11327672005;0.84995418787;0.0332049541175;2;True;41;1;2.6682487875225007
414;414;1445943010;2.11328721046;0.849906027317;0.033200785517700004;2;True;41;1;2.6682487875225007
415;415;1445943010;2.11319422722;0.8498685956;0.0332060419023;2;True;41;1;2.6682487875225007
416;416;1445943010;2.1131703853599997;0.849775195122;0.0332878604531;2;True;41;1;2.6682487875225007
417;417;1445943010;2.1132628917700003;0.8498144149779999;0.033195964992;2;True;41;1;2.6682487875225007
418;418;1445943010;2.11326551437;0.849829375744;0.0332050807774;2;True;41;1;2.6682487875225007
419;419;1445943010;2.11322617531;0.8497639298440001;0.033198058605200004;2;True;41;1;2.6682487875225007
420;420;1445943010;2.11304593086;0.849715411663;0.033312145620599996;2;True;41;1;2.6682487875225007
421;421;1445943010;2.11324310303;0.8498781919480001;0.0332047268748;2;True;41;1;2.6682487875225007
422;422;1445943010;2.1131730079700004;0.849847912788;0.0332128070295;2;True;41;1;2.6682487875225007
423;423;1445943010;2.11322951317;0.849855422974;0.0332058034837;2;True;41;1;2.6682487875225007
424;424;1445943010;2.1132221221900003;0.849843919277;0.0332447960973;2;True;41;1;2.6682487875225007
425;425;1445943010;2.11316609383;0.849807083607;0.0333197824657;2;True;41;1;2.6682487875225007
426;426;1445943010;2.1132848262799997;0.8499743342399999;0.0332300961018;2;True;41;1;2.6682487875225007
427;427;1445943010;2.1131875515000003;0.8498240113259999;0.0332085415721;2;True;41;1;2.6682487875225007
428;428;1445943010;2.11320257187;0.849822044373;0.0332267023623;2;True;41;1;2.6682487875225007
429;429;1445943010;2.11330151558;0.849875986576;0.0332195088267;2;True;41;1;2.6682487875225007
430;430;1445943010;2.11323881149;0.84992903471;0.0332117900252;2;True;41;1;2.6682487875225007
431;431;1445943010;2.1131901741;0.849751234055;0.0332229696214;2;True;41;1;2.6682487875225007
432;432;1445943010;2.11318469048;0.849759042263;0.033224821090700005;2;True;41;1;2.6682487875225007
433;433;1445943010;2.11328697205;0.8499679565430001;0.033214617520599996;2;True;41;1;2.6682487875225007
434;434;1445943010;2.11311769485;0.849713206291;0.033348813653;2;True;41;1;2.6682487875225007
435;435;1445943010;2.11314225197;0.849770963192;0.0332353673875;2;True;41;1;2.6682487875225007
436;436;1445943010;2.1132762432099996;0.8499754667280001;0.0332235395908;2;True;41;1;2.6682487875225007
437;437;1445943010;2.11327576637;0.849972963333;0.0332314446568;2;True;41;1;2.6682487875225007
438;438;1445943010;2.11321997643;0.8496313691140001;0.0332231335342;2;True;41;1;2.6682487875225007
439;439;1445943010;2.113240242;0.849840283394;0.0332269184291;2;True;41;1;2.6682487875225007
440;440;1445943010;2.11317801476;0.8497788310050001;0.0332653671503;2;True;41;1;2.6682487875225007
441;441;1445943010;2.11297392845;0.849676430225;0.0333918407559;2;True;41;1;2.6682487875225007
442;442;1445943010;2.11323356628;0.849798560143;0.0332515537739;2;True;41;1;2.6682487875225007
443;443;1445943010;2.11328649521;0.8498574495319999;0.033233873546099996;2;True;41;1;2.6682487875225007
444;444;1445943010;2.11318206787;0.849737346172;0.0332301929593;2;True;41;1;2.6682487875225007
445;445;1445943010;2.1131732463799997;0.849759817123;0.0332505702972;2;True;41;1;2.6682487875225007
446;446;1445943010;2.11330461502;0.849896430969;0.033233359456099995;2;True;41;1;2.6682487875225007
447;447;1445943010;2.1133067607900005;0.849854946136;0.0332331433892;2;True;41;1;2.6682487875225007
448;448;1445943010;2.11319041252;0.849753499031;0.0332362242043;2;True;41;1;2.6682487875225007
449;449;1445943010;2.1132326126099996;0.849890887737;0.0332492999732;2;True;41;1;2.6682487875225007
450;450;1445943010;2.11317634583;0.8497396707529999;0.0333162285388;2;True;41;1;2.6682487875225007
451;451;1445943010;2.1132678985599997;0.849870443344;0.0332391262054;2;True;41;1;2.6682487875225007
452;452;1445943010;2.1131064891799998;0.849804282188;0.033313158899500005;2;True;41;1;2.6682487875225007
453;453;1445943010;2.1131844520599996;0.849805176258;0.033264353871299994;2;True;41;1;2.6682487875225007
454;454;1445943010;2.1131412982900004;0.849766373634;0.033248178660900005;2;True;41;1;2.6682487875225007
455;455;1445943010;2.1133041381799997;0.849895834923;0.033245805650900004;2;True;41;1;2.6682487875225007
456;456;1445943010;2.11317157745;0.84981572628;0.0332465358078;2;True;41;1;2.6682487875225007
457;457;1445943010;2.11329269409;0.8498892784119999;0.0332439988852;2;True;41;1;2.6682487875225007
458;458;1445943010;2.11329817772;0.8499720692630001;0.0332468822598;2;True;41;1;2.6682487875225007
459;459;1445943010;2.1130690574599997;0.8496581315989999;0.0332867726684;2;True;41;1;2.6682487875225007
460;460;1445943010;2.11322903633;0.849829077721;0.033232524991000004;2;True;41;1;2.6682487875225007
461;461;1445943010;2.11292505264;0.849585473537;0.0331794768572;2;True;41;1;2.6682487875225007
462;462;1445943010;2.11331295967;0.849952101707;0.033240698278000004;2;True;41;1;2.6682487875225007
463;463;1445943010;2.11325788498;0.8498506546019999;0.0332278572023;2;True;41;1;2.6682487875225007
464;464;1445943010;2.1131570339200003;0.8497700095180001;0.0332200191915;2;True;41;1;2.6682487875225007
465;465;1445943010;2.1129763126400003;0.8496541380879999;0.0333749316633;2;True;41;1;2.6682487875225007
466;466;1445943010;2.1132326126099996;0.8498538136480001;0.0332258269191;2;True;41;1;2.6682487875225007
467;467;1445943010;2.11324667931;0.849840521812;0.0332557745278;2;True;41;1;2.6682487875225007
468;468;1445943010;2.11310386658;0.849822878838;0.0332970507443;2;True;41;1;2.6682487875225007
469;469;1445943010;2.11329722404;0.849967122078;0.0332500487566;2;True;41;1;2.6682487875225007
470;470;1445943010;2.11327195168;0.8499053120610001;0.0332444347441;2;True;41;1;2.6682487875225007
471;471;1445943010;2.11304950714;0.849672496319;0.033442247659;2;True;41;1;2.6682487875225007
472;472;1445943010;2.11327815056;0.849947988987;0.0332627817988;2;True;41;1;2.6682487875225007
473;473;1445943010;2.11325335503;0.8497292995450001;0.033276271075;2;True;41;1;2.6682487875225007
474;474;1445943010;2.11297106743;0.849715828896;0.0334125384688;2;True;41;1;2.6682487875225007
475;475;1445943010;2.1132838726;0.84996587038;0.0332601852715;2;True;41;1;2.6682487875225007
476;476;1445943010;2.11314439774;0.8496442437170001;0.033270496875;2;True;41;1;2.6682487875225007
477;477;1445943010;2.11329340935;0.849954485893;0.033239629119599996;2;True;41;1;2.6682487875225007
478;478;1445943010;2.11325740814;0.8497708439830001;0.0332345999777;2;True;41;1;2.6682487875225007
479;479;1445943010;2.11312913895;0.8499011993410001;0.0332717932761;2;True;41;1;2.6682487875225007
480;480;1445943010;2.11322855949;0.8498986959460001;0.0332375653088;2;True;41;1;2.6682487875225007
481;481;1445943010;2.1132967472099997;0.849943935871;0.0332369618118;2;True;41;1;2.6682487875225007
482;482;1445943010;2.1132683754;0.8498598933220001;0.0332296192646;2;True;41;1;2.6682487875225007
483;483;1445943010;2.1132669448900003;0.8498006463050001;0.033243779093;2;True;41;1;2.6682487875225007
484;484;1445943010;2.11327576637;0.8498128652570001;0.0332442559302;2;True;41;1;2.6682487875225007
485;485;1445943010;2.11323189735;0.8498449921610001;0.033255416899900005;2;True;41;1;2.6682487875225007
486;486;1445943010;2.11327695847;0.849897146225;0.0332405865192;2;True;41;1;2.6682487875225007
487;487;1445943010;2.1132996082299997;0.849836409092;0.0332543961704;2;True;41;1;2.6682487875225007
488;488;1445943010;2.11328125;0.849786043167;0.0332426205277;2;True;41;1;2.6682487875225007
489;489;1445943010;2.1131961345700003;0.849838972092;0.0332492999732;2;True;41;1;2.6682487875225007
490;490;1445943010;2.1132669448900003;0.849945902824;0.0332298316061;2;True;41;1;2.6682487875225007
491;491;1445943010;2.1131567955;0.8497800230979999;0.033291008323400005;2;True;41;1;2.6682487875225007
492;492;1445943010;2.1130924224900003;0.849720180035;0.0332711189985;2;True;41;1;2.6682487875225007
493;493;1445943010;2.11315202713;0.84979903698;0.0332700833678;2;True;41;1;2.6682487875225007
494;494;1445943010;2.11324381828;0.849777400494;0.0332173593342;2;True;41;1;2.6682487875225007
495;495;1445943010;2.11308979988;0.849685966969;0.0332743339241;2;True;41;1;2.6682487875225007
496;496;1445943010;2.11317062378;0.849840700626;0.0332161076367;2;True;41;1;2.6682487875225007
497;497;1445943010;2.1130669117;0.849744856358;0.033293738961200005;2;True;41;1;2.6682487875225007
498;498;1445943010;2.11317205429;0.8497029542919999;0.0332020260394;2;True;41;1;2.6682487875225007
499;499;1445943010;2.11319804192;0.8498039245610001;0.0332038402557;2;True;41;1;2.6682487875225007
500;500;1445943010;2.11298441887;0.8497620224950001;0.033364970237;2;True;41;1;2.6682487875225007
501;501;1445943010;2.11329174042;0.849971175194;0.0332039147615;2;True;41;1;2.6682487875225007
502;502;1445943010;2.11318254471;0.8498257398610001;0.033225122839200004;2;True;41;1;2.6682487875225007
503;503;1445943010;2.11327052116;0.849833488464;0.033219736069400006;2;True;41;1;2.6682487875225007
504;504;1445943010;2.11329221725;0.849824309349;0.0332212671638;2;True;41;1;2.6682487875225007
505;505;1445943010;2.11319279671;0.849732100964;0.0332336314023;2;True;41;1;2.6682487875225007
506;506;1445943010;2.1132671833;0.849800467491;0.0332244709134;2;True;41;1;2.6682487875225007
507;507;1445943010;2.1132435798599998;0.8497884273530001;0.0332194678485;2;True;41;1;2.6682487875225007
508;508;1445943010;2.11317515373;0.849714338779;0.033261269331;2;True;41;1;2.6682487875225007
509;509;1445943010;2.11317944527;0.8497390151019999;0.0332200042903;2;True;41;1;2.6682487875225007
510;510;1445943010;2.1132645607;0.849867761135;0.0332241505384;2;True;41;1;2.6682487875225007
511;511;1445943010;2.1132576465599997;0.8498199582100001;0.0332027934492;2;True;41;1;2.6682487875225007
512;512;1445943010;2.11317420006;0.849787950516;0.0332644432783;2;True;41;1;2.6682487875225007
513;513;1445943010;2.11324572563;0.849783062935;0.033208578825;2;True;41;1;2.6682487875225007
514;514;1445943010;2.113260746;0.849850594997;0.0332097373903;2;True;41;1;2.6682487875225007
515;515;1445943010;2.11327075958;0.849963545799;0.0332226417959;2;True;41;1;2.6682487875225007
516;516;1445943010;2.11298680305;0.8496185541150001;0.0333364866674;2;True;41;1;2.6682487875225007
517;517;1445943010;2.11325788498;0.849852144718;0.0332119204104;2;True;41;1;2.6682487875225007
518;518;1445943010;2.1132774353;0.849975764751;0.0332052372396;2;True;41;1;2.6682487875225007
519;519;1445943010;2.11328792572;0.849970340729;0.0332184769213;2;True;41;1;2.6682487875225007
520;520;1445943010;2.11327600479;0.849852740765;0.0332035198808;2;True;41;1;2.6682487875225007
521;521;1445943010;2.1132583618200003;0.84993994236;0.0332177244127;2;True;41;1;2.6682487875225007
522;522;1445943010;2.11328458786;0.849874615669;0.033207077533;2;True;41;1;2.6682487875225007
523;523;1445943010;2.1132569313;0.8498761057850001;0.0332240946591;2;True;41;1;2.6682487875225007
524;524;1445943010;2.1132683754;0.849944591522;0.0332208164036;2;True;41;1;2.6682487875225007
525;525;1445943010;2.11329197884;0.849889338017;0.033216457814000004;2;True;41;1;2.6682487875225007
526;526;1445943010;2.1131696701;0.849758148193;0.0332258194685;2;True;41;1;2.6682487875225007
527;527;1445943010;2.11325025558;0.84987694025;0.033209718763799995;2;True;41;1;2.6682487875225007
528;528;1445943010;2.11326599121;0.849966704845;0.0332134738564;2;True;41;1;2.6682487875225007
529;529;1445943010;2.1132762432099996;0.8499863743780001;0.0332214832306;2;True;41;1;2.6682487875225007
530;530;1445943010;2.11328864098;0.849906027317;0.0332136973739;2;True;41;1;2.6682487875225007
531;531;1445943010;2.11320400238;0.84983164072;0.0332070589066;2;True;41;1;2.6682487875225007
532;532;1445943010;2.1132144928;0.849806666374;0.03321570158;2;True;41;1;2.6682487875225007
533;533;1445943010;2.11312699318;0.8497567772869999;0.033228036016199995;2;True;41;1;2.6682487875225007
534;534;1445943010;2.11322116852;0.8498442769050001;0.0332105830312;2;True;41;1;2.6682487875225007
535;535;1445943010;2.11324381828;0.849940598011;0.0332146584988;2;True;41;1;2.6682487875225007
536;536;1445943010;2.11323904991;0.849870443344;0.0332046635449;2;True;41;1;2.6682487875225007
537;537;1445943010;2.11329054832;0.849911212921;0.0332155227661;2;True;41;1;2.6682487875225007
538;538;1445943010;2.11329650879;0.84999191761;0.0332190170884;2;True;41;1;2.6682487875225007
539;539;1445943010;2.11319994926;0.849724113941;0.0332231633365;2;True;41;1;2.6682487875225007
540;540;1445943010;2.1132140159599997;0.8498289585109999;0.033203035592999995;2;True;41;1;2.6682487875225007
541;541;1445943010;2.11301755905;0.849721491337;0.0333321467042;2;True;41;1;2.6682487875225007
542;542;1445943010;2.11326646805;0.849956572056;0.033213339746;2;True;41;1;2.6682487875225007
543;543;1445943010;2.11324095726;0.8498130440710001;0.0332062132657;2;True;41;1;2.6682487875225007
544;544;1445943010;2.11323928833;0.849928736687;0.0332201719284;2;True;41;1;2.6682487875225007
545;545;1445943010;2.1131367683400004;0.84968572855;0.0332589633763;2;True;41;1;2.6682487875225007
546;546;1445943010;2.11313247681;0.849789083004;0.0332757718861;2;True;41;1;2.6682487875225007
547;547;1445943010;2.11290597916;0.849682688713;0.0332835577428;2;True;41;1;2.6682487875225007
548;548;1445943010;2.11316990852;0.849897623062;0.0332435183227;2;True;41;1;2.6682487875225007
549;549;1445943010;2.11299872398;0.849721431732;0.0333728902042;2;True;41;1;2.6682487875225007
550;550;1445943010;2.1131613254499997;0.84972846508;0.0332383960485;2;True;41;1;2.6682487875225007
551;551;1445943010;2.1131711006200002;0.84982919693;0.0332364998758;2;True;41;1;2.6682487875225007
552;552;1445943010;2.1132817268400004;0.849878251553;0.033232048153900004;2;True;41;1;2.6682487875225007
553;553;1445943010;2.11328649521;0.8499666452410001;0.0332352854311;2;True;41;1;2.6682487875225007
554;554;1445943010;2.11328196526;0.8499805331229999;0.033237256109700006;2;True;41;1;2.6682487875225007
555;555;1445943011;2.11308050156;0.8497080802920001;0.0333283692598;3;True;41;1;2.6682487875225007
556;556;1445943011;2.11309289932;0.849722266197;0.0332737863064;3;True;41;1;2.6682487875225007
557;557;1445943011;2.1131935119599996;0.8497498035430001;0.0332132093608;3;True;41;1;2.6682487875225007
558;558;1445943011;2.11325526237;0.849868535995;0.0332122780383;3;True;41;1;2.6682487875225007
559;559;1445943011;2.11321878433;0.849754989147;0.0332267396152;3;True;41;1;2.6682487875225007
560;560;1445943011;2.11323094368;0.84995007515;0.0332095995545;3;True;41;1;2.6682487875225007
561;561;1445943011;2.1132073402400002;0.849773287773;0.033210281282700004;3;True;41;1;2.6682487875225007
562;562;1445943011;2.1129860878;0.849792838097;0.033307570964099996;3;True;41;1;2.6682487875225007
563;563;1445943011;2.11315441132;0.849806547165;0.033276092261099996;3;True;41;1;2.6682487875225007
564;564;1445943011;2.1131961345700003;0.849832952023;0.0332249775529;3;True;41;1;2.6682487875225007
565;565;1445943011;2.11314296722;0.849796950817;0.0332779176533;3;True;41;1;2.6682487875225007
566;566;1445943011;2.11328363419;0.849836528301;0.0332410819829;3;True;41;1;2.6682487875225007
567;567;1445943011;2.1131646633099996;0.849787652493;0.033249571919400006;3;True;41;1;2.6682487875225007
568;568;1445943011;2.11327934265;0.849887907505;0.0332423262298;3;True;41;1;2.6682487875225007
569;569;1445943011;2.11318945885;0.8498136401180001;0.0332247279584;3;True;41;1;2.6682487875225007
570;570;1445943011;2.11326861382;0.8498149514200001;0.0332291536033;3;True;41;1;2.6682487875225007
571;571;1445943011;2.11322498322;0.8497722148899999;0.0332250744104;3;True;41;1;2.6682487875225007
572;572;1445943011;2.1132557392099995;0.8498311638830001;0.0332175828516;3;True;41;1;2.6682487875225007
573;573;1445943011;2.11296844482;0.8496900796889999;0.033366717398200005;3;True;41;1;2.6682487875225007
574;574;1445943011;2.11329388618;0.849916696548;0.033220455050499996;3;True;41;1;2.6682487875225007
575;575;1445943011;2.11318254471;0.8499090075489999;0.0332181751728;3;True;41;1;2.6682487875225007
576;576;1445943011;2.11324071884;0.8497954010959999;0.033226441592;3;True;41;1;2.6682487875225007
577;577;1445943011;2.1130826473199997;0.849681317806;0.0332576185465;3;True;41;1;2.6682487875225007
578;578;1445943011;2.11312556267;0.849791109562;0.0332178398967;3;True;41;1;2.6682487875225007
579;579;1445943011;2.11298823357;0.8495274782179999;0.0335253849626;3;True;41;1;2.6682487875225007
580;580;1445943011;2.1131670475;0.84979903698;0.0332291834056;3;True;41;1;2.6682487875225007
581;581;1445943011;2.11320877075;0.8497813343999999;0.0332265198231;3;True;41;1;2.6682487875225007
582;582;1445943011;2.11317205429;0.849803388119;0.033300217241000005;3;True;41;1;2.6682487875225007
583;583;1445943011;2.11324071884;0.849798858166;0.033230278641;3;True;41;1;2.6682487875225007
584;584;1445943011;2.11322951317;0.849863111973;0.033241558819999996;3;True;41;1;2.6682487875225007
585;585;1445943011;2.11318087578;0.849775791168;0.0332268513739;3;True;41;1;2.6682487875225007
586;586;1445943011;2.11315655708;0.849856138229;0.0332536697388;3;True;41;1;2.6682487875225007
587;587;1445943011;2.11328959465;0.849868237972;0.0332166180015;3;True;41;1;2.6682487875225007
588;588;1445943011;2.1132838726;0.849995195866;0.0332228690386;3;True;41;1;2.6682487875225007
589;589;1445943011;2.11319828033;0.8498206138609999;0.0332151725888;3;True;41;1;2.6682487875225007
590;590;1445943011;2.11324834824;0.84984600544;0.033207677304700006;3;True;41;1;2.6682487875225007
591;591;1445943011;2.1132838726;0.849979996681;0.0332216694951;3;True;41;1;2.6682487875225007
592;592;1445943011;2.11297488213;0.8497049808499999;0.0333700813353;3;True;41;1;2.6682487875225007
593;593;1445943011;2.11313462257;0.8498396277429999;0.0332451164722;3;True;41;1;2.6682487875225007
594;594;1445943011;2.1131179332700003;0.8496698737139999;0.0332654006779;3;True;41;1;2.6682487875225007
595;595;1445943011;2.1129467487299998;0.849642515182;0.0332938507199;3;True;41;1;2.6682487875225007
596;596;1445943011;2.11316514015;0.8499089479449999;0.0332718901336;3;True;41;1;2.6682487875225007
597;597;1445943011;2.11325955391;0.849965155125;0.0332285836339;3;True;41;1;2.6682487875225007
598;598;1445943011;2.11316776276;0.8497898578640001;0.0332209914923;3;True;41;1;2.6682487875225007
599;599;1445943011;2.11327576637;0.849854528904;0.033227015286699996;3;True;41;1;2.6682487875225007
600;600;1445943011;2.11328721046;0.850001633167;0.0332352779806;3;True;41;1;2.6682487875225007
601;601;1445943011;2.1132559776299997;0.8497939705850001;0.0332389213145;3;True;41;1;2.6682487875225007
602;602;1445943011;2.11328697205;0.850014090538;0.0332289263606;3;True;41;1;2.6682487875225007
603;603;1445943011;2.1132543087;0.8499599099160001;0.033226732164599995;3;True;41;1;2.6682487875225007
604;604;1445943011;2.11328005791;0.849840223789;0.033233497291799995;3;True;41;1;2.6682487875225007
