;Unnamed: 0;header_stamp_secs;pose_position_x;pose_position_y;pose_position_z;seconds;drop_values;flight_number;label;dtw
0;0;1449492644;2.19459939003;0.830837190151;0.0684604123235;0;True;42;1;79.36938919127198
1;1;1449492644;2.19441151619;0.830718517303;0.06843480467799999;0;True;42;1;79.36938919127198
2;2;1449492644;2.1946306228599997;0.830867707729;0.0684424862266;0;True;42;1;79.36938919127198
3;3;1449492644;2.19461989403;0.830928146839;0.0684244185686;0;True;42;1;79.36938919127198
4;4;1449492644;2.1946206092800002;0.83083152771;0.0685108080506;0;True;42;1;79.36938919127198
5;5;1449492644;2.1946079731;0.830855429173;0.0684785097837;0;True;42;1;79.36938919127198
6;6;1449492644;2.1944766044599997;0.830816030502;0.0684596374631;0;True;42;1;79.36938919127198
7;7;1449492644;2.19463157654;0.8308672308920001;0.0684470161796;0;True;42;1;79.36938919127198
8;8;1449492644;2.19462704659;0.830920577049;0.0684426799417;0;True;42;1;79.36938919127198
9;9;1449492644;2.194617033;0.830893814564;0.0684385970235;0;True;42;1;79.36938919127198
10;10;1449492644;2.1945619583099996;0.830837786198;0.0684797763824;0;True;42;1;79.36938919127198
11;11;1449492644;2.1945862770099995;0.830848157406;0.068517588079;0;True;42;1;79.36938919127198
12;12;1449492644;2.19461083412;0.830843865871;0.0684908777475;0;True;42;1;79.36938919127198
13;13;1449492644;2.19461965561;0.8308526277539999;0.0684951245785;0;True;42;1;79.36938919127198
14;14;1449492644;2.19461464882;0.83083230257;0.068469889462;0;True;42;1;79.36938919127198
15;15;1449492644;2.19464230537;0.830894827843;0.0684631541371;0;True;42;1;79.36938919127198
16;16;1449492644;2.19467306137;0.83087927103;0.0685107707977;0;True;42;1;79.36938919127198
17;17;1449492644;2.1946742534599997;0.8308762311939999;0.0685069262981;0;True;42;1;79.36938919127198
18;18;1449492644;2.19463944435;0.8308902978899999;0.0684661716223;0;True;42;1;79.36938919127198
19;19;1449492644;2.19463849068;0.83092802763;0.068450987339;0;True;42;1;79.36938919127198
20;20;1449492644;2.1946952343;0.830884814262;0.06849013268950001;0;True;42;1;79.36938919127198
21;21;1449492644;2.1946518421200003;0.8309328556059999;0.0684573724866;0;True;42;1;79.36938919127198
22;22;1449492644;2.1947174072299998;0.830893576145;0.0684992745519;0;True;42;1;79.36938919127198
23;23;1449492644;2.1946532726299997;0.830889284611;0.0684679672122;0;True;42;1;79.36938919127198
24;24;1449492644;2.19467520714;0.83088439703;0.0685576274991;0;True;42;1;79.36938919127198
25;25;1449492644;2.19467711449;0.8309237957;0.06846574693919999;0;True;42;1;79.36938919127198
26;26;1449492644;2.1946353912400003;0.8308416008949999;0.0685605630279;0;True;42;1;79.36938919127198
27;27;1449492644;2.19466280937;0.8309263587000001;0.0684695765376;0;True;42;1;79.36938919127198
28;28;1449492644;2.19466948509;0.830921292305;0.0684719234705;0;True;42;1;79.36938919127198
29;29;1449492644;2.19469213486;0.830877959728;0.0685205459595;0;True;42;1;79.36938919127198
30;30;1449492644;2.1946318149599997;0.8308416605;0.0685061812401;0;True;42;1;79.36938919127198
31;31;1449492644;2.19465208054;0.830895423889;0.0684854015708;0;True;42;1;79.36938919127198
32;32;1449492644;2.19470787048;0.8308587074279999;0.06857664883140001;0;True;42;1;79.36938919127198
33;33;1449492644;2.1946523189500002;0.8308563232420001;0.0685202926397;0;True;42;1;79.36938919127198
34;34;1449492644;2.19471383095;0.830879747868;0.0685961320996;0;True;42;1;79.36938919127198
35;35;1449492644;2.1945662498500003;0.830841839314;0.0684827715158;0;True;42;1;79.36938919127198
36;36;1449492644;2.1945335865;0.8308109045029999;0.0685650780797;0;True;42;1;79.36938919127198
37;37;1449492644;2.19465517998;0.830870211124;0.0684911981225;0;True;42;1;79.36938919127198
38;38;1449492644;2.1946539878799998;0.8308721184729999;0.0684812441468;0;True;42;1;79.36938919127198
39;39;1449492644;2.19462037086;0.8308416605;0.0685319527984;0;True;42;1;79.36938919127198
40;40;1449492644;2.19464159012;0.830878973007;0.0684683024883;0;True;42;1;79.36938919127198
41;41;1449492644;2.19462347031;0.83088850975;0.06853235512969999;0;True;42;1;79.36938919127198
42;42;1449492644;2.1946556568099997;0.830909848213;0.0684756189585;0;True;42;1;79.36938919127198
43;43;1449492644;2.1947464942900003;0.830904781818;0.0685929581523;0;True;42;1;79.36938919127198
44;44;1449492644;2.19465446472;0.83091622591;0.0684570968151;0;True;42;1;79.36938919127198
45;45;1449492644;2.19450759888;0.830761492252;0.0685085877776;0;True;42;1;79.36938919127198
46;46;1449492644;2.19457173347;0.830810368061;0.0685474127531;0;True;42;1;79.36938919127198
47;47;1449492644;2.1947259903;0.8308940529819999;0.0686197206378;0;True;42;1;79.36938919127198
48;48;1449492644;2.19460701942;0.8308374881739999;0.0685403943062;0;True;42;1;79.36938919127198
49;49;1449492644;2.19453334808;0.830800890923;0.0685477405787;0;True;42;1;79.36938919127198
50;50;1449492644;2.19470238686;0.8308890461920001;0.06849177926780001;0;True;42;1;79.36938919127198
51;51;1449492644;2.1946697235099997;0.830858170986;0.0685152336955;0;True;42;1;79.36938919127198
52;52;1449492644;2.1946318149599997;0.8308587074279999;0.068459764123;0;True;42;1;79.36938919127198
53;53;1449492644;2.19453620911;0.8307769894600001;0.0685380846262;0;True;42;1;79.36938919127198
54;54;1449492644;2.19459939003;0.830821573734;0.0684828907251;0;True;42;1;79.36938919127198
55;55;1449492644;2.1945340633400003;0.8307973742489999;0.06852967292069999;0;True;42;1;79.36938919127198
56;56;1449492644;2.19458031654;0.830831110477;0.0685264468193;0;True;42;1;79.36938919127198
57;57;1449492644;2.19461536407;0.830842077732;0.0685031563044;0;True;42;1;79.36938919127198
58;58;1449492644;2.19460630417;0.830892682076;0.0684284940362;0;True;42;1;79.36938919127198
59;59;1449492644;2.19464349747;0.830863773823;0.0684479176998;0;True;42;1;79.36938919127198
60;60;1449492644;2.19462347031;0.830863177776;0.0684405118227;0;True;42;1;79.36938919127198
61;61;1449492644;2.19472289085;0.830901801586;0.0685732290149;0;True;42;1;79.36938919127198
62;62;1449492644;2.1945619583099996;0.8308292627330001;0.0684983730316;0;True;42;1;79.36938919127198
63;63;1449492644;2.19462943077;0.8308658599850001;0.0684630051255;0;True;42;1;79.36938919127198
64;64;1449492644;2.1946096420299996;0.830857515335;0.0684352442622;0;True;42;1;79.36938919127198
65;65;1449492644;2.1946914196000002;0.830910623074;0.06844447553159999;0;True;42;1;79.36938919127198
66;66;1449492644;2.19460177422;0.8308365941050001;0.0684534534812;0;True;42;1;79.36938919127198
67;67;1449492644;2.19460654259;0.8309530615809999;0.0684129372239;0;True;42;1;79.36938919127198
68;68;1449492644;2.19459724426;0.8308508396150001;0.068428017199;0;True;42;1;79.36938919127198
69;69;1449492644;2.19460344315;0.830878019333;0.06842047721149999;0;True;42;1;79.36938919127198
70;70;1449492644;2.19459748268;0.8308831453319999;0.0684157460928;0;True;42;1;79.36938919127198
71;71;1449492644;2.19461297989;0.83084833622;0.0684344395995;0;True;42;1;79.36938919127198
72;72;1449492644;2.19460010529;0.8308576345440001;0.0684422776103;0;True;42;1;79.36938919127198
73;73;1449492644;2.1946015358;0.8308768272399999;0.0684216842055;0;True;42;1;79.36938919127198
74;74;1449492644;2.19477844238;0.830933153629;0.0684934258461;0;True;42;1;79.36938919127198
75;75;1449492644;2.19460272789;0.8309058547020001;0.0684227496386;0;True;42;1;79.36938919127198
76;76;1449492644;2.19461226463;0.83084833622;0.0684748217463;0;True;42;1;79.36938919127198
77;77;1449492644;2.19460105896;0.830876588821;0.0684209540486;0;True;42;1;79.36938919127198
78;78;1449492644;2.19459319115;0.830856263638;0.06842035800219999;0;True;42;1;79.36938919127198
79;79;1449492644;2.19459080696;0.830847978592;0.0684823170304;0;True;42;1;79.36938919127198
80;80;1449492644;2.19457101822;0.8308709263799999;0.0684208571911;0;True;42;1;79.36938919127198
81;81;1449492644;2.19458675385;0.830830335617;0.068489395082;0;True;42;1;79.36938919127198
82;82;1449492644;2.19457530975;0.83084666729;0.0684539303184;0;True;42;1;79.36938919127198
83;83;1449492644;2.1945917606400003;0.830864191055;0.06841497123240001;0;True;42;1;79.36938919127198
84;84;1449492644;2.19465732574;0.830851256847;0.0685002356768;0;True;42;1;79.36938919127198
85;85;1449492644;2.1945860385900002;0.8308858275409999;0.0684084966779;0;True;42;1;79.36938919127198
86;86;1449492644;2.19461226463;0.8308831453319999;0.0684178695083;0;True;42;1;79.36938919127198
87;87;1449492644;2.19460487366;0.830884754658;0.0684168487787;0;True;42;1;79.36938919127198
88;88;1449492644;2.1945874691;0.830847918987;0.0684258416295;0;True;42;1;79.36938919127198
89;89;1449492644;2.19459462166;0.830902218819;0.06839963793750001;0;True;42;1;79.36938919127198
90;90;1449492644;2.1945822238900003;0.830859959126;0.0684319660068;0;True;42;1;79.36938919127198
91;91;1449492644;2.19466614723;0.830844521523;0.068515829742;0;True;42;1;79.36938919127198
92;92;1449492644;2.1946086883500002;0.8308660387989999;0.0684734806418;0;True;42;1;79.36938919127198
93;93;1449492644;2.19460105896;0.8308666348459999;0.0684535130858;0;True;42;1;79.36938919127198
94;94;1449492644;2.1945681572;0.830851256847;0.068480476737;0;True;42;1;79.36938919127198
95;95;1449492644;2.19460105896;0.8308606147769999;0.0684293061495;0;True;42;1;79.36938919127198
96;96;1449492644;2.19464182854;0.830869078636;0.0684603899717;0;True;42;1;79.36938919127198
97;97;1449492644;2.1945981979400004;0.8308768868449999;0.0684220865369;0;True;42;1;79.36938919127198
98;98;1449492644;2.1946055889099996;0.830903053284;0.0684156566858;0;True;42;1;79.36938919127198
99;99;1449492644;2.19445014;0.8308522105220001;0.0684139877558;0;True;42;1;79.36938919127198
100;100;1449492644;2.19456863403;0.8308045864110001;0.06846353411669999;0;True;42;1;79.36938919127198
101;101;1449492644;2.19467020035;0.8309011459350001;0.068535387516;0;True;42;1;79.36938919127198
102;102;1449492644;2.19461584091;0.830914616585;0.0684180259705;0;True;42;1;79.36938919127198
103;103;1449492644;2.19471764565;0.8309144377709999;0.068478256464;0;True;42;1;79.36938919127198
104;104;1449492644;2.1946213245400004;0.830897688866;0.0684242770076;0;True;42;1;79.36938919127198
105;105;1449492644;2.19470620155;0.8308944702150001;0.0685771480203;0;True;42;1;79.36938919127198
106;106;1449492644;2.1946222782099998;0.830862760544;0.0684692934155;0;True;42;1;79.36938919127198
107;107;1449492644;2.19460725784;0.830879867077;0.06842866539959999;0;True;42;1;79.36938919127198
108;108;1449492644;2.19460916519;0.830892860889;0.0684243068099;0;True;42;1;79.36938919127198
109;109;1449492644;2.1945745944999997;0.830843567848;0.0684475973248;0;True;42;1;79.36938919127198
110;110;1449492644;2.1945152282700002;0.8307830691339999;0.0684549883008;0;True;42;1;79.36938919127198
111;111;1449492644;2.1946876049;0.830905079842;0.068445943296;0;True;42;1;79.36938919127198
112;112;1449492644;2.19461870193;0.8308680057529999;0.0684368312359;0;True;42;1;79.36938919127198
113;113;1449492644;2.19462299347;0.830875694752;0.068495772779;0;True;42;1;79.36938919127198
114;114;1449492644;2.19461917877;0.830933511257;0.068433187902;0;True;42;1;79.36938919127198
115;115;1449492644;2.19464349747;0.830893814564;0.0684362500906;0;True;42;1;79.36938919127198
116;116;1449492644;2.19463396072;0.830872476101;0.06847190856930001;0;True;42;1;79.36938919127198
117;117;1449492644;2.19450283051;0.830779969692;0.0685146823525;0;True;42;1;79.36938919127198
118;118;1449492644;2.19458842278;0.8308796286579999;0.06845454126600001;0;True;42;1;79.36938919127198
119;119;1449492644;2.19458460808;0.830872416496;0.0684931278229;0;True;42;1;79.36938919127198
120;120;1449492644;2.19462752342;0.8308672308920001;0.0684865415096;0;True;42;1;79.36938919127198
121;121;1449492644;2.19462585449;0.830915689468;0.0684272646904;0;True;42;1;79.36938919127198
122;122;1449492644;2.1945910453799997;0.830834329128;0.068538531661;0;True;42;1;79.36938919127198
123;123;1449492644;2.1946291923500003;0.8308708071709999;0.0684820637107;0;True;42;1;79.36938919127198
124;124;1449492644;2.19462251663;0.8308477997779999;0.0685177519917;0;True;42;1;79.36938919127198
125;125;1449492644;2.19455909729;0.8308172822;0.0685207992792;0;True;42;1;79.36938919127198
126;126;1449492644;2.1946206092800002;0.830873191357;0.0684356242418;0;True;42;1;79.36938919127198
127;127;1449492644;2.1945860385900002;0.8308400511740001;0.0685108527541;0;True;42;1;79.36938919127198
128;128;1449492644;2.19460725784;0.83085411787;0.0684753209352;0;True;42;1;79.36938919127198
129;129;1449492644;2.19463896751;0.830871462822;0.0684907585382;0;True;42;1;79.36938919127198
130;130;1449492644;2.1946318149599997;0.8308448195460001;0.068507835269;0;True;42;1;79.36938919127198
131;131;1449492644;2.19462656975;0.83088850975;0.0684422403574;0;True;42;1;79.36938919127198
132;132;1449492644;2.19460368156;0.830832958221;0.0684886574745;0;True;42;1;79.36938919127198
133;133;1449492644;2.1947312355;0.830884635448;0.0685705468059;0;True;42;1;79.36938919127198
134;134;1449492644;2.1946086883500002;0.83083230257;0.0684868618846;0;True;42;1;79.36938919127198
135;135;1449492644;2.19463443756;0.830878615379;0.0684461444616;0;True;42;1;79.36938919127198
136;136;1449492644;2.19462895393;0.8309109807009999;0.068443454802;0;True;42;1;79.36938919127198
137;137;1449492644;2.19456362724;0.830812871456;0.0685234591365;0;True;42;1;79.36938919127198
138;138;1449492644;2.19454360008;0.830789506435;0.0684874430299;0;True;42;1;79.36938919127198
139;139;1449492644;2.1946310997;0.830913007259;0.0684361383319;0;True;42;1;79.36938919127198
140;140;1449492644;2.19464278221;0.8309109210969999;0.0684403926134;0;True;42;1;79.36938919127198
141;141;1449492644;2.19462871552;0.830877423286;0.06843880563969999;0;True;42;1;79.36938919127198
142;142;1449492644;2.19468307495;0.8308559060100001;0.0685180798173;0;True;42;1;79.36938919127198
143;143;1449492644;2.19463276863;0.830873310566;0.0684372112155;0;True;42;1;79.36938919127198
144;144;1449492644;2.19458508492;0.83082139492;0.0685148462653;0;True;42;1;79.36938919127198
145;145;1449492644;2.1946353912400003;0.8308551311489999;0.0685019269586;0;True;42;1;79.36938919127198
146;146;1449492644;2.19452762604;0.830785810947;0.0685310065746;0;True;42;1;79.36938919127198
147;147;1449492644;2.1946284771;0.830869615078;0.0684336945415;0;True;42;1;79.36938919127198
148;148;1449492644;2.1946346759799997;0.830857932568;0.0684417113662;0;True;42;1;79.36938919127198
149;149;1449492644;2.19475364685;0.8309192657469999;0.068481579423;0;True;42;1;79.36938919127198
150;150;1449492644;2.19462680817;0.830872356892;0.06849811226130001;0;True;42;1;79.36938919127198
151;151;1449492644;2.1946067810099996;0.830856859684;0.06846068799499999;0;True;42;1;79.36938919127198
152;152;1449492644;2.1946256160699997;0.830866217613;0.0684530511498;0;True;42;1;79.36938919127198
153;153;1449492644;2.1946449279799998;0.830899596214;0.0684354156256;0;True;42;1;79.36938919127198
154;154;1449492644;2.19464278221;0.830866992474;0.0684462934732;0;True;42;1;79.36938919127198
155;155;1449492644;2.1946449279799998;0.83085078001;0.06845228374;0;True;42;1;79.36938919127198
156;156;1449492644;2.1946723461200004;0.8308727741240001;0.06845485419030001;0;True;42;1;79.36938919127198
157;157;1449492644;2.19463157654;0.830857515335;0.0684507191181;0;True;42;1;79.36938919127198
158;158;1449492644;2.1946346759799997;0.8308618068699999;0.06844074279069999;0;True;42;1;79.36938919127198
159;159;1449492644;2.19464039803;0.830904901028;0.06843527406449999;0;True;42;1;79.36938919127198
160;160;1449492644;2.1946618556999997;0.830871462822;0.068470261991;0;True;42;1;79.36938919127198
161;161;1449492644;2.19464159012;0.830881357193;0.0684540197253;0;True;42;1;79.36938919127198
162;162;1449492644;2.1946523189500002;0.8309021592139999;0.0684482306242;0;True;42;1;79.36938919127198
163;163;1449492644;2.19463205338;0.8308598399160001;0.0684588700533;0;True;42;1;79.36938919127198
164;164;1449492644;2.19461011887;0.830867648125;0.0684752911329;0;True;42;1;79.36938919127198
165;165;1449492644;2.1946618556999997;0.8309121131899999;0.0684555768967;0;True;42;1;79.36938919127198
166;166;1449492644;2.19463801384;0.830870568752;0.0684539452195;0;True;42;1;79.36938919127198
167;167;1449492644;2.1946175098400005;0.830851554871;0.0685072764754;0;True;42;1;79.36938919127198
168;168;1449492644;2.1946387291;0.83085757494;0.06845968216659999;0;True;42;1;79.36938919127198
169;169;1449492644;2.1946284771;0.8308897614480001;0.0684422403574;0;True;42;1;79.36938919127198
170;170;1449492644;2.1946067810099996;0.830835998058;0.0684766545892;0;True;42;1;79.36938919127198
171;171;1449492644;2.1946959495500002;0.830887317657;0.06847178936000001;0;True;42;1;79.36938919127198
172;172;1449492644;2.19469618797;0.830883800983;0.0684866383672;0;True;42;1;79.36938919127198
173;173;1449492644;2.1946246624000003;0.8308657407760001;0.0684564113617;0;True;42;1;79.36938919127198
174;174;1449492644;2.1945474147799997;0.830788016319;0.06854104995730001;0;True;42;1;79.36938919127198
175;175;1449492644;2.19446849823;0.830840170383;0.0684363916516;0;True;42;1;79.36938919127198
176;176;1449492644;2.1946375369999997;0.830909013748;0.0684367269278;0;True;42;1;79.36938919127198
177;177;1449492644;2.19464254379;0.830879151821;0.0684485882521;0;True;42;1;79.36938919127198
178;178;1449492644;2.19462490082;0.830878615379;0.0684786662459;0;True;42;1;79.36938919127198
179;179;1449492644;2.1946721077;0.83085745573;0.0685160458088;0;True;42;1;79.36938919127198
180;180;1449492644;2.1947741508500003;0.830914616585;0.0684995651245;0;True;42;1;79.36938919127198
181;181;1449492644;2.1945619583099996;0.830834388733;0.0684974193573;0;True;42;1;79.36938919127198
182;182;1449492644;2.19471883774;0.830906808376;0.068470902741;0;True;42;1;79.36938919127198
183;183;1449492644;2.19463801384;0.830927908421;0.0684308335185;0;True;42;1;79.36938919127198
184;184;1449492644;2.19460916519;0.830861270428;0.0684454366565;0;True;42;1;79.36938919127198
185;185;1449492644;2.19466710091;0.8308631181720001;0.0685101747513;0;True;42;1;79.36938919127198
186;186;1449492644;2.19462037086;0.830869197845;0.0684658810496;0;True;42;1;79.36938919127198
187;187;1449492644;2.19464278221;0.830884695053;0.068438641727;0;True;42;1;79.36938919127198
188;188;1449492645;2.1945741176599998;0.830843150616;0.0685127750039;1;True;42;1;79.36938919127198
189;189;1449492645;2.19459462166;0.830870509148;0.0684443712234;1;True;42;1;79.36938919127198
190;190;1449492645;2.1946251392400002;0.830863714218;0.0684716850519;1;True;42;1;79.36938919127198
191;191;1449492645;2.19461584091;0.830920100212;0.0684204995632;1;True;42;1;79.36938919127198
192;192;1449492645;2.1945848465;0.830831885338;0.0684791281819;1;True;42;1;79.36938919127198
193;193;1449492645;2.19453620911;0.8308115005490001;0.0685219690204;1;True;42;1;79.36938919127198
194;194;1449492645;2.19461774826;0.830901801586;0.0684462562203;1;True;42;1;79.36938919127198
195;195;1449492645;2.1945097446400004;0.830866575241;0.0684153214097;1;True;42;1;79.36938919127198
196;196;1449492645;2.19466018677;0.830882668495;0.06845549494030001;1;True;42;1;79.36938919127198
197;197;1449492645;2.1945741176599998;0.8308647274969999;0.0684598311782;1;True;42;1;79.36938919127198
198;198;1449492645;2.19459199905;0.830871760845;0.0684587806463;1;True;42;1;79.36938919127198
199;199;1449492645;2.19457530975;0.8308715224269999;0.0684441104531;1;True;42;1;79.36938919127198
200;200;1449492645;2.19466614723;0.830865800381;0.0685051456094;1;True;42;1;79.36938919127198
201;201;1449492645;2.19463658333;0.8308734297750001;0.0684711635113;1;True;42;1;79.36938919127198
202;202;1449492645;2.1945836544;0.830845236778;0.0684741958976;1;True;42;1;79.36938919127198
203;203;1449492645;2.1946747303;0.830892205238;0.06848122924569999;1;True;42;1;79.36938919127198
204;204;1449492645;2.19454097748;0.830824673176;0.0684854239225;1;True;42;1;79.36938919127198
205;205;1449492645;2.19455838203;0.830871403217;0.06840585172180001;1;True;42;1;79.36938919127198
206;206;1449492645;2.19466853142;0.830905795097;0.0685319527984;1;True;42;1;79.36938919127198
207;207;1449492645;2.19462180138;0.8309230208399999;0.0684219673276;1;True;42;1;79.36938919127198
208;208;1449492645;2.19462418556;0.830899715424;0.06843367218969999;1;True;42;1;79.36938919127198
209;209;1449492645;2.1946408748599997;0.83085757494;0.068471416831;1;True;42;1;79.36938919127198
210;210;1449492645;2.19462656975;0.830924451351;0.0684185102582;1;True;42;1;79.36938919127198
211;211;1449492645;2.19459605217;0.830866277218;0.06845485419030001;1;True;42;1;79.36938919127198
212;212;1449492645;2.19458937645;0.830885767937;0.0684184059501;1;True;42;1;79.36938919127198
213;213;1449492645;2.1946725845299997;0.8309133648870001;0.0684298202395;1;True;42;1;79.36938919127198
214;214;1449492645;2.19457888603;0.8308340907100001;0.0684976950288;1;True;42;1;79.36938919127198
215;215;1449492645;2.1945545673400004;0.830876350403;0.06841068714859999;1;True;42;1;79.36938919127198
216;216;1449492645;2.19456577301;0.8308442831039999;0.0684643164277;1;True;42;1;79.36938919127198
217;217;1449492645;2.1946074962599997;0.8309047222139999;0.0684207603335;1;True;42;1;79.36938919127198
218;218;1449492645;2.1946120262099997;0.830881357193;0.0684335231781;1;True;42;1;79.36938919127198
219;219;1449492645;2.19460844994;0.830896496773;0.0684347003698;1;True;42;1;79.36938919127198
220;220;1449492645;2.1946120262099997;0.830896317959;0.06843303889039999;1;True;42;1;79.36938919127198
221;221;1449492645;2.19461464882;0.830875992775;0.0684418007731;1;True;42;1;79.36938919127198
222;222;1449492645;2.19460272789;0.830849766731;0.0684926509857;1;True;42;1;79.36938919127198
223;223;1449492645;2.19460129738;0.830871880054;0.0684438422322;1;True;42;1;79.36938919127198
224;224;1449492645;2.19461894035;0.830910265446;0.0684421658516;1;True;42;1;79.36938919127198
225;225;1449492645;2.19462442398;0.830866336823;0.068490549922;1;True;42;1;79.36938919127198
226;226;1449492645;2.1946182250999997;0.830864906311;0.0684445425868;1;True;42;1;79.36938919127198
227;227;1449492645;2.19460248947;0.8308439254760001;0.06849073618649999;1;True;42;1;79.36938919127198
228;228;1449492645;2.19460988045;0.8309072852130001;0.068425744772;1;True;42;1;79.36938919127198
229;229;1449492645;2.19462633133;0.830892860889;0.06849523633719999;1;True;42;1;79.36938919127198
230;230;1449492645;2.19460511208;0.830910265446;0.0684270113707;1;True;42;1;79.36938919127198
231;231;1449492645;2.19449067116;0.830864906311;0.068451307714;1;True;42;1;79.36938919127198
232;232;1449492645;2.19460272789;0.830897927284;0.0684237852693;1;True;42;1;79.36938919127198
233;233;1449492645;2.19452142715;0.8307986855509999;0.0685257390141;1;True;42;1;79.36938919127198
234;234;1449492645;2.19464564323;0.830869793892;0.06849692016839999;1;True;42;1;79.36938919127198
235;235;1449492645;2.19459915161;0.8308753371240001;0.068437628448;1;True;42;1;79.36938919127198
236;236;1449492645;2.19466209412;0.830883920193;0.0684528574347;1;True;42;1;79.36938919127198
237;237;1449492645;2.19465303421;0.8308728337289999;0.06849017739299999;1;True;42;1;79.36938919127198
238;238;1449492645;2.1946008205400003;0.830895721912;0.0684375688434;1;True;42;1;79.36938919127198
239;239;1449492645;2.1946067810099996;0.8309252262119999;0.06842444092040001;1;True;42;1;79.36938919127198
240;240;1449492645;2.19457173347;0.830851078033;0.06849662959580001;1;True;42;1;79.36938919127198
241;241;1449492645;2.1945855617500003;0.8308802247050001;0.06848968565460001;1;True;42;1;79.36938919127198
242;242;1449492645;2.19458198547;0.830861210823;0.06846572458740001;1;True;42;1;79.36938919127198
243;243;1449492645;2.19461488724;0.830892682076;0.06843896955249999;1;True;42;1;79.36938919127198
244;244;1449492645;2.1946086883500002;0.830871701241;0.0684531480074;1;True;42;1;79.36938919127198
245;245;1449492645;2.19457173347;0.830880582333;0.0684526115656;1;True;42;1;79.36938919127198
246;246;1449492645;2.19449424744;0.830865085125;0.0684190690517;1;True;42;1;79.36938919127198
247;247;1449492645;2.19457650185;0.8309059739110001;0.0684306621552;1;True;42;1;79.36938919127198
248;248;1449492645;2.1945779323599997;0.830837666988;0.0685391798615;1;True;42;1;79.36938919127198
249;249;1449492645;2.1946079731;0.830861210823;0.06844967603680001;1;True;42;1;79.36938919127198
250;250;1449492645;2.19460058212;0.830911517143;0.0684483349323;1;True;42;1;79.36938919127198
251;251;1449492645;2.19466471672;0.830919444561;0.0684439837933;1;True;42;1;79.36938919127198
252;252;1449492645;2.1945962905900003;0.830877423286;0.068470209837;1;True;42;1;79.36938919127198
253;253;1449492645;2.19462871552;0.830847859383;0.06851841509340001;1;True;42;1;79.36938919127198
254;254;1449492645;2.1946067810099996;0.8308709263799999;0.0684442296624;1;True;42;1;79.36938919127198
255;255;1449492645;2.1945195198099996;0.8308514356610001;0.0684418752789;1;True;42;1;79.36938919127198
256;256;1449492645;2.19457674026;0.8308551907539999;0.0684875175357;1;True;42;1;79.36938919127198
257;257;1449492645;2.1946876049;0.8308818340299999;0.0686004161835;1;True;42;1;79.36938919127198
258;258;1449492645;2.19460105896;0.8309289217;0.068427503109;1;True;42;1;79.36938919127198
259;259;1449492645;2.1945681572;0.830829799175;0.0685136988759;1;True;42;1;79.36938919127198
260;260;1449492645;2.19457292557;0.83087015152;0.0684664547443;1;True;42;1;79.36938919127198
261;261;1449492645;2.1946260929099997;0.830878615379;0.06848628073929999;1;True;42;1;79.36938919127198
262;262;1449492645;2.19449019432;0.8307844996449999;0.0685454681516;1;True;42;1;79.36938919127198
263;263;1449492645;2.1945681572;0.8308210372920001;0.0684713795781;1;True;42;1;79.36938919127198
264;264;1449492645;2.19457602501;0.830854177475;0.06852728873490001;1;True;42;1;79.36938919127198
265;265;1449492645;2.19460129738;0.830859780312;0.0684501081705;1;True;42;1;79.36938919127198
266;266;1449492645;2.19463777542;0.830865085125;0.068481348455;1;True;42;1;79.36938919127198
267;267;1449492645;2.19464683533;0.830870568752;0.0684617981315;1;True;42;1;79.36938919127198
268;268;1449492645;2.1946079731;0.830861270428;0.0684812441468;1;True;42;1;79.36938919127198
269;269;1449492645;2.19462823868;0.830874085426;0.0684567466378;1;True;42;1;79.36938919127198
270;270;1449492645;2.19462800026;0.830913901329;0.0684432685375;1;True;42;1;79.36938919127198
271;271;1449492645;2.19460201263;0.8308513164519999;0.06845072656870001;1;True;42;1;79.36938919127198
272;272;1449492645;2.19467306137;0.830884277821;0.0684763714671;1;True;42;1;79.36938919127198
273;273;1449492645;2.19458675385;0.8308339715;0.0685315951705;1;True;42;1;79.36938919127198
274;274;1449492645;2.1946606636;0.830896854401;0.0684891790152;1;True;42;1;79.36938919127198
275;275;1449492645;2.1946742534599997;0.8309083580969999;0.0684625208378;1;True;42;1;79.36938919127198
276;276;1449492645;2.19462704659;0.830899775028;0.06843519955869999;1;True;42;1;79.36938919127198
277;277;1449492645;2.19461250305;0.830860495567;0.068452231586;1;True;42;1;79.36938919127198
278;278;1449492645;2.19452810287;0.830836355686;0.0684643983841;1;True;42;1;79.36938919127198
279;279;1449492645;2.1945428848299997;0.830814778805;0.06852689385409999;1;True;42;1;79.36938919127198
280;280;1449492645;2.1945865154299997;0.830873727798;0.06846056878569999;1;True;42;1;79.36938919127198
281;281;1449492645;2.1946103572799998;0.8308584690090001;0.0684616342187;1;True;42;1;79.36938919127198
282;282;1449492645;2.1945631504099996;0.830814599991;0.0684811770916;1;True;42;1;79.36938919127198
283;283;1449492645;2.19461107254;0.8308577537540001;0.068465679884;1;True;42;1;79.36938919127198
284;284;1449492645;2.19460654259;0.8308766484260001;0.0684527605772;1;True;42;1;79.36938919127198
285;285;1449492645;2.1946332454700004;0.830868601799;0.0684845298529;1;True;42;1;79.36938919127198
286;286;1449492645;2.19460320473;0.8308793902399999;0.0684429630637;1;True;42;1;79.36938919127198
287;287;1449492645;2.19459080696;0.83083987236;0.0684887543321;1;True;42;1;79.36938919127198
288;288;1449492645;2.19462203979;0.830891609192;0.0684495270252;1;True;42;1;79.36938919127198
289;289;1449492645;2.19462680817;0.83089619875;0.0684452429414;1;True;42;1;79.36938919127198
290;290;1449492645;2.19459033012;0.830868244171;0.0684584155679;1;True;42;1;79.36938919127198
291;291;1449492645;2.19462323189;0.830859422684;0.0684572458267;1;True;42;1;79.36938919127198
292;292;1449492645;2.19455289841;0.830811917782;0.0684736892581;1;True;42;1;79.36938919127198
293;293;1449492645;2.1946144104;0.8308563232420001;0.0684579759836;1;True;42;1;79.36938919127198
294;294;1449492645;2.19465351105;0.830880761147;0.06848002970219999;1;True;42;1;79.36938919127198
295;295;1449492645;2.19460248947;0.830895364285;0.0684291273355;1;True;42;1;79.36938919127198
296;296;1449492645;2.19471883774;0.830923497677;0.0684789270163;1;True;42;1;79.36938919127198
297;297;1449492645;2.19460630417;0.830852866173;0.06845152378080001;1;True;42;1;79.36938919127198
298;298;1449492645;2.19458317757;0.830843091011;0.0685010254383;1;True;42;1;79.36938919127198
299;299;1449492645;2.19463443756;0.830919444561;0.0684354379773;1;True;42;1;79.36938919127198
300;300;1449492645;2.19468212128;0.8308925032619999;0.0684774667025;1;True;42;1;79.36938919127198
301;301;1449492645;2.19465684891;0.830843150616;0.0685163289309;1;True;42;1;79.36938919127198
302;302;1449492645;2.19461250305;0.8308747410770001;0.06846513599159999;1;True;42;1;79.36938919127198
303;303;1449492645;2.19462251663;0.830857694149;0.06848639249800001;1;True;42;1;79.36938919127198
304;304;1449492645;2.19460916519;0.8309179544449999;0.06842773407700001;1;True;42;1;79.36938919127198
305;305;1449492645;2.19464755058;0.830856144428;0.0685008689761;1;True;42;1;79.36938919127198
306;306;1449492645;2.1946516037;0.830872178078;0.0684938207269;1;True;42;1;79.36938919127198
307;307;1449492645;2.19461011887;0.830857872963;0.06848692148919999;1;True;42;1;79.36938919127198
308;308;1449492645;2.19461464882;0.8308497071269999;0.0684866979718;1;True;42;1;79.36938919127198
309;309;1449492645;2.19459939003;0.830931842327;0.0684304833412;1;True;42;1;79.36938919127198
310;310;1449492645;2.1945772171;0.830868422985;0.06848464161159999;1;True;42;1;79.36938919127198
311;311;1449492645;2.19459533691;0.830917000771;0.0684260725975;1;True;42;1;79.36938919127198
312;312;1449492645;2.19455313683;0.8308468461040001;0.06845332682130001;1;True;42;1;79.36938919127198
313;313;1449492645;2.19450497627;0.830799758434;0.068453848362;1;True;42;1;79.36938919127198
314;314;1449492645;2.19458770752;0.830889523029;0.06842946261169999;1;True;42;1;79.36938919127198
315;315;1449492645;2.19464874268;0.830873310566;0.0684790760279;1;True;42;1;79.36938919127198
316;316;1449492645;2.1946167945900004;0.8308631181720001;0.0684699863195;1;True;42;1;79.36938919127198
317;317;1449492645;2.1945559978499998;0.8308320045469999;0.068476729095;1;True;42;1;79.36938919127198
318;318;1449492645;2.19457530975;0.830862939358;0.0684714540839;1;True;42;1;79.36938919127198
319;319;1449492645;2.19456982613;0.830819964409;0.0685176029801;1;True;42;1;79.36938919127198
320;320;1449492645;2.19450807571;0.8308007717129999;0.0685195177794;1;True;42;1;79.36938919127198
321;321;1449492645;2.1946041584000002;0.830937922001;0.0684218555689;1;True;42;1;79.36938919127198
322;322;1449492645;2.1946008205400003;0.830857515335;0.0684634670615;1;True;42;1;79.36938919127198
323;323;1449492645;2.1946156024900003;0.8309372663500001;0.0684271901846;1;True;42;1;79.36938919127198
324;324;1449492645;2.19461655617;0.830905497074;0.0684302225709;1;True;42;1;79.36938919127198
325;325;1449492645;2.19463801384;0.830877423286;0.06847614794969999;1;True;42;1;79.36938919127198
326;326;1449492645;2.1946120262099997;0.8308760523800001;0.0684924721718;1;True;42;1;79.36938919127198
327;327;1449492645;2.19464826584;0.8308618664740001;0.068460226059;1;True;42;1;79.36938919127198
328;328;1449492645;2.1946053504900003;0.830862164497;0.0684396028519;1;True;42;1;79.36938919127198
329;329;1449492645;2.19453310966;0.830849766731;0.0684497430921;1;True;42;1;79.36938919127198
330;330;1449492645;2.1946697235099997;0.8308754563330001;0.0684929564595;1;True;42;1;79.36938919127198
331;331;1449492645;2.19450879097;0.830776929855;0.06850072741510001;1;True;42;1;79.36938919127198
332;332;1449492645;2.1946504116099996;0.830884814262;0.0684508010745;1;True;42;1;79.36938919127198
333;333;1449492645;2.1945896148700004;0.8308577537540001;0.0684758573771;1;True;42;1;79.36938919127198
334;334;1449492645;2.19462823868;0.830878973007;0.06849193573;1;True;42;1;79.36938919127198
335;335;1449492645;2.19471144676;0.830907404423;0.0685587525368;1;True;42;1;79.36938919127198
336;336;1449492645;2.1946413517;0.830897808075;0.068487636745;1;True;42;1;79.36938919127198
337;337;1449492645;2.19466710091;0.830862879753;0.0685322582722;1;True;42;1;79.36938919127198
338;338;1449492645;2.1946353912400003;0.830920755863;0.0684366226196;1;True;42;1;79.36938919127198
339;339;1449492645;2.194688797;0.8308625221250001;0.0685378164053;1;True;42;1;79.36938919127198
340;340;1449492645;2.19463396072;0.830893695354;0.0684524923563;1;True;42;1;79.36938919127198
341;341;1449492645;2.19463133812;0.830954432487;0.0684345215559;1;True;42;1;79.36938919127198
342;342;1449492645;2.19462323189;0.8309217691419999;0.06843479722740001;1;True;42;1;79.36938919127198
343;343;1449492645;2.19454097748;0.830814599991;0.0685366764665;1;True;42;1;79.36938919127198
344;344;1449492645;2.19462871552;0.8308660984039999;0.0684508308768;1;True;42;1;79.36938919127198
345;345;1449492645;2.19462299347;0.8308800458910001;0.0684497579932;1;True;42;1;79.36938919127198
346;346;1449492645;2.19461607933;0.830888032913;0.0685017853975;1;True;42;1;79.36938919127198
347;347;1449492645;2.1946387291;0.830880880356;0.0684507638216;1;True;42;1;79.36938919127198
348;348;1449492645;2.1946749687200002;0.8308708071709999;0.06851016730069999;1;True;42;1;79.36938919127198
349;349;1449492645;2.19464349747;0.8308725357060001;0.0684900656343;1;True;42;1;79.36938919127198
350;350;1449492645;2.19469642639;0.830898046494;0.0684878304601;1;True;42;1;79.36938919127198
351;351;1449492645;2.19463634491;0.830902516842;0.0684398859739;1;True;42;1;79.36938919127198
352;352;1449492645;2.19472670555;0.8308869600300001;0.0685857310891;1;True;42;1;79.36938919127198
353;353;1449492645;2.19465994835;0.8308727741240001;0.068511299789;1;True;42;1;79.36938919127198
354;354;1449492645;2.1946306228599997;0.830886185169;0.068446367979;1;True;42;1;79.36938919127198
355;355;1449492645;2.19463515282;0.830873668194;0.0684541165829;1;True;42;1;79.36938919127198
356;356;1449492645;2.19470787048;0.830925524235;0.068467259407;1;True;42;1;79.36938919127198
357;357;1449492645;2.19471669197;0.830915510654;0.0684740692377;1;True;42;1;79.36938919127198
358;358;1449492645;2.19462251663;0.8308788537980001;0.0684412419796;1;True;42;1;79.36938919127198
359;359;1449492645;2.19462990761;0.8308331370350001;0.0685231015086;1;True;42;1;79.36938919127198
360;360;1449492645;2.1947028636900003;0.830887198448;0.068481259048;1;True;42;1;79.36938919127198
361;361;1449492645;2.19453430176;0.8307971954350001;0.0685327351093;1;True;42;1;79.36938919127198
362;362;1449492645;2.1946439743;0.830879569054;0.0684416890144;1;True;42;1;79.36938919127198
363;363;1449492645;2.19461870193;0.8308444023129999;0.0685195848346;1;True;42;1;79.36938919127198
364;364;1449492645;2.19464635849;0.8308753371240001;0.06847103685139999;1;True;42;1;79.36938919127198
365;365;1449492645;2.19463443756;0.830899238586;0.06843627244230001;1;True;42;1;79.36938919127198
366;366;1449492645;2.1946105957;0.83083987236;0.0684499144554;1;True;42;1;79.36938919127198
367;367;1449492645;2.19460320473;0.8308673501010001;0.06845726817850001;1;True;42;1;79.36938919127198
368;368;1449492645;2.19469499588;0.8308508396150001;0.06852268427609999;1;True;42;1;79.36938919127198
369;369;1449492645;2.19465255737;0.830900907516;0.0684459656477;1;True;42;1;79.36938919127198
370;370;1449492645;2.1945772171;0.8308367133140001;0.0684632062912;1;True;42;1;79.36938919127198
371;371;1449492645;2.1946606636;0.830915808678;0.06843833625319999;1;True;42;1;79.36938919127198
372;372;1449492645;2.1946413517;0.830853164196;0.0684988424182;1;True;42;1;79.36938919127198
373;373;1449492645;2.19456076622;0.830770492554;0.06849560141559999;1;True;42;1;79.36938919127198
374;374;1449492645;2.1945786476099998;0.830781817436;0.06850370019669999;1;True;42;1;79.36938919127198
375;375;1449492645;2.19461226463;0.830862998962;0.0684293136001;1;True;42;1;79.36938919127198
376;376;1449492645;2.19464421272;0.830873847008;0.0684441775084;1;True;42;1;79.36938919127198
377;377;1449492645;2.1944756507900003;0.830811619759;0.0684316977859;1;True;42;1;79.36938919127198
378;378;1449492645;2.1946446895599996;0.830868959427;0.06845448911190001;1;True;42;1;79.36938919127198
379;379;1449492645;2.19459748268;0.8308061361310001;0.0684748217463;1;True;42;1;79.36938919127198
380;380;1449492645;2.1945905685400002;0.830817222595;0.0684707313776;1;True;42;1;79.36938919127198
381;381;1449492645;2.19468212128;0.8308559060100001;0.06850466132159999;1;True;42;1;79.36938919127198
382;382;1449492645;2.19462800026;0.830858647823;0.06848775595430001;1;True;42;1;79.36938919127198
383;383;1449492645;2.19464850426;0.830859363079;0.06846585869789999;1;True;42;1;79.36938919127198
384;384;1449492645;2.19464421272;0.8309116363529999;0.06842974573369999;1;True;42;1;79.36938919127198
385;385;1449492645;2.19462347031;0.830856740475;0.0684469416738;1;True;42;1;79.36938919127198
386;386;1449492645;2.19454073906;0.8308000564579999;0.0685311108828;1;True;42;1;79.36938919127198
387;387;1449492645;2.1946504116099996;0.8308557868;0.0684797689319;1;True;42;1;79.36938919127198
388;388;1449492645;2.1946361064900004;0.8308502435680001;0.0684717521071;1;True;42;1;79.36938919127198
389;389;1449492645;2.1946783065799997;0.8308787345890001;0.0684773698449;1;True;42;1;79.36938919127198
390;390;1449492645;2.19463205338;0.8308522105220001;0.0684718638659;1;True;42;1;79.36938919127198
391;391;1449492645;2.19464683533;0.830924034119;0.0684415102005;1;True;42;1;79.36938919127198
392;392;1449492645;2.19482707977;0.830940544605;0.068519026041;1;True;42;1;79.36938919127198
393;393;1449492645;2.1946127414700003;0.830848157406;0.0684876665473;1;True;42;1;79.36938919127198
394;394;1449492645;2.19447779655;0.830841779709;0.06844378262760001;1;True;42;1;79.36938919127198
395;395;1449492645;2.1946504116099996;0.8309094905850001;0.0684487819672;1;True;42;1;79.36938919127198
396;396;1449492645;2.19464159012;0.830880999565;0.0685062259436;1;True;42;1;79.36938919127198
397;397;1449492645;2.19464159012;0.830890774727;0.06845300644640001;1;True;42;1;79.36938919127198
398;398;1449492645;2.1946449279799998;0.8308674097059999;0.06849077343940001;1;True;42;1;79.36938919127198
399;399;1449492645;2.19462108612;0.8308399319650001;0.06849255412819999;1;True;42;1;79.36938919127198
400;400;1449492645;2.19464230537;0.8309075236319999;0.0684474185109;1;True;42;1;79.36938919127198
401;401;1449492645;2.19465661049;0.83093225956;0.0684415474534;1;True;42;1;79.36938919127198
402;402;1449492645;2.19465470314;0.830916702747;0.06844351440669999;1;True;42;1;79.36938919127198
403;403;1449492645;2.1946439743;0.8308721184729999;0.0685008019209;1;True;42;1;79.36938919127198
404;404;1449492645;2.19460058212;0.8308183550830001;0.068469569087;1;True;42;1;79.36938919127198
405;405;1449492645;2.1946516037;0.8309276700020001;0.06844929605719999;1;True;42;1;79.36938919127198
406;406;1449492645;2.19458913803;0.8308147192;0.0685377344489;1;True;42;1;79.36938919127198
407;407;1449492645;2.1946256160699997;0.830873668194;0.0684492141008;1;True;42;1;79.36938919127198
408;408;1449492645;2.19466018677;0.830862402916;0.0685079842806;1;True;42;1;79.36938919127198
409;409;1449492645;2.1946709156;0.830915808678;0.0684627220035;1;True;42;1;79.36938919127198
410;410;1449492645;2.19456505775;0.8307919502259999;0.06853508204219999;1;True;42;1;79.36938919127198
411;411;1449492645;2.19465756416;0.8308940529819999;0.0684530884027;1;True;42;1;79.36938919127198
412;412;1449492645;2.19465613365;0.830917418003;0.068444378674;1;True;42;1;79.36938919127198
413;413;1449492645;2.19466805458;0.8308796286579999;0.0684941783547;1;True;42;1;79.36938919127198
414;414;1449492645;2.1946141719799996;0.830863177776;0.0685330629349;1;True;42;1;79.36938919127198
415;415;1449492645;2.19457745552;0.8308251500130001;0.0685427337885;1;True;42;1;79.36938919127198
416;416;1449492645;2.19466710091;0.830925703049;0.0684512034059;1;True;42;1;79.36938919127198
417;417;1449492645;2.1946763992299996;0.830877780914;0.0684976279736;1;True;42;1;79.36938919127198
418;418;1449492645;2.1946516037;0.830891370773;0.0684469416738;1;True;42;1;79.36938919127198
419;419;1449492645;2.19465875626;0.8308908343320001;0.0684718042612;1;True;42;1;79.36938919127198
420;420;1449492645;2.19461011887;0.830824971199;0.0684749037027;1;True;42;1;79.36938919127198
421;421;1449492645;2.19463229179;0.8308634758;0.0684598684311;1;True;42;1;79.36938919127198
422;422;1449492645;2.19464421272;0.830878674984;0.0684553906322;1;True;42;1;79.36938919127198
423;423;1449492645;2.19462299347;0.8308538198469999;0.06849197298290001;1;True;42;1;79.36938919127198
424;424;1449492645;2.1944997310599996;0.830855429173;0.06845184415580001;1;True;42;1;79.36938919127198
425;425;1449492645;2.1946318149599997;0.83088517189;0.0684382095933;1;True;42;1;79.36938919127198
426;426;1449492645;2.1946387291;0.830915272236;0.0684321820736;1;True;42;1;79.36938919127198
427;427;1449492646;2.19460725784;0.830866456032;0.0684590041637;2;True;42;1;79.36938919127198
428;428;1449492646;2.1946318149599997;0.8309169411660001;0.0684261918068;2;True;42;1;79.36938919127198
429;429;1449492646;2.194627285;0.8309327363969999;0.0684310719371;2;True;42;1;79.36938919127198
430;430;1449492646;2.1946504116099996;0.830920100212;0.06843137741090001;2;True;42;1;79.36938919127198
431;431;1449492646;2.1946494579299998;0.830889582634;0.0684344917536;2;True;42;1;79.36938919127198
432;432;1449492646;2.19462013245;0.830860853195;0.06848937273030001;2;True;42;1;79.36938919127198
433;433;1449492646;2.1946516037;0.830906033516;0.0684238299727;2;True;42;1;79.36938919127198
434;434;1449492646;2.19456744194;0.830803453922;0.0684561803937;2;True;42;1;79.36938919127198
435;435;1449492646;2.1946511268599997;0.83086168766;0.0684926956892;2;True;42;1;79.36938919127198
436;436;1449492646;2.1946291923500003;0.8309202790260001;0.0684193298221;2;True;42;1;79.36938919127198
437;437;1449492646;2.1946167945900004;0.8308911323549999;0.0684163942933;2;True;42;1;79.36938919127198
438;438;1449492646;2.19461131096;0.830847978592;0.068443864584;2;True;42;1;79.36938919127198
439;439;1449492646;2.1945617198900003;0.830811262131;0.0684373751283;2;True;42;1;79.36938919127198
440;440;1449492646;2.1946175098400005;0.8308455944059999;0.06846978515390001;2;True;42;1;79.36938919127198
441;441;1449492646;2.1945037841799997;0.830853223801;0.0684420987964;2;True;42;1;79.36938919127198
442;442;1449492646;2.19456791878;0.8309059739110001;0.0683958828449;2;True;42;1;79.36938919127198
443;443;1449492646;2.19462347031;0.830864071846;0.0684172064066;2;True;42;1;79.36938919127198
444;444;1449492646;2.1945297718;0.8307857513429999;0.0685049667954;2;True;42;1;79.36938919127198
445;445;1449492646;2.19458007812;0.8308725357060001;0.068400003016;2;True;42;1;79.36938919127198
446;446;1449492646;2.19459676743;0.830844700336;0.0684396103024;2;True;42;1;79.36938919127198
447;447;1449492646;2.19460463524;0.830844163895;0.0684574320912;2;True;42;1;79.36938919127198
448;448;1449492646;2.19458055496;0.8308435082439999;0.0684372633696;2;True;42;1;79.36938919127198
449;449;1449492646;2.19458532333;0.830890893936;0.0683976262808;2;True;42;1;79.36938919127198
450;450;1449492646;2.19459152222;0.830842792988;0.06844174861909999;2;True;42;1;79.36938919127198
451;451;1449492646;2.19456577301;0.830821454525;0.06849225610489999;2;True;42;1;79.36938919127198
452;452;1449492646;2.19454956055;0.83081138134;0.0684825479984;2;True;42;1;79.36938919127198
453;453;1449492646;2.19457697868;0.830854296684;0.06840465217830001;2;True;42;1;79.36938919127198
454;454;1449492646;2.19460368156;0.830861449242;0.0684395506978;2;True;42;1;79.36938919127198
455;455;1449492646;2.19459891319;0.8309094905850001;0.06839118152859999;2;True;42;1;79.36938919127198
456;456;1449492646;2.19461512566;0.8309287428859999;0.06840180605650001;2;True;42;1;79.36938919127198
457;457;1449492646;2.1945002079;0.8307784795759999;0.0683949813247;2;True;42;1;79.36938919127198
458;458;1449492646;2.1946156024900003;0.830931425095;0.0684028491378;2;True;42;1;79.36938919127198
459;459;1449492646;2.1945226192500003;0.8307593464849999;0.0684536248446;2;True;42;1;79.36938919127198
460;460;1449492646;2.19457817078;0.830861568451;0.0684064254165;2;True;42;1;79.36938919127198
461;461;1449492646;2.19466996193;0.830817580223;0.068528495729;2;True;42;1;79.36938919127198
462;462;1449492646;2.19453287125;0.830814063549;0.0684194266796;2;True;42;1;79.36938919127198
463;463;1449492646;2.19449400902;0.8307806849480001;0.0685123726726;2;True;42;1;79.36938919127198
464;464;1449492646;2.1945979595200003;0.8308264017110001;0.0684589669108;2;True;42;1;79.36938919127198
465;465;1449492646;2.19461154938;0.8309094309810001;0.06840658932919999;2;True;42;1;79.36938919127198
466;466;1449492646;2.1945979595200003;0.830867648125;0.068411231041;2;True;42;1;79.36938919127198
467;467;1449492646;2.1945719718900003;0.830811738968;0.0684797614813;2;True;42;1;79.36938919127198
468;468;1449492646;2.19461011887;0.830888807774;0.0684124901891;2;True;42;1;79.36938919127198
469;469;1449492646;2.19461226463;0.8308495283130001;0.0684308633208;2;True;42;1;79.36938919127198
470;470;1449492646;2.19459438324;0.830826342106;0.0684662982821;2;True;42;1;79.36938919127198
471;471;1449492646;2.1946208477;0.830862820148;0.06846761703490001;2;True;42;1;79.36938919127198
472;472;1449492646;2.19459986687;0.830868065357;0.0684203281999;2;True;42;1;79.36938919127198
473;473;1449492646;2.19454050064;0.8307905793189999;0.0685198307037;2;True;42;1;79.36938919127198
474;474;1449492646;2.19461870193;0.8308790326119999;0.0684862583876;2;True;42;1;79.36938919127198
475;475;1449492646;2.1946778297400003;0.8309007287029999;0.06843861192459999;2;True;42;1;79.36938919127198
476;476;1449492646;2.1945300102200003;0.8308184146879999;0.0684855058789;2;True;42;1;79.36938919127198
477;477;1449492646;2.1946182250999997;0.830903708935;0.0684273019433;2;True;42;1;79.36938919127198
478;478;1449492646;2.19467329979;0.830861449242;0.0684912577271;2;True;42;1;79.36938919127198
479;479;1449492646;2.1946341991400002;0.8309017419820001;0.0684454515576;2;True;42;1;79.36938919127198
480;480;1449492646;2.19449162483;0.830838501453;0.0684505030513;2;True;42;1;79.36938919127198
481;481;1449492646;2.1944687366499998;0.830834746361;0.0684254691005;2;True;42;1;79.36938919127198
482;482;1449492646;2.19463372231;0.8308852314949999;0.068440258503;2;True;42;1;79.36938919127198
483;483;1449492646;2.19465494156;0.8308722376819999;0.0684760808945;2;True;42;1;79.36938919127198
484;484;1449492646;2.19462871552;0.8308653235439999;0.0684808641672;2;True;42;1;79.36938919127198
485;485;1449492646;2.19463944435;0.830865442753;0.0684466212988;2;True;42;1;79.36938919127198
486;486;1449492646;2.1946408748599997;0.83090788126;0.0684394314885;2;True;42;1;79.36938919127198
487;487;1449492646;2.19471812248;0.8308756351469999;0.0685379952192;2;True;42;1;79.36938919127198
488;488;1449492646;2.1946349144;0.830903112888;0.06844383478159999;2;True;42;1;79.36938919127198
489;489;1449492646;2.1946444511400003;0.8308912515639999;0.0684421285987;2;True;42;1;79.36938919127198
490;490;1449492646;2.1946449279799998;0.830863952637;0.0684579014778;2;True;42;1;79.36938919127198
491;491;1449492646;2.1946556568099997;0.830898106098;0.06847888976340001;2;True;42;1;79.36938919127198
492;492;1449492646;2.1946406364400004;0.830887198448;0.0684434399009;2;True;42;1;79.36938919127198
493;493;1449492646;2.1946301460299997;0.830862045288;0.06849992275240001;2;True;42;1;79.36938919127198
494;494;1449492646;2.19462299347;0.830884456635;0.0684844180942;2;True;42;1;79.36938919127198
495;495;1449492646;2.1946253776599995;0.830860257149;0.068498082459;2;True;42;1;79.36938919127198
496;496;1449492646;2.1946175098400005;0.8308292031290001;0.0684901848435;2;True;42;1;79.36938919127198
497;497;1449492646;2.1946420669599997;0.830900371075;0.0684473365545;2;True;42;1;79.36938919127198
498;498;1449492646;2.19464325905;0.830925643444;0.0684433877468;2;True;42;1;79.36938919127198
499;499;1449492646;2.19467806816;0.830902636051;0.0684549584985;2;True;42;1;79.36938919127198
500;500;1449492646;2.19450545311;0.8307524323459999;0.068506129086;2;True;42;1;79.36938919127198
501;501;1449492646;2.1946310997;0.830882370472;0.0684512332082;2;True;42;1;79.36938919127198
502;502;1449492646;2.19461631775;0.8308430314059999;0.06850073486569999;2;True;42;1;79.36938919127198
503;503;1449492646;2.19464111328;0.830930531025;0.0684460774064;2;True;42;1;79.36938919127198
504;504;1449492646;2.19464540482;0.830914378166;0.0684400051832;2;True;42;1;79.36938919127198
505;505;1449492646;2.19460511208;0.830851733685;0.0684803575277;2;True;42;1;79.36938919127198
506;506;1449492646;2.1946494579299998;0.830852270126;0.06851666420699999;2;True;42;1;79.36938919127198
507;507;1449492646;2.1946375369999997;0.830864489079;0.06845337152480001;2;True;42;1;79.36938919127198
508;508;1449492646;2.19463634491;0.830896914005;0.0684394836426;2;True;42;1;79.36938919127198
509;509;1449492646;2.1946840286300002;0.8308726549150001;0.0685018971562;2;True;42;1;79.36938919127198
510;510;1449492646;2.19462776184;0.8308618664740001;0.0684860274196;2;True;42;1;79.36938919127198
511;511;1449492646;2.19462203979;0.8308943510060001;0.068440079689;2;True;42;1;79.36938919127198
512;512;1449492646;2.1946175098400005;0.8308591842649999;0.0684492886066;2;True;42;1;79.36938919127198
513;513;1449492646;2.1945984363599997;0.8308376073839999;0.0685165598989;2;True;42;1;79.36938919127198
514;514;1449492646;2.19463133812;0.830877125263;0.06844253093;2;True;42;1;79.36938919127198
515;515;1449492646;2.1946156024900003;0.830880701542;0.0684359818697;2;True;42;1;79.36938919127198
516;516;1449492646;2.19462275505;0.8308700919149999;0.06843575835230001;2;True;42;1;79.36938919127198
517;517;1449492646;2.19455957413;0.830803096294;0.06852271407840001;2;True;42;1;79.36938919127198
518;518;1449492646;2.19460701942;0.8308652639390001;0.0684783682227;2;True;42;1;79.36938919127198
519;519;1449492646;2.19462180138;0.830915391445;0.0684181600809;2;True;42;1;79.36938919127198
520;520;1449492646;2.19455170631;0.830835700035;0.0684857964516;2;True;42;1;79.36938919127198
521;521;1449492646;2.19460272789;0.830836415291;0.0684885531664;2;True;42;1;79.36938919127198
522;522;1449492646;2.19460439682;0.8309208750720001;0.06841666251419999;2;True;42;1;79.36938919127198
523;523;1449492646;2.1945912838;0.830856740475;0.0684287697077;2;True;42;1;79.36938919127198
524;524;1449492646;2.19455981255;0.8308280110359999;0.06842933595180001;2;True;42;1;79.36938919127198
525;525;1449492646;2.1945400238;0.8308353424070001;0.0684386864305;2;True;42;1;79.36938919127198
526;526;1449492646;2.19460105896;0.830848157406;0.06845341622830001;2;True;42;1;79.36938919127198
527;527;1449492646;2.1946296691900002;0.830851733685;0.06843656301500001;2;True;42;1;79.36938919127198
528;528;1449492646;2.19462275505;0.83085078001;0.06842685490849999;2;True;42;1;79.36938919127198
529;529;1449492646;2.1946592330900003;0.8308565020559999;0.06849077343940001;2;True;42;1;79.36938919127198
530;530;1449492646;2.1946067810099996;0.8309181928630001;0.0684019103646;2;True;42;1;79.36938919127198
531;531;1449492646;2.1946141719799996;0.830935239792;0.0684028044343;2;True;42;1;79.36938919127198
532;532;1449492646;2.19453382492;0.830820739269;0.0684213787317;2;True;42;1;79.36938919127198
533;533;1449492646;2.19460654259;0.8309059739110001;0.0684014335275;2;True;42;1;79.36938919127198
534;534;1449492646;2.19459962845;0.830856859684;0.0684643760324;2;True;42;1;79.36938919127198
535;535;1449492646;2.19459414482;0.830908179283;0.0683968961239;2;True;42;1;79.36938919127198
536;536;1449492646;2.1945934295700003;0.830826222897;0.0684253424406;2;True;42;1;79.36938919127198
537;537;1449492646;2.19461464882;0.830955445766;0.0684055313468;2;True;42;1;79.36938919127198
538;538;1449492646;2.19458293915;0.8308878540989999;0.0683957710862;2;True;42;1;79.36938919127198
539;539;1449492646;2.1945977211;0.830895960331;0.0683986470103;2;True;42;1;79.36938919127198
540;540;1449492646;2.19465589523;0.8308715224269999;0.0684484988451;2;True;42;1;79.36938919127198
541;541;1449492646;2.19459652901;0.830860316753;0.068458199501;2;True;42;1;79.36938919127198
542;542;1449492646;2.19460916519;0.8308438062669999;0.0684506818652;2;True;42;1;79.36938919127198
543;543;1449492646;2.1946206092800002;0.8308508396150001;0.0684584528208;2;True;42;1;79.36938919127198
544;544;1449492646;2.1946029663099997;0.830871105194;0.06840636581180001;2;True;42;1;79.36938919127198
545;545;1449492646;2.1946041584000002;0.8309079408650001;0.0684011057019;2;True;42;1;79.36938919127198
546;546;1449492646;2.19460630417;0.830856144428;0.0684528276324;2;True;42;1;79.36938919127198
547;547;1449492646;2.19454073906;0.830786168575;0.068458199501;2;True;42;1;79.36938919127198
548;548;1449492646;2.1946206092800002;0.830855488777;0.0684356242418;2;True;42;1;79.36938919127198
549;549;1449492646;2.1946003437;0.830830335617;0.0684741064906;2;True;42;1;79.36938919127198
550;550;1449492646;2.1945540905;0.830837070942;0.06842894107099999;2;True;42;1;79.36938919127198
551;551;1449492646;2.19459986687;0.8308587074279999;0.0684530287981;2;True;42;1;79.36938919127198
552;552;1449492646;2.1946835517900003;0.830829560757;0.0685183107853;2;True;42;1;79.36938919127198
553;553;1449492646;2.19470095634;0.830894231796;0.06846626102919999;2;True;42;1;79.36938919127198
554;554;1449492646;2.1945593357099997;0.830807030201;0.0684851258993;2;True;42;1;79.36938919127198
555;555;1449492646;2.1945691108700003;0.8307965993880001;0.0684672966599;2;True;42;1;79.36938919127198
556;556;1449492646;2.1946175098400005;0.830949723721;0.06841557472939999;2;True;42;1;79.36938919127198
557;557;1449492646;2.19462203979;0.830857813358;0.0684730187058;2;True;42;1;79.36938919127198
558;558;1449492646;2.1946222782099998;0.8308197855949999;0.0685164928436;2;True;42;1;79.36938919127198
559;559;1449492646;2.1946167945900004;0.8308973312379999;0.0684215053916;2;True;42;1;79.36938919127198
560;560;1449492646;2.19457507133;0.830905079842;0.0684136077762;2;True;42;1;79.36938919127198
561;561;1449492646;2.19462490082;0.830892086029;0.06843097507950001;2;True;42;1;79.36938919127198
562;562;1449492646;2.19462370872;0.830920934677;0.0684324875474;2;True;42;1;79.36938919127198
563;563;1449492646;2.19461655617;0.830859065056;0.0684373155236;2;True;42;1;79.36938919127198
564;564;1449492646;2.19463276863;0.830858051777;0.06850106269119999;2;True;42;1;79.36938919127198
565;565;1449492646;2.1946856975599998;0.830909132957;0.0685612335801;2;True;42;1;79.36938919127198
566;566;1449492646;2.19463849068;0.830879509449;0.0684960559011;2;True;42;1;79.36938919127198
567;567;1449492646;2.1945309638999997;0.8307979106899999;0.0685327276587;2;True;42;1;79.36938919127198
568;568;1449492646;2.1945638656599997;0.8308514356610001;0.068461805582;2;True;42;1;79.36938919127198
569;569;1449492646;2.1946611404400005;0.830873131752;0.068506129086;2;True;42;1;79.36938919127198
570;570;1449492646;2.19463276863;0.830877423286;0.0684547647834;2;True;42;1;79.36938919127198
571;571;1449492646;2.19465446472;0.830877482891;0.06848464906219999;2;True;42;1;79.36938919127198
572;572;1449492646;2.19463276863;0.830872476101;0.0684923678637;2;True;42;1;79.36938919127198
573;573;1449492646;2.19463586807;0.830859661102;0.06846396625040001;2;True;42;1;79.36938919127198
574;574;1449492646;2.1947524547599997;0.8309140801430001;0.06849935650830001;2;True;42;1;79.36938919127198
575;575;1449492646;2.1944913864099997;0.830860197544;0.06843660026790001;2;True;42;1;79.36938919127198
576;576;1449492646;2.1947016716;0.830914735794;0.068467952311;2;True;42;1;79.36938919127198
577;577;1449492646;2.19465756416;0.830867886543;0.0685170292854;2;True;42;1;79.36938919127198
578;578;1449492646;2.19463896751;0.830895602703;0.0684442594647;2;True;42;1;79.36938919127198
579;579;1449492646;2.19465088844;0.8309212327;0.0684479400516;2;True;42;1;79.36938919127198
580;580;1449492646;2.1947236061099997;0.830882549286;0.06857669353490001;2;True;42;1;79.36938919127198
581;581;1449492646;2.19469881058;0.8308978676800001;0.06850048154590001;2;True;42;1;79.36938919127198
582;582;1449492646;2.1947178840599997;0.8309128880500001;0.06848384439949999;2;True;42;1;79.36938919127198
583;583;1449492646;2.1946213245400004;0.830882012844;0.0684603601694;2;True;42;1;79.36938919127198
584;584;1449492646;2.19464850426;0.8309024572370001;0.0685186162591;2;True;42;1;79.36938919127198
585;585;1449492646;2.19463515282;0.8308645486830001;0.0685282126069;2;True;42;1;79.36938919127198
586;586;1449492646;2.1946361064900004;0.830911695957;0.06845426559449999;2;True;42;1;79.36938919127198
587;587;1449492646;2.19463825226;0.830917775631;0.06844716519119999;2;True;42;1;79.36938919127198
588;588;1449492646;2.19463133812;0.830891370773;0.06846292316909999;2;True;42;1;79.36938919127198
589;589;1449492646;2.19458675385;0.83083575964;0.0685419514775;2;True;42;1;79.36938919127198
590;590;1449492646;2.19465470314;0.830872297287;0.0685071572661;2;True;42;1;79.36938919127198
591;591;1449492646;2.1946318149599997;0.8308706283570001;0.0684665590525;2;True;42;1;79.36938919127198
592;592;1449492646;2.19460988045;0.8308455944059999;0.06850277632469999;2;True;42;1;79.36938919127198
593;593;1449492646;2.1946408748599997;0.830923199654;0.0684467852116;2;True;42;1;79.36938919127198
594;594;1449492646;2.1946353912400003;0.830860555172;0.0684985071421;2;True;42;1;79.36938919127198
595;595;1449492646;2.1946387291;0.830931425095;0.0684487968683;2;True;42;1;79.36938919127198
596;596;1449492646;2.1946370601700003;0.8308740258220001;0.06850317120550001;2;True;42;1;79.36938919127198
597;597;1449492646;2.1946346759799997;0.830905199051;0.06845004111530001;2;True;42;1;79.36938919127198
598;598;1449492646;2.1946213245400004;0.830855429173;0.0685006454587;2;True;42;1;79.36938919127198
599;599;1449492646;2.19463515282;0.8308932185169999;0.0684539377689;2;True;42;1;79.36938919127198
600;600;1449492646;2.19469213486;0.830903470516;0.06848189979790001;2;True;42;1;79.36938919127198
601;601;1449492646;2.1946003437;0.830810666084;0.06847922503949999;2;True;42;1;79.36938919127198
602;602;1449492646;2.19463658333;0.830887079239;0.06846341490749999;2;True;42;1;79.36938919127198
603;603;1449492646;2.1946413517;0.8309277892110001;0.0684460997581;2;True;42;1;79.36938919127198
604;604;1449492646;2.19456744194;0.830802440643;0.0684780180454;2;True;42;1;79.36938919127198
605;605;1449492646;2.19463086128;0.830870449543;0.0684617310762;2;True;42;1;79.36938919127198
606;606;1449492646;2.19464182854;0.8308830261229999;0.0684446468949;2;True;42;1;79.36938919127198
607;607;1449492646;2.19461321831;0.830848157406;0.0684986338019;2;True;42;1;79.36938919127198
608;608;1449492646;2.19468045235;0.8308613300319999;0.0685043483973;2;True;42;1;79.36938919127198
609;609;1449492646;2.19463825226;0.8308725357060001;0.0684700161219;2;True;42;1;79.36938919127198
