;Unnamed: 0;header_stamp_secs;pose_position_x;pose_position_y;pose_position_z;seconds;drop_values;flight_number;label;dtw
0;0;1449493295;2.15001654625;0.791673064232;0.0683557540178;0;True;44;1;80.12321274355425
1;1;1449493295;2.15015649796;0.791873037815;0.0683111697435;0;True;44;1;80.12321274355425
2;2;1449493295;2.15016531944;0.7918168902399999;0.0683584585786;0;True;44;1;80.12321274355425
3;3;1449493295;2.15005803108;0.7917503118520001;0.0684318393469;0;True;44;1;80.12321274355425
4;4;1449493295;2.15016388893;0.791808962822;0.0683709233999;0;True;44;1;80.12321274355425
5;5;1449493295;2.1501183509799997;0.791786670685;0.0683986097574;0;True;44;1;80.12321274355425
6;6;1449493295;2.15015220642;0.7918094396590001;0.0683779120445;0;True;44;1;80.12321274355425
7;7;1449493295;2.15019917488;0.7918572425839999;0.0683626309037;0;True;44;1;80.12321274355425
8;8;1449493295;2.15014576912;0.791822016239;0.06839365512130001;0;True;44;1;80.12321274355425
9;9;1449493295;2.1500959396400003;0.79175132513;0.0684014558792;0;True;44;1;80.12321274355425
10;10;1449493295;2.15013575554;0.791803002357;0.0684013366699;0;True;44;1;80.12321274355425
11;11;1449493295;2.15013051033;0.7917947173119999;0.0684098899364;0;True;44;1;80.12321274355425
12;12;1449493295;2.15020370483;0.791859567165;0.0683865994215;0;True;44;1;80.12321274355425
13;13;1449493295;2.1500973701499997;0.7918034791949999;0.0684293732047;0;True;44;1;80.12321274355425
14;14;1449493295;2.1501531601;0.791813194752;0.068406842649;0;True;44;1;80.12321274355425
15;15;1449493295;2.15012907982;0.791825890541;0.0684035867453;0;True;44;1;80.12321274355425
16;16;1449493295;2.15015912056;0.791822195053;0.0683865919709;0;True;44;1;80.12321274355425
17;17;1449493295;2.15001511574;0.791709899902;0.068468876183;0;True;44;1;80.12321274355425
18;18;1449493295;2.15007209778;0.7917566895479999;0.0683682560921;0;True;44;1;80.12321274355425
19;19;1449493295;2.1500141620599997;0.791714012623;0.06847251206640001;0;True;44;1;80.12321274355425
20;20;1449493295;2.15021061897;0.791861236095;0.0683771818876;0;True;44;1;80.12321274355425
21;21;1449493295;2.15015077591;0.791772186756;0.0683666393161;0;True;44;1;80.12321274355425
22;22;1449493295;2.15028142929;0.791889190674;0.0684539377689;0;True;44;1;80.12321274355425
23;23;1449493295;2.15021800995;0.7918433547020001;0.0684980303049;0;True;44;1;80.12321274355425
24;24;1449493295;2.15008425713;0.79174554348;0.06836137175559999;0;True;44;1;80.12321274355425
25;25;1449493295;2.15019464493;0.791861653328;0.0684817284346;0;True;44;1;80.12321274355425
26;26;1449493295;2.15010452271;0.7917932271960001;0.06846217066049999;0;True;44;1;80.12321274355425
27;27;1449493295;2.1501762867;0.791811466217;0.0684475600719;0;True;44;1;80.12321274355425
28;28;1449493295;2.15016794205;0.7918043136599999;0.0684526860714;0;True;44;1;80.12321274355425
29;29;1449493295;2.15021777153;0.791867077351;0.06843131780619999;0;True;44;1;80.12321274355425
30;30;1449493295;2.15011572838;0.791788578033;0.06839719414710001;0;True;44;1;80.12321274355425
31;31;1449493295;2.15019488335;0.7918215394020001;0.0684698447585;0;True;44;1;80.12321274355425
32;32;1449493295;2.15018892288;0.7918096184729999;0.0684726014733;0;True;44;1;80.12321274355425
33;33;1449493295;2.1502063274400003;0.7918370366099999;0.0684635043144;0;True;44;1;80.12321274355425
34;34;1449493295;2.15018486977;0.7918285727500001;0.0684389173985;0;True;44;1;80.12321274355425
35;35;1449493295;2.1502282619499997;0.791894316673;0.06848344206809999;0;True;44;1;80.12321274355425
36;36;1449493295;2.15007948875;0.791733384132;0.068499982357;0;True;44;1;80.12321274355425
37;37;1449493295;2.1502242088299997;0.791850507259;0.0684619545937;0;True;44;1;80.12321274355425
38;38;1449493295;2.1501767635299998;0.791797757149;0.0684812515974;0;True;44;1;80.12321274355425
39;39;1449493295;2.15019869804;0.791823029518;0.0684795603156;0;True;44;1;80.12321274355425
40;40;1449493295;2.1502006053900002;0.791845917702;0.0684345290065;0;True;44;1;80.12321274355425
41;41;1449493295;2.15019869804;0.791806459427;0.06848683953290001;0;True;44;1;80.12321274355425
42;42;1449493295;2.15025258064;0.7918558716769999;0.0685162991285;0;True;44;1;80.12321274355425
43;43;1449493295;2.15017485619;0.791798591614;0.0684657990932;0;True;44;1;80.12321274355425
44;44;1449493295;2.15024375916;0.791872143745;0.0685000419617;0;True;44;1;80.12321274355425
45;45;1449493295;2.15027117729;0.791876494884;0.0684352219105;0;True;44;1;80.12321274355425
46;46;1449493295;2.1502459049200002;0.7918692827220001;0.068510517478;0;True;44;1;80.12321274355425
47;47;1449493295;2.15023708344;0.791862308979;0.0685018226504;0;True;44;1;80.12321274355425
48;48;1449493295;2.15018486977;0.7918312549590001;0.0684612169862;0;True;44;1;80.12321274355425
49;49;1449493295;2.1502633094799997;0.791875720024;0.0685186013579;0;True;44;1;80.12321274355425
50;50;1449493295;2.1501295566599996;0.791768908501;0.0683934241533;0;True;44;1;80.12321274355425
51;51;1449493295;2.15019917488;0.791831672192;0.0684550777078;0;True;44;1;80.12321274355425
52;52;1449493295;2.15025544167;0.791865825653;0.0684881061316;0;True;44;1;80.12321274355425
53;53;1449493295;2.15023326874;0.791898310184;0.0683678016067;0;True;44;1;80.12321274355425
54;54;1449493295;2.1502532959000002;0.7918934822079999;0.06838815659280001;0;True;44;1;80.12321274355425
55;55;1449493295;2.15018033981;0.791830301285;0.0684425830841;0;True;44;1;80.12321274355425
56;56;1449493295;2.15020895004;0.7918408513070001;0.0684301629663;0;True;44;1;80.12321274355425
57;57;1449493295;2.1502084732099997;0.791835188866;0.0684183239937;0;True;44;1;80.12321274355425
58;58;1449493295;2.15026974678;0.7918871045110001;0.0684513375163;0;True;44;1;80.12321274355425
59;59;1449493295;2.1502220630599997;0.791882872581;0.0683576837182;0;True;44;1;80.12321274355425
60;60;1449493295;2.1502361297599997;0.791865766048;0.0683767944574;0;True;44;1;80.12321274355425
61;61;1449493295;2.1502707004499997;0.7918844819069999;0.068432956934;0;True;44;1;80.12321274355425
62;62;1449493295;2.15018033981;0.791811943054;0.06843182444569999;0;True;44;1;80.12321274355425
63;63;1449493295;2.15018177032;0.791828930378;0.0684103742242;0;True;44;1;80.12321274355425
64;64;1449493295;2.150192976;0.7918225526809999;0.0684254765511;0;True;44;1;80.12321274355425
65;65;1449493295;2.15021896362;0.791867315769;0.068363904953;0;True;44;1;80.12321274355425
66;66;1449493295;2.15004467964;0.791689515114;0.0683742389083;0;True;44;1;80.12321274355425
67;67;1449493295;2.1500363349900002;0.791652679443;0.06833577156069999;0;True;44;1;80.12321274355425
68;68;1449493295;2.15027689934;0.791895747185;0.0684721767902;0;True;44;1;80.12321274355425
69;69;1449493295;2.15007042885;0.791717350483;0.0684305280447;0;True;44;1;80.12321274355425
70;70;1449493295;2.15016794205;0.7918118238449999;0.0683913528919;0;True;44;1;80.12321274355425
71;71;1449493295;2.15007162094;0.791723310947;0.0684311538935;0;True;44;1;80.12321274355425
72;72;1449493295;2.1501519680000003;0.7917886972429999;0.0684207603335;0;True;44;1;80.12321274355425
73;73;1449493295;2.15018153191;0.791817963123;0.06839362531899999;0;True;44;1;80.12321274355425
74;74;1449493295;2.1500890255000003;0.791761875153;0.06836347281930001;0;True;44;1;80.12321274355425
75;75;1449493295;2.15013408661;0.791839122772;0.0683747753501;0;True;44;1;80.12321274355425
76;76;1449493295;2.15015029907;0.7918083071709999;0.0684026107192;0;True;44;1;80.12321274355425
77;77;1449493295;2.15010380745;0.791777312756;0.0683889985085;0;True;44;1;80.12321274355425
78;78;1449493295;2.15011548996;0.7918075323100001;0.0683763474226;0;True;44;1;80.12321274355425
79;79;1449493295;2.15008997917;0.791796267033;0.0684036239982;0;True;44;1;80.12321274355425
80;80;1449493295;2.15001106262;0.791698038578;0.0684399008751;0;True;44;1;80.12321274355425
81;81;1449493295;2.15000152588;0.79169434309;0.0684328079224;0;True;44;1;80.12321274355425
82;82;1449493295;2.1501719951599996;0.7918402552600001;0.0684282705188;0;True;44;1;80.12321274355425
83;83;1449493295;2.1501369476299996;0.791800558567;0.0683895200491;0;True;44;1;80.12321274355425
84;84;1449493295;2.1501739025099997;0.791804075241;0.0683612972498;0;True;44;1;80.12321274355425
85;85;1449493295;2.1501832008400004;0.7918605208399999;0.0683456584811;0;True;44;1;80.12321274355425
86;86;1449493295;2.15014123917;0.791799008846;0.0683928504586;0;True;44;1;80.12321274355425
87;87;1449493295;2.1501917839099995;0.791834771633;0.06843440979719999;0;True;44;1;80.12321274355425
88;88;1449493295;2.15015172958;0.791829168797;0.06835955381389999;0;True;44;1;80.12321274355425
89;89;1449493295;2.1501634120900004;0.791845798492;0.06835377961400001;0;True;44;1;80.12321274355425
90;90;1449493295;2.15016317368;0.791830599308;0.06836568564180001;0;True;44;1;80.12321274355425
91;91;1449493295;2.15015506744;0.791819274426;0.06838183850049999;0;True;44;1;80.12321274355425
92;92;1449493295;2.15019893646;0.791869580746;0.06846862286330001;0;True;44;1;80.12321274355425
93;93;1449493295;2.15015435219;0.7918253540989999;0.0683827102184;0;True;44;1;80.12321274355425
94;94;1449493295;2.15009832382;0.791833281517;0.0684006735682;0;True;44;1;80.12321274355425
95;95;1449493295;2.15016293526;0.791873693466;0.0683300048113;0;True;44;1;80.12321274355425
96;96;1449493295;2.1500339508099997;0.7916723489759999;0.0683194920421;0;True;44;1;80.12321274355425
97;97;1449493295;2.1501879692099997;0.791846811771;0.0683661475778;0;True;44;1;80.12321274355425
98;98;1449493295;2.15018987656;0.7918377518649999;0.0684534758329;0;True;44;1;80.12321274355425
99;99;1449493295;2.15014982224;0.791816115379;0.0683862641454;0;True;44;1;80.12321274355425
100;100;1449493295;2.1501004695900003;0.791794300079;0.0684014931321;0;True;44;1;80.12321274355425
101;101;1449493295;2.15018844604;0.7918427586560001;0.0683440938592;0;True;44;1;80.12321274355425
102;102;1449493295;2.1500306129499998;0.7917273640629999;0.0684482082725;0;True;44;1;80.12321274355425
103;103;1449493295;2.15014600754;0.791820287704;0.0683875977993;0;True;44;1;80.12321274355425
104;104;1449493295;2.15000939369;0.791713953018;0.06845489144330001;0;True;44;1;80.12321274355425
105;105;1449493295;2.15015172958;0.791819870472;0.06846108287569999;0;True;44;1;80.12321274355425
106;106;1449493295;2.15008878708;0.791842281818;0.0683816149831;0;True;44;1;80.12321274355425
107;107;1449493295;2.15016293526;0.791827619076;0.0684253275394;0;True;44;1;80.12321274355425
108;108;1449493295;2.15018510818;0.791861653328;0.068436935544;0;True;44;1;80.12321274355425
109;109;1449493295;2.1501626968400003;0.7918197512630001;0.0683978646994;0;True;44;1;80.12321274355425
110;110;1449493295;2.15019917488;0.791856825352;0.0684659183025;0;True;44;1;80.12321274355425
111;111;1449493295;2.15009093285;0.791768670082;0.06837426126;0;True;44;1;80.12321274355425
112;112;1449493295;2.15018510818;0.791836023331;0.06842123717069999;0;True;44;1;80.12321274355425
113;113;1449493295;2.1502590179400003;0.7918829917910001;0.0684462785721;0;True;44;1;80.12321274355425
114;114;1449493295;2.1502025127400004;0.791845798492;0.0684274360538;0;True;44;1;80.12321274355425
115;115;1449493295;2.15018820763;0.7918516397480001;0.0684330463409;0;True;44;1;80.12321274355425
116;116;1449493295;2.15016961098;0.791843175888;0.0684157758951;0;True;44;1;80.12321274355425
117;117;1449493295;2.15023851395;0.7918831706049999;0.068403698504;0;True;44;1;80.12321274355425
118;118;1449493295;2.15023732185;0.791881561279;0.0683852955699;0;True;44;1;80.12321274355425
119;119;1449493295;2.15020275116;0.7918411493299999;0.06844691932199999;0;True;44;1;80.12321274355425
120;120;1449493295;2.1502900123599997;0.791903555393;0.06849982589480001;0;True;44;1;80.12321274355425
121;121;1449493295;2.1501846313499997;0.791820764542;0.0684522017837;0;True;44;1;80.12321274355425
122;122;1449493295;2.15019798279;0.791834592819;0.0684412047267;0;True;44;1;80.12321274355425
123;123;1449493295;2.15022492409;0.7918555736540001;0.068437948823;0;True;44;1;80.12321274355425
124;124;1449493295;2.1502461433400004;0.7918965816500001;0.068439796567;0;True;44;1;80.12321274355425
125;125;1449493295;2.15019893646;0.79186975956;0.0684322044253;0;True;44;1;80.12321274355425
126;126;1449493295;2.15031147003;0.791922211647;0.0685061812401;0;True;44;1;80.12321274355425
127;127;1449493295;2.1502122879;0.791836023331;0.0684219077229;0;True;44;1;80.12321274355425
128;128;1449493295;2.1502034664200003;0.7918554544449999;0.0684351176023;0;True;44;1;80.12321274355425
129;129;1449493295;2.15022397041;0.791851103306;0.0684647858143;0;True;44;1;80.12321274355425
130;130;1449493295;2.15017580986;0.7918393611910001;0.0684438794851;0;True;44;1;80.12321274355425
131;131;1449493295;2.15024113655;0.791864216328;0.0684970021248;0;True;44;1;80.12321274355425
132;132;1449493295;2.1501965522799997;0.791824162006;0.0685134157538;0;True;44;1;80.12321274355425
133;133;1449493295;2.1502456665;0.791888356209;0.0684327706695;0;True;44;1;80.12321274355425
134;134;1449493295;2.1502301693;0.7918594479559999;0.06843952834610001;0;True;44;1;80.12321274355425
135;135;1449493295;2.15020298958;0.791782140732;0.0683782696724;0;True;44;1;80.12321274355425
136;136;1449493295;2.1500575542400004;0.791682243347;0.0683869719505;0;True;44;1;80.12321274355425
137;137;1449493295;2.15017342567;0.7917960882189999;0.0684552118182;0;True;44;1;80.12321274355425
138;138;1449493295;2.15011310577;0.7917605042460001;0.0683876127005;0;True;44;1;80.12321274355425
139;139;1449493295;2.15017104149;0.7918407320980001;0.0683995112777;0;True;44;1;80.12321274355425
140;140;1449493295;2.15020418167;0.791825532913;0.0684557706118;0;True;44;1;80.12321274355425
141;141;1449493295;2.1502592563599996;0.791863381863;0.0684895440936;0;True;44;1;80.12321274355425
142;142;1449493295;2.1501619815799997;0.791800498962;0.0684357360005;0;True;44;1;80.12321274355425
143;143;1449493295;2.1500384807599997;0.791666328907;0.06837809085850001;0;True;44;1;80.12321274355425
144;144;1449493295;2.1501560211200004;0.7918140292170001;0.06842763721940001;0;True;44;1;80.12321274355425
145;145;1449493295;2.1501574516299997;0.7917991280560001;0.0684356242418;0;True;44;1;80.12321274355425
146;146;1449493295;2.1501739025099997;0.7918169498440001;0.0684725344181;0;True;44;1;80.12321274355425
147;147;1449493295;2.1501960754400002;0.791851997375;0.0684726759791;0;True;44;1;80.12321274355425
148;148;1449493295;2.1501348018599997;0.7918127179150001;0.0684452578425;0;True;44;1;80.12321274355425
149;149;1449493295;2.15017652512;0.7918175458910001;0.06845590472219999;0;True;44;1;80.12321274355425
150;150;1449493295;2.15006661415;0.791701853275;0.0684045702219;0;True;44;1;80.12321274355425
151;151;1449493295;2.15010309219;0.791776359081;0.0683842673898;0;True;44;1;80.12321274355425
152;152;1449493295;2.15016770363;0.7918033599850001;0.06843070685859999;0;True;44;1;80.12321274355425
153;153;1449493295;2.15017795563;0.7918116450309999;0.0684070810676;0;True;44;1;80.12321274355425
154;154;1449493295;2.15010666847;0.791771113873;0.06839222460990001;0;True;44;1;80.12321274355425
155;155;1449493295;2.15021443367;0.791852116585;0.0683740898967;0;True;44;1;80.12321274355425
156;156;1449493295;2.15020418167;0.791815459728;0.0684144049883;0;True;44;1;80.12321274355425
157;157;1449493295;2.1500687599200003;0.791707992554;0.0684450492263;0;True;44;1;80.12321274355425
158;158;1449493295;2.15018987656;0.7918174266820001;0.068392470479;0;True;44;1;80.12321274355425
159;159;1449493295;2.15017271042;0.791796445847;0.06843206286430001;0;True;44;1;80.12321274355425
160;160;1449493295;2.15005803108;0.791688740253;0.06836340576410001;0;True;44;1;80.12321274355425
161;161;1449493295;2.15006899834;0.7917450666429999;0.06845066696409999;0;True;44;1;80.12321274355425
162;162;1449493295;2.15006947517;0.7917273640629999;0.0684615522623;0;True;44;1;80.12321274355425
163;163;1449493295;2.15017747879;0.791801810265;0.0684248283505;0;True;44;1;80.12321274355425
164;164;1449493295;2.15020370483;0.791813910007;0.06846991181369999;0;True;44;1;80.12321274355425
165;165;1449493295;2.15018296242;0.7918081283570001;0.0684175938368;0;True;44;1;80.12321274355425
166;166;1449493295;2.1502063274400003;0.791763961315;0.0685185194016;0;True;44;1;80.12321274355425
167;167;1449493295;2.1502354145099996;0.791836857796;0.06838519126180001;0;True;44;1;80.12321274355425
168;168;1449493295;2.1501660347;0.791840136051;0.0684472545981;0;True;44;1;80.12321274355425
169;169;1449493295;2.15019321442;0.791866540909;0.0683492720127;0;True;44;1;80.12321274355425
170;170;1449493295;2.15017104149;0.7918082475660001;0.0684309229255;0;True;44;1;80.12321274355425
171;171;1449493295;2.15019464493;0.7918179035189999;0.0684256702662;0;True;44;1;80.12321274355425
172;172;1449493295;2.150203228;0.791819512844;0.0684153586626;0;True;44;1;80.12321274355425
173;173;1449493295;2.15018749237;0.791817188263;0.06841855496169999;0;True;44;1;80.12321274355425
174;174;1449493295;2.1501109600099997;0.791785776615;0.0684406161308;0;True;44;1;80.12321274355425
175;175;1449493295;2.15012431145;0.791798472404;0.0683948248625;0;True;44;1;80.12321274355425
176;176;1449493295;2.1500771045700002;0.791761040688;0.0683849975467;0;True;44;1;80.12321274355425
177;177;1449493295;2.15017867088;0.7918002009389999;0.0684091076255;0;True;44;1;80.12321274355425
178;178;1449493295;2.15009307861;0.791753470898;0.0684244781733;0;True;44;1;80.12321274355425
179;179;1449493295;2.15014839172;0.7917923331260001;0.0684107542038;0;True;44;1;80.12321274355425
180;180;1449493295;2.15007925034;0.7917478084559999;0.06835308671;0;True;44;1;80.12321274355425
181;181;1449493295;2.1501598358200003;0.791787326336;0.0684220418334;0;True;44;1;80.12321274355425
182;182;1449493295;2.15023303032;0.791845262051;0.0684817656875;0;True;44;1;80.12321274355425
183;183;1449493295;2.15021634102;0.7918641567229999;0.06835129112010001;0;True;44;1;80.12321274355425
184;184;1449493295;2.15005302429;0.791737854481;0.0684271380305;0;True;44;1;80.12321274355425
185;185;1449493295;2.1502606868700003;0.79187554121;0.0684157237411;0;True;44;1;80.12321274355425
186;186;1449493295;2.15020132065;0.791854739189;0.0683676376939;0;True;44;1;80.12321274355425
187;187;1449493295;2.1501836776700003;0.791825771332;0.06836954504250001;0;True;44;1;80.12321274355425
188;188;1449493295;2.1502056121799997;0.791839182377;0.0684020742774;0;True;44;1;80.12321274355425
189;189;1449493295;2.15015125275;0.791795194149;0.0684233829379;0;True;44;1;80.12321274355425
190;190;1449493295;2.15007781982;0.791754186153;0.0683455020189;0;True;44;1;80.12321274355425
191;191;1449493295;2.15009379387;0.7917436361310001;0.0683637112379;0;True;44;1;80.12321274355425
192;192;1449493295;2.15018343925;0.7918062210079999;0.0684047713876;0;True;44;1;80.12321274355425
193;193;1449493295;2.15016794205;0.791818797588;0.0684257522225;0;True;44;1;80.12321274355425
194;194;1449493295;2.15020036697;0.791837275028;0.0683950930834;0;True;44;1;80.12321274355425
195;195;1449493295;2.15009403229;0.7917633652689999;0.06835959106680001;0;True;44;1;80.12321274355425
196;196;1449493295;2.1501083374000003;0.791769385338;0.0683753415942;0;True;44;1;80.12321274355425
197;197;1449493295;2.15022802353;0.7918605208399999;0.0683620125055;0;True;44;1;80.12321274355425
198;198;1449493295;2.1501955986000003;0.791822910309;0.0683817565441;0;True;44;1;80.12321274355425
199;199;1449493295;2.1502692699400003;0.791883528233;0.0684446021914;0;True;44;1;80.12321274355425
200;200;1449493295;2.15023756027;0.791865706444;0.0683664530516;0;True;44;1;80.12321274355425
201;201;1449493295;2.1502153873400003;0.791852712631;0.06834133714440001;0;True;44;1;80.12321274355425
202;202;1449493295;2.1502006053900002;0.791834771633;0.06840089708569999;0;True;44;1;80.12321274355425
203;203;1449493295;2.150141716;0.791797697544;0.0683930814266;0;True;44;1;80.12321274355425
204;204;1449493295;2.15015649796;0.791789770126;0.0684081017971;0;True;44;1;80.12321274355425
205;205;1449493295;2.15004062653;0.791715443134;0.06842493265869999;0;True;44;1;80.12321274355425
206;206;1449493295;2.15020227432;0.791827201843;0.0684462040663;0;True;44;1;80.12321274355425
207;207;1449493295;2.1502034664200003;0.7918274402619999;0.0683805644512;0;True;44;1;80.12321274355425
208;208;1449493295;2.15006923676;0.791708648205;0.0684262365103;0;True;44;1;80.12321274355425
209;209;1449493295;2.15014076233;0.7917939424510001;0.06839828938249999;0;True;44;1;80.12321274355425
210;210;1449493295;2.15005660057;0.7917382717129999;0.0684228166938;0;True;44;1;80.12321274355425
211;211;1449493295;2.15019726753;0.7918232083319999;0.0683794245124;0;True;44;1;80.12321274355425
212;212;1449493295;2.1501531601;0.7917985320090001;0.0683943778276;0;True;44;1;80.12321274355425
213;213;1449493296;2.1501820087400003;0.791812360287;0.0683757588267;1;True;44;1;80.12321274355425
214;214;1449493296;2.15020680428;0.7918620705600001;0.0684319809079;1;True;44;1;80.12321274355425
215;215;1449493296;2.1502072811099997;0.7918550968170001;0.0683356001973;1;True;44;1;80.12321274355425
216;216;1449493296;2.15017700195;0.791808903217;0.06836888194080001;1;True;44;1;80.12321274355425
217;217;1449493296;2.15021634102;0.791831016541;0.0683557838202;1;True;44;1;80.12321274355425
218;218;1449493296;2.15015888214;0.7918177247050001;0.0683714151382;1;True;44;1;80.12321274355425
219;219;1449493296;2.1501455307;0.791808724403;0.0683822780848;1;True;44;1;80.12321274355425
220;220;1449493296;2.15018439293;0.791864216328;0.0683350339532;1;True;44;1;80.12321274355425
221;221;1449493296;2.1501646041900004;0.7918000221250001;0.06838320195669999;1;True;44;1;80.12321274355425
222;222;1449493296;2.15016102791;0.791832268238;0.06837814301249999;1;True;44;1;80.12321274355425
223;223;1449493296;2.15012764931;0.7917714715;0.0684067159891;1;True;44;1;80.12321274355425
224;224;1449493296;2.15018248558;0.791880607605;0.068323507905;1;True;44;1;80.12321274355425
225;225;1449493296;2.15005588531;0.791765630245;0.0684103295207;1;True;44;1;80.12321274355425
226;226;1449493296;2.15019631386;0.791845679283;0.0683402344584;1;True;44;1;80.12321274355425
227;227;1449493296;2.15003442764;0.791700482368;0.068355768919;1;True;44;1;80.12321274355425
228;228;1449493296;2.15019059181;0.791880309582;0.068335801363;1;True;44;1;80.12321274355425
229;229;1449493296;2.15017127991;0.7918662428859999;0.0683452785015;1;True;44;1;80.12321274355425
230;230;1449493296;2.15016651154;0.791869044304;0.0683426111937;1;True;44;1;80.12321274355425
231;231;1449493296;2.15012431145;0.791819393635;0.0684096962214;1;True;44;1;80.12321274355425
232;232;1449493296;2.1500732898700003;0.7918102145199999;0.0684256702662;1;True;44;1;80.12321274355425
233;233;1449493296;2.15015172958;0.7918566465379999;0.0683818459511;1;True;44;1;80.12321274355425
234;234;1449493296;2.15014386177;0.791864395142;0.0683856904507;1;True;44;1;80.12321274355425
235;235;1449493296;2.15005469322;0.7918274402619999;0.0684023424983;1;True;44;1;80.12321274355425
236;236;1449493296;2.15017580986;0.791875004768;0.06836108118300001;1;True;44;1;80.12321274355425
237;237;1449493296;2.15019536018;0.7919133901600001;0.0684309601784;1;True;44;1;80.12321274355425
238;238;1449493296;2.15013813972;0.791820287704;0.06842079013590001;1;True;44;1;80.12321274355425
239;239;1449493296;2.15007829666;0.791823506355;0.0684536620975;1;True;44;1;80.12321274355425
240;240;1449493296;2.1499993801099997;0.7916964888570001;0.0683931484818;1;True;44;1;80.12321274355425
241;241;1449493296;2.15020084381;0.79187721014;0.068411834538;1;True;44;1;80.12321274355425
242;242;1449493296;2.15013504028;0.7918428778650001;0.0684396326542;1;True;44;1;80.12321274355425
243;243;1449493296;2.15013241768;0.7918531298639999;0.0684302821755;1;True;44;1;80.12321274355425
244;244;1449493296;2.1501441001900004;0.791838526726;0.0684137791395;1;True;44;1;80.12321274355425
245;245;1449493296;2.15014457703;0.791861534119;0.068414144218;1;True;44;1;80.12321274355425
246;246;1449493296;2.15015435219;0.7918572425839999;0.0684068650007;1;True;44;1;80.12321274355425
247;247;1449493296;2.15003156662;0.791728317738;0.06847190111880001;1;True;44;1;80.12321274355425
248;248;1449493296;2.1501672267900003;0.7919009923929999;0.0683822855353;1;True;44;1;80.12321274355425
249;249;1449493296;2.15014386177;0.791825413704;0.0684461668134;1;True;44;1;80.12321274355425
250;250;1449493296;2.1501648426099997;0.7918674349779999;0.06847998499869999;1;True;44;1;80.12321274355425
251;251;1449493296;2.15016555786;0.7918387055399999;0.0684330463409;1;True;44;1;80.12321274355425
252;252;1449493296;2.1501865387;0.791862010956;0.0684155896306;1;True;44;1;80.12321274355425
253;253;1449493296;2.1501891613;0.7918542623520001;0.0684303194284;1;True;44;1;80.12321274355425
254;254;1449493296;2.15011310577;0.791825473309;0.068411283195;1;True;44;1;80.12321274355425
255;255;1449493296;2.15027809143;0.791924834251;0.0684756264091;1;True;44;1;80.12321274355425
256;256;1449493296;2.15001678467;0.791657090187;0.06841693818570001;1;True;44;1;80.12321274355425
257;257;1449493296;2.1502456665;0.7918835878370001;0.0684445127845;1;True;44;1;80.12321274355425
258;258;1449493296;2.1500747203799997;0.7918009161949999;0.06844117492440001;1;True;44;1;80.12321274355425
259;259;1449493296;2.1502611637099998;0.791895508766;0.0685088783503;1;True;44;1;80.12321274355425
260;260;1449493296;2.1502428054799996;0.791908502579;0.0684112980962;1;True;44;1;80.12321274355425
261;261;1449493296;2.15022850037;0.7919130921359999;0.0684151947498;1;True;44;1;80.12321274355425
262;262;1449493296;2.1501395702400004;0.7917973399160001;0.068425796926;1;True;44;1;80.12321274355425
263;263;1449493296;2.15028142929;0.7918897867199999;0.06851012259719999;1;True;44;1;80.12321274355425
264;264;1449493296;2.15009307861;0.7917265892030001;0.0684231221676;1;True;44;1;80.12321274355425
265;265;1449493296;2.15012764931;0.791792988777;0.0684130340815;1;True;44;1;80.12321274355425
266;266;1449493296;2.15009379387;0.7917398810390001;0.06842531263830001;1;True;44;1;80.12321274355425
267;267;1449493296;2.15021944046;0.7918583750720001;0.0684644505382;1;True;44;1;80.12321274355425
268;268;1449493296;2.15021157265;0.791861951351;0.0684604346752;1;True;44;1;80.12321274355425
269;269;1449493296;2.15024876595;0.7918927669529999;0.06841009855269999;1;True;44;1;80.12321274355425
270;270;1449493296;2.15024495125;0.7918994426729999;0.0684231296182;1;True;44;1;80.12321274355425
271;271;1449493296;2.1502356529199997;0.7918647527689999;0.0684689581394;1;True;44;1;80.12321274355425
272;272;1449493296;2.15018081665;0.7918633222579999;0.0684545114636;1;True;44;1;80.12321274355425
273;273;1449493296;2.15022230148;0.791863024235;0.0684738978744;1;True;44;1;80.12321274355425
274;274;1449493296;2.15022087097;0.791856825352;0.0684572458267;1;True;44;1;80.12321274355425
275;275;1449493296;2.1502404213;0.791869938374;0.06851449608799999;1;True;44;1;80.12321274355425
276;276;1449493296;2.15022969246;0.791891157627;0.06839267164469999;1;True;44;1;80.12321274355425
277;277;1449493296;2.1502623558000002;0.791914403439;0.0684851333499;1;True;44;1;80.12321274355425
278;278;1449493296;2.15018630028;0.791825711727;0.06846857815980001;1;True;44;1;80.12321274355425
279;279;1449493296;2.1502006053900002;0.7918274402619999;0.06848831474780001;1;True;44;1;80.12321274355425
280;280;1449493296;2.15011811256;0.791772961617;0.0684035271406;1;True;44;1;80.12321274355425
281;281;1449493296;2.15018248558;0.79181677103;0.06847575306890001;1;True;44;1;80.12321274355425
282;282;1449493296;2.15019464493;0.791842401028;0.06845968216659999;1;True;44;1;80.12321274355425
283;283;1449493296;2.1501920223199997;0.791835665703;0.0684623643756;1;True;44;1;80.12321274355425
284;284;1449493296;2.15025854111;0.7918930649760001;0.0684509649873;1;True;44;1;80.12321274355425
285;285;1449493296;2.1502470970200003;0.791890025139;0.06842933595180001;1;True;44;1;80.12321274355425
286;286;1449493296;2.1501443386099997;0.791823446751;0.0684383064508;1;True;44;1;80.12321274355425
287;287;1449493296;2.1501648426099997;0.7918300628659999;0.0684388577938;1;True;44;1;80.12321274355425
288;288;1449493296;2.1501019000999997;0.791775047779;0.0684262216091;1;True;44;1;80.12321274355425
289;289;1449493296;2.1501057148;0.791797041893;0.0683984085917;1;True;44;1;80.12321274355425
290;290;1449493296;2.1501057148;0.791798233986;0.0683932229877;1;True;44;1;80.12321274355425
291;291;1449493296;2.15009880066;0.791837215424;0.0684518814087;1;True;44;1;80.12321274355425
292;292;1449493296;2.150141716;0.7918315529819999;0.0684152543545;1;True;44;1;80.12321274355425
293;293;1449493296;2.150203228;0.7918593287469999;0.0683958828449;1;True;44;1;80.12321274355425
294;294;1449493296;2.15018224716;0.791830539703;0.0684243738651;1;True;44;1;80.12321274355425
295;295;1449493296;2.1501402854900005;0.7918174266820001;0.0684306174517;1;True;44;1;80.12321274355425
296;296;1449493296;2.1501693725599997;0.7918375730509999;0.0684040337801;1;True;44;1;80.12321274355425
297;297;1449493296;2.15011572838;0.7917944192890001;0.0684538856149;1;True;44;1;80.12321274355425
298;298;1449493296;2.1501626968400003;0.791833817959;0.06842697411780001;1;True;44;1;80.12321274355425
299;299;1449493296;2.150192976;0.791854679585;0.0683707892895;1;True;44;1;80.12321274355425
300;300;1449493296;2.15000414848;0.7917361855509999;0.0684582665563;1;True;44;1;80.12321274355425
301;301;1449493296;2.15020489693;0.791850626469;0.068450525403;1;True;44;1;80.12321274355425
302;302;1449493296;2.15014910698;0.7918184399600001;0.0683891177177;1;True;44;1;80.12321274355425
303;303;1449493296;2.1501488685599996;0.7918184399600001;0.0684104114771;1;True;44;1;80.12321274355425
304;304;1449493296;2.1502017974900003;0.7918495535850001;0.0683647766709;1;True;44;1;80.12321274355425
305;305;1449493296;2.1501646041900004;0.791825115681;0.0683887526393;1;True;44;1;80.12321274355425
306;306;1449493296;2.15018844604;0.7918570637700001;0.0683547109365;1;True;44;1;80.12321274355425
307;307;1449493296;2.1500859260599996;0.791744828224;0.0683554112911;1;True;44;1;80.12321274355425
308;308;1449493296;2.15024805069;0.791877090931;0.06840215623380001;1;True;44;1;80.12321274355425
309;309;1449493296;2.1500384807599997;0.792274057865;0.0685385763645;1;True;44;1;80.12321274355425
310;310;1449493296;2.15022182465;0.791829228401;0.0683694109321;1;True;44;1;80.12321274355425
311;311;1449493296;2.1501719951599996;0.791791558266;0.0683827400208;1;True;44;1;80.12321274355425
312;312;1449493296;2.15013504028;0.791795790195;0.0684344321489;1;True;44;1;80.12321274355425
313;313;1449493296;2.15008044243;0.7917490005490001;0.068347223103;1;True;44;1;80.12321274355425
314;314;1449493296;2.15003347397;0.7916984558110001;0.06831716746090001;1;True;44;1;80.12321274355425
315;315;1449493296;2.15019774437;0.791836023331;0.06843344122169999;1;True;44;1;80.12321274355425
316;316;1449493296;2.1502034664200003;0.791861653328;0.0683602690697;1;True;44;1;80.12321274355425
317;317;1449493296;2.15011668205;0.7917918562890001;0.0684209614992;1;True;44;1;80.12321274355425
318;318;1449493296;2.15003585815;0.791684806347;0.06834904104469999;1;True;44;1;80.12321274355425
319;319;1449493296;2.15014243126;0.791801989079;0.06838246434930001;1;True;44;1;80.12321274355425
320;320;1449493296;2.15022373199;0.79184371233;0.06835097074509999;1;True;44;1;80.12321274355425
321;321;1449493296;2.15016150475;0.791835546494;0.06838321685790001;1;True;44;1;80.12321274355425
322;322;1449493296;2.15005493164;0.792300760746;0.0685624703765;1;True;44;1;80.12321274355425
323;323;1449493296;2.15012907982;0.791812360287;0.0683851093054;1;True;44;1;80.12321274355425
324;324;1449493296;2.15023422241;0.7918501496320001;0.0683843269944;1;True;44;1;80.12321274355425
325;325;1449493296;2.15019631386;0.791838169098;0.0684464946389;1;True;44;1;80.12321274355425
326;326;1449493296;2.15013933182;0.7918273210529999;0.06838572770359999;1;True;44;1;80.12321274355425
327;327;1449493296;2.1502006053900002;0.791876494884;0.0683262869716;1;True;44;1;80.12321274355425
328;328;1449493296;2.1500480175;0.79175144434;0.06831022351980001;1;True;44;1;80.12321274355425
329;329;1449493296;2.15017342567;0.791872620583;0.0683657824993;1;True;44;1;80.12321274355425
330;330;1449493296;2.1501429081;0.791825652122;0.0684489533305;1;True;44;1;80.12321274355425
331;331;1449493296;2.15018820763;0.791877448559;0.0683284923434;1;True;44;1;80.12321274355425
332;332;1449493296;2.1501643657700003;0.791855990887;0.0683333352208;1;True;44;1;80.12321274355425
333;333;1449493296;2.1501646041900004;0.791828930378;0.068433701992;1;True;44;1;80.12321274355425
334;334;1449493296;2.15012383461;0.7917939424510001;0.0684022754431;1;True;44;1;80.12321274355425
335;335;1449493296;2.15017032623;0.791832506657;0.0683875977993;1;True;44;1;80.12321274355425
336;336;1449493296;2.1501545906099997;0.791845679283;0.0683750286698;1;True;44;1;80.12321274355425
337;337;1449493296;2.15014314651;0.7918068766590001;0.0683960616589;1;True;44;1;80.12321274355425
338;338;1449493296;2.15022540092;0.791901409626;0.0684624612331;1;True;44;1;80.12321274355425
339;339;1449493296;2.1501479148900002;0.7918194532389999;0.0683908611536;1;True;44;1;80.12321274355425
340;340;1449493296;2.1501870155300002;0.791864454746;0.0684385672212;1;True;44;1;80.12321274355425
341;341;1449493296;2.1501760482799996;0.791857361794;0.0684069022536;1;True;44;1;80.12321274355425
342;342;1449493296;2.15001344681;0.7917190790180001;0.06845934689040001;1;True;44;1;80.12321274355425
343;343;1449493296;2.15018725395;0.7918485403059999;0.0684026628733;1;True;44;1;80.12321274355425
344;344;1449493296;2.15018963814;0.791876614094;0.06837399303910001;1;True;44;1;80.12321274355425
345;345;1449493296;2.1501746177700003;0.79182600975;0.0683982595801;1;True;44;1;80.12321274355425
346;346;1449493296;2.1501784324599997;0.791856825352;0.06840762495989999;1;True;44;1;80.12321274355425
347;347;1449493296;2.1502597332;0.791896939278;0.06844112277030001;1;True;44;1;80.12321274355425
348;348;1449493296;2.15025234222;0.7918788790700001;0.0684287920594;1;True;44;1;80.12321274355425
349;349;1449493296;2.15018510818;0.791890799999;0.06837520748380001;1;True;44;1;80.12321274355425
350;350;1449493296;2.1502225399;0.791871964931;0.0684478059411;1;True;44;1;80.12321274355425
351;351;1449493296;2.15019989014;0.791853785515;0.0683694854379;1;True;44;1;80.12321274355425
352;352;1449493296;2.15015220642;0.791817009449;0.0684342458844;1;True;44;1;80.12321274355425
353;353;1449493296;2.15013623238;0.7917803525920001;0.0684186294675;1;True;44;1;80.12321274355425
354;354;1449493296;2.15017771721;0.791824102402;0.068414516747;1;True;44;1;80.12321274355425
355;355;1449493296;2.15017342567;0.791806578636;0.068416915834;1;True;44;1;80.12321274355425
356;356;1449493296;2.15019989014;0.79183280468;0.0684209316969;1;True;44;1;80.12321274355425
357;357;1449493296;2.1501789093;0.7917986512180001;0.0684273019433;1;True;44;1;80.12321274355425
358;358;1449493296;2.1502506732900004;0.7918865680689999;0.0683749318123;1;True;44;1;80.12321274355425
359;359;1449493296;2.15025353432;0.7918630838390001;0.0684621781111;1;True;44;1;80.12321274355425
360;360;1449493296;2.15001392365;0.792327284813;0.0685660466552;1;True;44;1;80.12321274355425
361;361;1449493296;2.1502141952500002;0.791841328144;0.06842949986460001;1;True;44;1;80.12321274355425
362;362;1449493296;2.1502506732900004;0.79188400507;0.06840341538189999;1;True;44;1;80.12321274355425
363;363;1449493296;2.15018510818;0.791817009449;0.068451821804;1;True;44;1;80.12321274355425
364;364;1449493296;2.15022158623;0.7918886542319999;0.0684127658606;1;True;44;1;80.12321274355425
365;365;1449493296;2.15023398399;0.7918662428859999;0.0684396773577;1;True;44;1;80.12321274355425
366;366;1449493296;2.1502153873400003;0.7918455600740001;0.0684565752745;1;True;44;1;80.12321274355425
367;367;1449493296;2.15021014214;0.7918444275859999;0.068431198597;1;True;44;1;80.12321274355425
368;368;1449493296;2.1501891613;0.79188221693;0.0684242323041;1;True;44;1;80.12321274355425
369;369;1449493296;2.15025734901;0.791897058487;0.0684946104884;1;True;44;1;80.12321274355425
370;370;1449493296;2.15019583702;0.791802287102;0.0684718042612;1;True;44;1;80.12321274355425
371;371;1449493296;2.15024805069;0.7918845415119999;0.0684077292681;1;True;44;1;80.12321274355425
372;372;1449493296;2.15023732185;0.791862010956;0.0684254318476;1;True;44;1;80.12321274355425
373;373;1449493296;2.15019083023;0.791861712933;0.0684569403529;1;True;44;1;80.12321274355425
374;374;1449493296;2.15015912056;0.791828393936;0.068431802094;1;True;44;1;80.12321274355425
375;375;1449493296;2.15018415451;0.791768908501;0.06859669089319999;1;True;44;1;80.12321274355425
376;376;1449493296;2.1502227783200003;0.791866183281;0.0684252008796;1;True;44;1;80.12321274355425
377;377;1449493296;2.15022778511;0.791861116886;0.0684317499399;1;True;44;1;80.12321274355425
378;378;1449493296;2.1502346992500003;0.7918666601180001;0.0684414803982;1;True;44;1;80.12321274355425
379;379;1449493296;2.15017938614;0.791857719421;0.068442851305;1;True;44;1;80.12321274355425
380;380;1449493296;2.15020298958;0.791850745678;0.0684552416205;1;True;44;1;80.12321274355425
381;381;1449493296;2.15016222;0.791827201843;0.0684326291084;1;True;44;1;80.12321274355425
382;382;1449493296;2.1500923633599998;0.7917939424510001;0.0684685632586;1;True;44;1;80.12321274355425
383;383;1449493296;2.15010166168;0.7917851209639999;0.06850044429299999;1;True;44;1;80.12321274355425
384;384;1449493296;2.15018987656;0.791838169098;0.0684478133917;1;True;44;1;80.12321274355425
385;385;1449493296;2.15020537376;0.7918885946269999;0.0684788003564;1;True;44;1;80.12321274355425
386;386;1449493296;2.1501879692099997;0.791876673698;0.068482927978;1;True;44;1;80.12321274355425
387;387;1449493296;2.15012264252;0.791765749454;0.06848986446859999;1;True;44;1;80.12321274355425
388;388;1449493296;2.1501481533099995;0.791818916798;0.0684199854732;1;True;44;1;80.12321274355425
389;389;1449493296;2.15021800995;0.791833996773;0.0684353411198;1;True;44;1;80.12321274355425
390;390;1449493296;2.15024447441;0.79188221693;0.0683905184269;1;True;44;1;80.12321274355425
391;391;1449493296;2.15015721321;0.791797280312;0.0684763863683;1;True;44;1;80.12321274355425
392;392;1449493296;2.15022945404;0.79185551405;0.0684242770076;1;True;44;1;80.12321274355425
393;393;1449493296;2.1502063274400003;0.7918741703030001;0.0684421136975;1;True;44;1;80.12321274355425
394;394;1449493296;2.15014672279;0.791835784912;0.0684225559235;1;True;44;1;80.12321274355425
395;395;1449493296;2.15019321442;0.791856527328;0.0684422105551;1;True;44;1;80.12321274355425
396;396;1449493296;2.1502828598;0.7919183969499999;0.0684432908893;1;True;44;1;80.12321274355425
397;397;1449493296;2.15024805069;0.7918699979780001;0.06848946213719999;1;True;44;1;80.12321274355425
398;398;1449493296;2.15020775795;0.791836619377;0.0684497877955;1;True;44;1;80.12321274355425
399;399;1449493296;2.15021896362;0.79185372591;0.0684427469969;1;True;44;1;80.12321274355425
400;400;1449493296;2.1502392292;0.791895151138;0.0684910342097;1;True;44;1;80.12321274355425
401;401;1449493296;2.1502161026;0.791818380356;0.0684490427375;1;True;44;1;80.12321274355425
402;402;1449493296;2.1502017974900003;0.791879177094;0.06839365512130001;1;True;44;1;80.12321274355425
403;403;1449493296;2.15018892288;0.791839122772;0.0684514567256;1;True;44;1;80.12321274355425
404;404;1449493296;2.15009140968;0.7917457818979999;0.06849503517149999;1;True;44;1;80.12321274355425
405;405;1449493296;2.15021848679;0.791858434677;0.0684042423964;1;True;44;1;80.12321274355425
406;406;1449493296;2.15017008781;0.791807413101;0.06842763721940001;1;True;44;1;80.12321274355425
407;407;1449493296;2.15024900436;0.7918756604189999;0.0683840215206;1;True;44;1;80.12321274355425
408;408;1449493296;2.15019392967;0.791830599308;0.0684533640742;1;True;44;1;80.12321274355425
409;409;1449493296;2.15010356903;0.7917599678039999;0.0684886276722;1;True;44;1;80.12321274355425
410;410;1449493296;2.15019226074;0.7918261289599999;0.0684427171946;1;True;44;1;80.12321274355425
411;411;1449493296;2.15010809898;0.791759729385;0.06845898181200001;1;True;44;1;80.12321274355425
412;412;1449493296;2.15024971962;0.7918801903720001;0.0684132352471;1;True;44;1;80.12321274355425
413;413;1449493296;2.1501846313499997;0.7918301224709999;0.0684425830841;1;True;44;1;80.12321274355425
414;414;1449493296;2.15019035339;0.7918408513070001;0.06841279566290001;1;True;44;1;80.12321274355425
415;415;1449493296;2.1500096321099997;0.791620373726;0.068387106061;1;True;44;1;80.12321274355425
416;416;1449493296;2.1500701904299997;0.7917423844339999;0.0684892088175;1;True;44;1;80.12321274355425
417;417;1449493296;2.1500859260599996;0.7917532920839999;0.0684763416648;1;True;44;1;80.12321274355425
418;418;1449493296;2.15019369125;0.791845500469;0.068405777216;1;True;44;1;80.12321274355425
419;419;1449493296;2.15004515648;0.7917250990870001;0.0684761181474;1;True;44;1;80.12321274355425
420;420;1449493296;2.1501643657700003;0.7918224930760001;0.0684325098991;1;True;44;1;80.12321274355425
421;421;1449493296;2.15022945404;0.7918886542319999;0.0684080347419;1;True;44;1;80.12321274355425
422;422;1449493296;2.1502025127400004;0.79185372591;0.0683989152312;1;True;44;1;80.12321274355425
423;423;1449493296;2.15018010139;0.791869223118;0.0684051737189;1;True;44;1;80.12321274355425
424;424;1449493296;2.15020489693;0.7918543815610001;0.0683982372284;1;True;44;1;80.12321274355425
425;425;1449493296;2.15019869804;0.7918399572370001;0.0684377029538;1;True;44;1;80.12321274355425
426;426;1449493296;2.15018486977;0.791865944862;0.0684671476483;1;True;44;1;80.12321274355425
427;427;1449493296;2.15015411377;0.79182267189;0.06840970367190001;1;True;44;1;80.12321274355425
428;428;1449493296;2.15018510818;0.791867911816;0.0684485509992;1;True;44;1;80.12321274355425
429;429;1449493296;2.15003013611;0.7917320132260001;0.0684422850609;1;True;44;1;80.12321274355425
430;430;1449493296;2.1500337123900004;0.7917314767839999;0.06846760958430001;1;True;44;1;80.12321274355425
431;431;1449493296;2.15013670921;0.791825592518;0.0684164091945;1;True;44;1;80.12321274355425
432;432;1449493296;2.15017795563;0.791856110096;0.0683947578073;1;True;44;1;80.12321274355425
433;433;1449493296;2.15017533302;0.7918501496320001;0.06844191998240001;1;True;44;1;80.12321274355425
434;434;1449493296;2.1501533985099996;0.791865229607;0.06839808076619999;1;True;44;1;80.12321274355425
435;435;1449493296;2.15013623238;0.7918542623520001;0.0683951377869;1;True;44;1;80.12321274355425
436;436;1449493296;2.1500523090400003;0.791738927364;0.0684247091413;1;True;44;1;80.12321274355425
437;437;1449493296;2.15012311935;0.791843235493;0.0683926790953;1;True;44;1;80.12321274355425
438;438;1449493296;2.1500248909;0.791705727577;0.0683475881815;1;True;44;1;80.12321274355425
439;439;1449493296;2.15014624596;0.791834414005;0.0684408396482;1;True;44;1;80.12321274355425
440;440;1449493296;2.15002465248;0.7916911840440001;0.06835886090990001;1;True;44;1;80.12321274355425
441;441;1449493296;2.1502034664200003;0.7918625473980001;0.0684538036585;1;True;44;1;80.12321274355425
442;442;1449493296;2.15007162094;0.791767179966;0.068338163197;1;True;44;1;80.12321274355425
443;443;1449493296;2.15024209023;0.791877448559;0.06841532886030001;1;True;44;1;80.12321274355425
444;444;1449493296;2.1501095295;0.791846036911;0.06834269315000001;1;True;44;1;80.12321274355425
445;445;1449493296;2.15015530586;0.791835427284;0.0684032440186;1;True;44;1;80.12321274355425
446;446;1449493296;2.15021252632;0.79186218977;0.06835859268899999;1;True;44;1;80.12321274355425
447;447;1449493296;2.15021038055;0.791846692562;0.06836625933650001;1;True;44;1;80.12321274355425
448;448;1449493296;2.15011882782;0.7918009758;0.06837287545199999;1;True;44;1;80.12321274355425
449;449;1449493296;2.15005660057;0.7917374968529999;0.06846296787259999;1;True;44;1;80.12321274355425
450;450;1449493296;2.15005660057;0.7917034029960001;0.0683851838112;1;True;44;1;80.12321274355425
451;451;1449493296;2.15016293526;0.7918300032619999;0.0684295147657;1;True;44;1;80.12321274355425
452;452;1449493297;2.15012264252;0.7918301224709999;0.0683899149299;2;True;44;1;80.12321274355425
453;453;1449493297;2.1501839160900005;0.791845083237;0.0684049502015;2;True;44;1;80.12321274355425
454;454;1449493297;2.15014958382;0.791839301586;0.0683943256736;2;True;44;1;80.12321274355425
455;455;1449493297;2.1501660347;0.7918361425399999;0.0683914124966;2;True;44;1;80.12321274355425
456;456;1449493297;2.15024352074;0.7919027209280001;0.0684002563357;2;True;44;1;80.12321274355425
457;457;1449493297;2.15003752708;0.7917076945300001;0.06837685406209999;2;True;44;1;80.12321274355425
458;458;1449493297;2.1501288414;0.791827917099;0.068400092423;2;True;44;1;80.12321274355425
459;459;1449493297;2.15013623238;0.791809856892;0.068398937583;2;True;44;1;80.12321274355425
460;460;1449493297;2.15019464493;0.791865766048;0.0683600753546;2;True;44;1;80.12321274355425
461;461;1449493297;2.15020155907;0.7918825745579999;0.0683290734887;2;True;44;1;80.12321274355425
462;462;1449493297;2.15012764931;0.7918216586110001;0.0683802813292;2;True;44;1;80.12321274355425
463;463;1449493297;2.1502161026;0.791865944862;0.06838250905280001;2;True;44;1;80.12321274355425
464;464;1449493297;2.1502017974900003;0.79187309742;0.06834358721969999;2;True;44;1;80.12321274355425
465;465;1449493297;2.15019369125;0.7918536663060001;0.0683486163616;2;True;44;1;80.12321274355425
466;466;1449493297;2.15018153191;0.791847527027;0.06839539855719999;2;True;44;1;80.12321274355425
467;467;1449493297;2.1500475406599997;0.7917864322660001;0.0683513954282;2;True;44;1;80.12321274355425
468;468;1449493297;2.1501390934;0.791804492474;0.0684005469084;2;True;44;1;80.12321274355425
469;469;1449493297;2.15018153191;0.791860699654;0.0683432742953;2;True;44;1;80.12321274355425
470;470;1449493297;2.1501581668900003;0.791824102402;0.0684056580067;2;True;44;1;80.12321274355425
471;471;1449493297;2.15007281303;0.791766941547;0.06834551692009999;2;True;44;1;80.12321274355425
472;472;1449493297;2.15020298958;0.7918748855589999;0.0684211403131;2;True;44;1;80.12321274355425
473;473;1449493297;2.15013384819;0.791835069656;0.0684207379818;2;True;44;1;80.12321274355425
474;474;1449493297;2.1501557827;0.791821122169;0.0684093311429;2;True;44;1;80.12321274355425
475;475;1449493297;2.15004372597;0.7916932702060001;0.06837784498930001;2;True;44;1;80.12321274355425
476;476;1449493297;2.1501791477200003;0.7918261289599999;0.0684011876583;2;True;44;1;80.12321274355425
477;477;1449493297;2.1501760482799996;0.7918190956119999;0.0684005022049;2;True;44;1;80.12321274355425
478;478;1449493297;2.1501402854900005;0.7918007969859999;0.0684042051435;2;True;44;1;80.12321274355425
479;479;1449493297;2.15021920204;0.791868269444;0.0683858990669;2;True;44;1;80.12321274355425
480;480;1449493297;2.1500844955400003;0.791806399822;0.0683966651559;2;True;44;1;80.12321274355425
481;481;1449493297;2.1501643657700003;0.791815280914;0.0684136524796;2;True;44;1;80.12321274355425
482;482;1449493297;2.15018343925;0.7918396592139999;0.0683828517795;2;True;44;1;80.12321274355425
483;483;1449493297;2.15018296242;0.791848123074;0.06841009855269999;2;True;44;1;80.12321274355425
484;484;1449493297;2.15007281303;0.7917926907539999;0.0683926865458;2;True;44;1;80.12321274355425
485;485;1449493297;2.1501526832599995;0.79179918766;0.06842524558310001;2;True;44;1;80.12321274355425
486;486;1449493297;2.15018177032;0.7918680906300001;0.0683778300881;2;True;44;1;80.12321274355425
487;487;1449493297;2.1501410007499997;0.791813373566;0.0684264302254;2;True;44;1;80.12321274355425
488;488;1449493297;2.1502096653;0.79187721014;0.0683687999845;2;True;44;1;80.12321274355425
489;489;1449493297;2.15020275116;0.7919042706489999;0.0683542788029;2;True;44;1;80.12321274355425
490;490;1449493297;2.15006041527;0.791736543179;0.0683673992753;2;True;44;1;80.12321274355425
491;491;1449493297;2.1501441001900004;0.791825830936;0.0684257745743;2;True;44;1;80.12321274355425
492;492;1449493297;2.15006947517;0.7917197942730001;0.068424589932;2;True;44;1;80.12321274355425
493;493;1449493297;2.1500771045700002;0.791769087315;0.0683760493994;2;True;44;1;80.12321274355425
494;494;1449493297;2.15016365051;0.791817307472;0.0684420838952;2;True;44;1;80.12321274355425
495;495;1449493297;2.15019464493;0.791880607605;0.0684306621552;2;True;44;1;80.12321274355425
496;496;1449493297;2.15018892288;0.791825890541;0.0684355273843;2;True;44;1;80.12321274355425
497;497;1449493297;2.1501529216799997;0.7918252348899999;0.0684481784701;2;True;44;1;80.12321274355425
498;498;1449493297;2.15007400513;0.791811406612;0.0684333741665;2;True;44;1;80.12321274355425
499;499;1449493297;2.15023231506;0.791869163513;0.0685114637017;2;True;44;1;80.12321274355425
500;500;1449493297;2.1501760482799996;0.7918496131899999;0.0684492737055;2;True;44;1;80.12321274355425
501;501;1449493297;2.1501870155300002;0.7918361425399999;0.0684428289533;2;True;44;1;80.12321274355425
502;502;1449493297;2.15017294884;0.791837871075;0.0684621408582;2;True;44;1;80.12321274355425
503;503;1449493297;2.15008544922;0.7917703986169999;0.0683822855353;2;True;44;1;80.12321274355425
504;504;1449493297;2.15014743805;0.791819274426;0.06843861192459999;2;True;44;1;80.12321274355425
505;505;1449493297;2.15022063255;0.791856944561;0.0685090869665;2;True;44;1;80.12321274355425
506;506;1449493297;2.15016579628;0.791829645634;0.0684517174959;2;True;44;1;80.12321274355425
507;507;1449493297;2.15007138252;0.7917408943179999;0.0683891028166;2;True;44;1;80.12321274355425
508;508;1449493297;2.15021491051;0.7918716669079999;0.06838788092140001;2;True;44;1;80.12321274355425
509;509;1449493297;2.15009021759;0.791782855988;0.06838764995339999;2;True;44;1;80.12321274355425
510;510;1449493297;2.15018296242;0.791837990284;0.0684205964208;2;True;44;1;80.12321274355425
511;511;1449493297;2.1501760482799996;0.791823983192;0.068445071578;2;True;44;1;80.12321274355425
512;512;1449493297;2.15025424957;0.79189491272;0.0684585422277;2;True;44;1;80.12321274355425
513;513;1449493297;2.1501839160900005;0.79183369875;0.0684263631701;2;True;44;1;80.12321274355425
514;514;1449493297;2.1501648426099997;0.791831016541;0.0684395208955;2;True;44;1;80.12321274355425
515;515;1449493297;2.15009832382;0.7918065190320001;0.06840852648019999;2;True;44;1;80.12321274355425
516;516;1449493297;2.1500933170299996;0.791781246662;0.0684131905437;2;True;44;1;80.12321274355425
517;517;1449493297;2.15006995201;0.791761517525;0.0684667825699;2;True;44;1;80.12321274355425
518;518;1449493297;2.15014982224;0.7918178439139999;0.0684331431985;2;True;44;1;80.12321274355425
519;519;1449493297;2.15017032623;0.791818797588;0.0684366375208;2;True;44;1;80.12321274355425
520;520;1449493297;2.15005803108;0.791737318039;0.0684808492661;2;True;44;1;80.12321274355425
521;521;1449493297;2.1501967907;0.7918781638150001;0.0683605372906;2;True;44;1;80.12321274355425
522;522;1449493297;2.1502072811099997;0.7918974757189999;0.06844293326140001;2;True;44;1;80.12321274355425
523;523;1449493297;2.15020656586;0.791849017143;0.0683925449848;2;True;44;1;80.12321274355425
524;524;1449493297;2.1502315998099997;0.791877806187;0.0683926790953;2;True;44;1;80.12321274355425
525;525;1449493297;2.15010166168;0.791772663593;0.06846243888140001;2;True;44;1;80.12321274355425
526;526;1449493297;2.15016150475;0.7918177247050001;0.0684242323041;2;True;44;1;80.12321274355425
527;527;1449493297;2.15005135536;0.7917343974109999;0.06844287365669999;2;True;44;1;80.12321274355425
528;528;1449493297;2.1501982212099997;0.791865408421;0.06835474073890001;2;True;44;1;80.12321274355425
529;529;1449493297;2.15022969246;0.7918515801430001;0.068494066596;2;True;44;1;80.12321274355425
530;530;1449493297;2.15013384819;0.791764497757;0.0683885514736;2;True;44;1;80.12321274355425
531;531;1449493297;2.1500821113599997;0.7917633652689999;0.0683453306556;2;True;44;1;80.12321274355425
532;532;1449493297;2.1500244140599998;0.791708111763;0.0684476718307;2;True;44;1;80.12321274355425
533;533;1449493297;2.15010213852;0.7917871475220001;0.06836079061030001;2;True;44;1;80.12321274355425
534;534;1449493297;2.1501052379599996;0.7917864918709999;0.0683688446879;2;True;44;1;80.12321274355425
535;535;1449493297;2.15016531944;0.791805386543;0.0684051513672;2;True;44;1;80.12321274355425
536;536;1449493297;2.1502153873400003;0.791869342327;0.0683570578694;2;True;44;1;80.12321274355425
537;537;1449493297;2.1500544548;0.791732907295;0.06844198703769999;2;True;44;1;80.12321274355425
538;538;1449493297;2.15021395683;0.7918520569799999;0.0683694407344;2;True;44;1;80.12321274355425
539;539;1449493297;2.15014743805;0.7917944192890001;0.0683792307973;2;True;44;1;80.12321274355425
540;540;1449493297;2.15016412735;0.791824579239;0.06838483363390001;2;True;44;1;80.12321274355425
541;541;1449493297;2.15014672279;0.7918124198909999;0.0683832243085;2;True;44;1;80.12321274355425
542;542;1449493297;2.15020537376;0.791840672493;0.0684422776103;2;True;44;1;80.12321274355425
543;543;1449493297;2.1501450538599998;0.7918033599850001;0.06838178634639999;2;True;44;1;80.12321274355425
544;544;1449493297;2.15016579628;0.7918143272399999;0.0683818534017;2;True;44;1;80.12321274355425
545;545;1449493297;2.15015029907;0.791805744171;0.06838572025299999;2;True;44;1;80.12321274355425
546;546;1449493297;2.1501739025099997;0.7918212413789999;0.0683670341969;2;True;44;1;80.12321274355425
547;547;1449493297;2.15008282661;0.791758835316;0.0683334097266;2;True;44;1;80.12321274355425
548;548;1449493297;2.1500754356400003;0.7917613983149999;0.0683262571692;2;True;44;1;80.12321274355425
549;549;1449493297;2.15003490448;0.791683733463;0.0683347061276;2;True;44;1;80.12321274355425
550;550;1449493297;2.1501560211200004;0.791811287403;0.0683761015534;2;True;44;1;80.12321274355425
551;551;1449493297;2.1501488685599996;0.7918102741240001;0.0683759078383;2;True;44;1;80.12321274355425
552;552;1449493297;2.15028762817;0.7919099926950001;0.06844020634890001;2;True;44;1;80.12321274355425
553;553;1449493297;2.15000724792;0.791702210903;0.0684236139059;2;True;44;1;80.12321274355425
554;554;1449493297;2.15016150475;0.7918050289149999;0.0683827400208;2;True;44;1;80.12321274355425
555;555;1449493297;2.15020132065;0.791832864285;0.0684294775128;2;True;44;1;80.12321274355425
556;556;1449493297;2.1500725746200002;0.7917402386669999;0.0683131888509;2;True;44;1;80.12321274355425
557;557;1449493297;2.15018486977;0.791833102703;0.0683598518372;2;True;44;1;80.12321274355425
558;558;1449493297;2.1502611637099998;0.7918767929080001;0.06839595735069999;2;True;44;1;80.12321274355425
559;559;1449493297;2.1502203941299998;0.791856229305;0.0683491230011;2;True;44;1;80.12321274355425
560;560;1449493297;2.15013742447;0.79180586338;0.0684124976397;2;True;44;1;80.12321274355425
561;561;1449493297;2.15008711815;0.79179006815;0.068404302001;2;True;44;1;80.12321274355425
562;562;1449493297;2.15013194084;0.7918027639390001;0.0683995708823;2;True;44;1;80.12321274355425
563;563;1449493297;2.15024447441;0.791869223118;0.0683923959732;2;True;44;1;80.12321274355425
564;564;1449493297;2.15020036697;0.791847646236;0.0683735609055;2;True;44;1;80.12321274355425
565;565;1449493297;2.15014123917;0.7918124198909999;0.0684027969837;2;True;44;1;80.12321274355425
566;566;1449493297;2.15023994446;0.791875243187;0.0683950558305;2;True;44;1;80.12321274355425
567;567;1449493297;2.1501722335799998;0.791818201542;0.0684147924185;2;True;44;1;80.12321274355425
568;568;1449493297;2.15022969246;0.7918496131899999;0.0683826133609;2;True;44;1;80.12321274355425
569;569;1449493297;2.15022778511;0.7918529510500001;0.0684764012694;2;True;44;1;80.12321274355425
570;570;1449493297;2.15019130707;0.791828274727;0.068401709199;2;True;44;1;80.12321274355425
571;571;1449493297;2.1501839160900005;0.791842103004;0.06840899586680001;2;True;44;1;80.12321274355425
572;572;1449493297;2.15016770363;0.7918212413789999;0.0684166997671;2;True;44;1;80.12321274355425
573;573;1449493297;2.15018749237;0.791825711727;0.06840066611769999;2;True;44;1;80.12321274355425
574;574;1449493297;2.15015053749;0.7918049097059999;0.06842323392630001;2;True;44;1;80.12321274355425
575;575;1449493297;2.15018892288;0.791863024235;0.068380586803;2;True;44;1;80.12321274355425
576;576;1449493297;2.15021348;0.7918342351909999;0.068501137197;2;True;44;1;80.12321274355425
577;577;1449493297;2.15020298958;0.7918424606319999;0.0684405863285;2;True;44;1;80.12321274355425
578;578;1449493297;2.15025806427;0.7918722629549999;0.0684884637594;2;True;44;1;80.12321274355425
579;579;1449493297;2.15022158623;0.791849374771;0.06848652660849999;2;True;44;1;80.12321274355425
580;580;1449493297;2.15011072159;0.791783154011;0.0683910772204;2;True;44;1;80.12321274355425
581;581;1449493297;2.15026092529;0.791906774044;0.0684133246541;2;True;44;1;80.12321274355425
582;582;1449493297;2.1502020359;0.7918375134469999;0.0684525445104;2;True;44;1;80.12321274355425
583;583;1449493297;2.15018033981;0.7918041944499999;0.0684543848038;2;True;44;1;80.12321274355425
584;584;1449493297;2.1502153873400003;0.791850626469;0.0684939771891;2;True;44;1;80.12321274355425
585;585;1449493297;2.1502275466900005;0.791852474213;0.0684915930033;2;True;44;1;80.12321274355425
586;586;1449493297;2.15017819405;0.791843831539;0.06843299418689999;2;True;44;1;80.12321274355425
587;587;1449493297;2.15023779869;0.791889131069;0.0683834850788;2;True;44;1;80.12321274355425
588;588;1449493297;2.15018892288;0.7918353676800001;0.0684532746673;2;True;44;1;80.12321274355425
589;589;1449493297;2.1502566337599998;0.7918893694879999;0.0684405937791;2;True;44;1;80.12321274355425
590;590;1449493297;2.15019440651;0.7918324470520001;0.068446598947;2;True;44;1;80.12321274355425
591;591;1449493297;2.1501879692099997;0.791825592518;0.0684428438544;2;True;44;1;80.12321274355425
592;592;1449493297;2.1502006053900002;0.791840076447;0.0684488266706;2;True;44;1;80.12321274355425
593;593;1449493297;2.1502056121799997;0.7918375730509999;0.0684521347284;2;True;44;1;80.12321274355425
594;594;1449493297;2.1501967907;0.79187387228;0.06839582324030001;2;True;44;1;80.12321274355425
595;595;1449493297;2.15022850037;0.791859686375;0.0684724748135;2;True;44;1;80.12321274355425
596;596;1449493297;2.1502025127400004;0.791852593422;0.0684905052185;2;True;44;1;80.12321274355425
597;597;1449493297;2.1502470970200003;0.791907191277;0.0684600323439;2;True;44;1;80.12321274355425
598;598;1449493297;2.15020418167;0.791850745678;0.06845697760580001;2;True;44;1;80.12321274355425
599;599;1449493297;2.15017938614;0.7918298244480001;0.0684598237276;2;True;44;1;80.12321274355425
600;600;1449493297;2.15017294884;0.791824698448;0.0684528723359;2;True;44;1;80.12321274355425
601;601;1449493297;2.15018558502;0.791873216629;0.0684050470591;2;True;44;1;80.12321274355425
602;602;1449493297;2.15024971962;0.791850686073;0.068433791399;2;True;44;1;80.12321274355425
603;603;1449493297;2.15016317368;0.791818261147;0.06843958050009999;2;True;44;1;80.12321274355425
604;604;1449493297;2.15020799637;0.7918633222579999;0.0683915764093;2;True;44;1;80.12321274355425
605;605;1449493297;2.15025758743;0.791881203651;0.0684998631477;2;True;44;1;80.12321274355425
606;606;1449493297;2.15018486977;0.791830480099;0.0684135183692;2;True;44;1;80.12321274355425
607;607;1449493297;2.1501672267900003;0.791809678078;0.0684593394399;2;True;44;1;80.12321274355425
608;608;1449493297;2.15020895004;0.791835784912;0.0684961676598;2;True;44;1;80.12321274355425
609;609;1449493297;2.15012526512;0.791812777519;0.0684636309743;2;True;44;1;80.12321274355425
