;Unnamed: 0;header_stamp_secs;pose_position_x;pose_position_y;pose_position_z;seconds;drop_values;flight_number;label;dtw
0;0;1445944807;2.13895845413;0.740734040737;0.0347484983504;0;True;50;1;0.673589732510799
1;1;1445944807;2.13890147209;0.740625619888;0.0347729921341;0;True;50;1;0.673589732510799
2;2;1445944807;2.13882064819;0.740657329559;0.0348698310554;0;True;50;1;0.673589732510799
3;3;1445944807;2.1389503479;0.740771532059;0.0347488746047;0;True;50;1;0.673589732510799
4;4;1445944807;2.13886117935;0.740582466125;0.0348171778023;0;True;50;1;0.673589732510799
5;5;1445944807;2.13898134232;0.740856707096;0.034735497087199994;0;True;50;1;0.673589732510799
6;6;1445944807;2.1389067173;0.740672230721;0.0347764007747;0;True;50;1;0.673589732510799
7;7;1445944807;2.1389670372;0.740693449974;0.034784298390199996;0;True;50;1;0.673589732510799
8;8;1445944807;2.1389477253;0.7406877875329999;0.0347574353218;0;True;50;1;0.673589732510799
9;9;1445944807;2.1388700008400003;0.740625798702;0.0348833948374;0;True;50;1;0.673589732510799
10;10;1445944807;2.13897776604;0.7407521009450001;0.0347543247044;0;True;50;1;0.673589732510799
11;11;1445944807;2.13882851601;0.740550637245;0.0348444245756;0;True;50;1;0.673589732510799
12;12;1445944807;2.13880681992;0.7406239509579999;0.0348173826933;0;True;50;1;0.673589732510799
13;13;1445944807;2.1388778686500003;0.740633487701;0.0348137766123;0;True;50;1;0.673589732510799
14;14;1445944807;2.13897776604;0.740725338459;0.0347536578774;0;True;50;1;0.673589732510799
15;15;1445944807;2.1388905048400004;0.7405822277069999;0.034813001751900004;0;True;50;1;0.673589732510799
16;16;1445944807;2.13896942139;0.740610539913;0.0347645655274;0;True;50;1;0.673589732510799
17;17;1445944807;2.13883161545;0.740535020828;0.034970793873099995;0;True;50;1;0.673589732510799
18;18;1445944807;2.13891410828;0.740606606007;0.0348099693656;0;True;50;1;0.673589732510799
19;19;1445944807;2.13891410828;0.7406134605410001;0.0348333306611;0;True;50;1;0.673589732510799
20;20;1445944807;2.1388664245599998;0.740551769733;0.034870583563999996;0;True;50;1;0.673589732510799
21;21;1445944807;2.13898968697;0.74058508873;0.0347867049277;0;True;50;1;0.673589732510799
22;22;1445944807;2.13888072968;0.7405006289480001;0.0348976925015;0;True;50;1;0.673589732510799
23;23;1445944807;2.13873028755;0.740501761436;0.0349108912051;0;True;50;1;0.673589732510799
24;24;1445944807;2.1389670372;0.7407255172730001;0.0348159857094;0;True;50;1;0.673589732510799
25;25;1445944807;2.13902187347;0.740665435791;0.0347727648914;0;True;50;1;0.673589732510799
26;26;1445944807;2.13899183273;0.740817725658;0.034773461520699996;0;True;50;1;0.673589732510799
27;27;1445944807;2.13879418373;0.7405060529709999;0.034903857857;0;True;50;1;0.673589732510799
28;28;1445944807;2.13898444176;0.740552783012;0.0348188988864;0;True;50;1;0.673589732510799
29;29;1445944807;2.1389758586900003;0.740589499474;0.0347848385572;0;True;50;1;0.673589732510799
30;30;1445944807;2.13895463943;0.740621864796;0.0348221771419;0;True;50;1;0.673589732510799
31;31;1445944807;2.1390049457599996;0.740411043167;0.034794870764;0;True;50;1;0.673589732510799
32;32;1445944807;2.1387298107099997;0.740443110466;0.0349382311106;0;True;50;1;0.673589732510799
33;33;1445944807;2.13896346092;0.7406683564190001;0.0347861722112;0;True;50;1;0.673589732510799
34;34;1445944807;2.13884782791;0.740534842014;0.034859415143699994;0;True;50;1;0.673589732510799
35;35;1445944807;2.1388103961900002;0.740697920322;0.0349154956639;0;True;50;1;0.673589732510799
36;36;1445944807;2.13888478279;0.740548074245;0.0348108187318;0;True;50;1;0.673589732510799
37;37;1445944807;2.13890147209;0.7405444979670001;0.0348110757768;0;True;50;1;0.673589732510799
38;38;1445944807;2.13900184631;0.7406730651860001;0.034768268466;0;True;50;1;0.673589732510799
39;39;1445944807;2.13879275322;0.740443766117;0.034924477338800004;0;True;50;1;0.673589732510799
40;40;1445944807;2.13891506195;0.740648388863;0.0348269604146;0;True;50;1;0.673589732510799
41;41;1445944807;2.1388659477200003;0.740592837334;0.0348234474659;0;True;50;1;0.673589732510799
42;42;1445944807;2.13870191574;0.7405666112899999;0.034991197288;0;True;50;1;0.673589732510799
43;43;1445944807;2.1388590335799997;0.7405956387520001;0.0348935760558;0;True;50;1;0.673589732510799
44;44;1445944807;2.13893938065;0.740796208382;0.03479276970030001;0;True;50;1;0.673589732510799
45;45;1445944807;2.13888239861;0.740599513054;0.0348745137453;0;True;50;1;0.673589732510799
46;46;1445944807;2.13894224167;0.740682065487;0.034801304340400005;0;True;50;1;0.673589732510799
47;47;1445944807;2.13878059387;0.7406038641930001;0.034963786601999995;0;True;50;1;0.673589732510799
48;48;1445944807;2.13887214661;0.7405843138689999;0.034830134362;0;True;50;1;0.673589732510799
49;49;1445944807;2.13888525963;0.740630149841;0.034871160984;0;True;50;1;0.673589732510799
50;50;1445944807;2.13893508911;0.740666151047;0.034803885966500005;0;True;50;1;0.673589732510799
51;51;1445944807;2.1388864517200004;0.740626096725;0.0348179675639;0;True;50;1;0.673589732510799
52;52;1445944807;2.13882255554;0.740627110004;0.034902051091199995;0;True;50;1;0.673589732510799
53;53;1445944807;2.13872456551;0.740585267544;0.034964077174699994;0;True;50;1;0.673589732510799
54;54;1445944807;2.13880515099;0.7405020594600001;0.0348775945604;0;True;50;1;0.673589732510799
55;55;1445944807;2.13886809349;0.740436792374;0.0348187536001;0;True;50;1;0.673589732510799
56;56;1445944807;2.13878893852;0.74055403471;0.034925363957899996;0;True;50;1;0.673589732510799
57;57;1445944807;2.13891196251;0.74066054821;0.0347710475326;0;True;50;1;0.673589732510799
58;58;1445944807;2.1389026641799997;0.7406529784199999;0.034774903208;0;True;50;1;0.673589732510799
59;59;1445944807;2.13888883591;0.740647673607;0.034794390201599995;0;True;50;1;0.673589732510799
60;60;1445944807;2.1388425827;0.7406279444689999;0.0348845385015;0;True;50;1;0.673589732510799
61;61;1445944807;2.13889741898;0.740656912327;0.0347559042275;0;True;50;1;0.673589732510799
62;62;1445944807;2.1389534473400005;0.740633308887;0.0347322896123;0;True;50;1;0.673589732510799
63;63;1445944807;2.13881349564;0.740660727024;0.0348710045218;0;True;50;1;0.673589732510799
64;64;1445944807;2.13891029358;0.7406420707699999;0.0347731374204;0;True;50;1;0.673589732510799
65;65;1445944807;2.13880395889;0.740567028522;0.0348068661988;0;True;50;1;0.673589732510799
66;66;1445944807;2.13886499405;0.7406527996060001;0.034780241549;0;True;50;1;0.673589732510799
67;67;1445944807;2.13891792297;0.7405882477760001;0.034733589738599996;0;True;50;1;0.673589732510799
68;68;1445944807;2.13882899284;0.7405741214749999;0.0348041169345;0;True;50;1;0.673589732510799
69;69;1445944807;2.1388168335;0.740604579449;0.0347843691707;0;True;50;1;0.673589732510799
70;70;1445944807;2.13894367218;0.7406237125399999;0.0347290113568;0;True;50;1;0.673589732510799
71;71;1445944807;2.1388568878200003;0.740605771542;0.0347694642842;0;True;50;1;0.673589732510799
72;72;1445944807;2.1387917995500003;0.7406173348430001;0.0348750092089;0;True;50;1;0.673589732510799
73;73;1445944807;2.13879704475;0.7406827807430001;0.0347815044224;0;True;50;1;0.673589732510799
74;74;1445944807;2.13887834549;0.740630090237;0.034769188612699994;0;True;50;1;0.673589732510799
75;75;1445944807;2.13894844055;0.740643620491;0.034703157842199996;0;True;50;1;0.673589732510799
76;76;1445944807;2.13894319534;0.740605473518;0.0347092933953;0;True;50;1;0.673589732510799
77;77;1445944807;2.1388704776800003;0.74063372612;0.0347843132913;0;True;50;1;0.673589732510799
78;78;1445944807;2.13893556595;0.740466535091;0.034720905125099996;0;True;50;1;0.673589732510799
79;79;1445944807;2.13878536224;0.740559160709;0.0348758548498;0;True;50;1;0.673589732510799
80;80;1445944807;2.13877391815;0.7406209707260001;0.03475662693380001;0;True;50;1;0.673589732510799
81;81;1445944807;2.13893914223;0.7407529950139999;0.0346971675754;0;True;50;1;0.673589732510799
82;82;1445944807;2.13883304596;0.740530431271;0.0347211174667;0;True;50;1;0.673589732510799
83;83;1445944807;2.13894200325;0.740751743317;0.0347023755312;0;True;50;1;0.673589732510799
84;84;1445944807;2.1389746666;0.740731954575;0.0346956141293;0;True;50;1;0.673589732510799
85;85;1445944807;2.1388990879099996;0.7406731843950001;0.0347498208284;0;True;50;1;0.673589732510799
86;86;1445944807;2.13897967339;0.7407059073450001;0.0346931926906;0;True;50;1;0.673589732510799
87;87;1445944807;2.13887119293;0.7407223582269999;0.034773118793999996;0;True;50;1;0.673589732510799
88;88;1445944807;2.13892602921;0.7407463192939999;0.0347129777074;0;True;50;1;0.673589732510799
89;89;1445944807;2.1388118267099996;0.740677714348;0.034785147756300004;0;True;50;1;0.673589732510799
90;90;1445944807;2.13894486427;0.740768671036;0.034702610224500004;0;True;50;1;0.673589732510799
91;91;1445944807;2.1387906074500003;0.7403557300570001;0.034763649106;0;True;50;1;0.673589732510799
92;92;1445944807;2.13888144493;0.740774154663;0.0347186364233;0;True;50;1;0.673589732510799
93;93;1445944807;2.1389098167400005;0.7407903671259999;0.0347139760852;0;True;50;1;0.673589732510799
94;94;1445944807;2.1389567852;0.740628600121;0.0347132757306;0;True;50;1;0.673589732510799
95;95;1445944807;2.1388654708900003;0.740751683712;0.034764934331199995;0;True;50;1;0.673589732510799
96;96;1445944807;2.13884735107;0.7406535744670001;0.034837279468800005;0;True;50;1;0.673589732510799
97;97;1445944807;2.1388425827;0.740721404552;0.0347880832851;0;True;50;1;0.673589732510799
98;98;1445944807;2.13894438744;0.74073690176;0.0347248353064;0;True;50;1;0.673589732510799
99;99;1445944807;2.13896942139;0.740599811077;0.0347147807479;0;True;50;1;0.673589732510799
100;100;1445944807;2.13883590698;0.740682542324;0.0347472392023;0;True;50;1;0.673589732510799
101;101;1445944807;2.138869524;0.740739285946;0.0347767360508;0;True;50;1;0.673589732510799
102;102;1445944807;2.13886880875;0.740720868111;0.034783333539999996;0;True;50;1;0.673589732510799
103;103;1445944807;2.13900756836;0.740717828274;0.0347157381475;0;True;50;1;0.673589732510799
104;104;1445944807;2.13891983032;0.7407476305959999;0.0347246713936;0;True;50;1;0.673589732510799
105;105;1445944807;2.13894081116;0.7407414913179999;0.0347282215953;0;True;50;1;0.673589732510799
106;106;1445944807;2.13899755478;0.740702867508;0.0347363017499;0;True;50;1;0.673589732510799
107;107;1445944807;2.1389412879900003;0.740766644478;0.034723032265900004;0;True;50;1;0.673589732510799
108;108;1445944807;2.13896417618;0.7405767440800001;0.0347371958196;0;True;50;1;0.673589732510799
109;109;1445944807;2.13893532753;0.7406631112100001;0.034752551466199995;0;True;50;1;0.673589732510799
110;110;1445944807;2.13884806633;0.740571558475;0.034779850393500004;0;True;50;1;0.673589732510799
111;111;1445944807;2.13896822929;0.740626752377;0.0347391292453;0;True;50;1;0.673589732510799
112;112;1445944807;2.1388566494;0.740724682808;0.0347979962826;0;True;50;1;0.673589732510799
113;113;1445944807;2.13888144493;0.740718781948;0.0348139964044;0;True;50;1;0.673589732510799
114;114;1445944807;2.13887619972;0.740606248379;0.034779205918300006;0;True;50;1;0.673589732510799
115;115;1445944807;2.13898229599;0.740738153458;0.034740213304800004;0;True;50;1;0.673589732510799
116;116;1445944807;2.13886404037;0.7407693266869999;0.0347967855632;0;True;50;1;0.673589732510799
117;117;1445944807;2.13896250725;0.740641772747;0.0347271338105;0;True;50;1;0.673589732510799
118;118;1445944807;2.13894939423;0.7407217025759999;0.034743960946800004;0;True;50;1;0.673589732510799
119;119;1445944807;2.13896727562;0.7405871152879999;0.0347569286823;0;True;50;1;0.673589732510799
120;120;1445944807;2.13887619972;0.7406434416769999;0.0347619876266;0;True;50;1;0.673589732510799
121;121;1445944807;2.13897752762;0.740761160851;0.0347385406494;0;True;50;1;0.673589732510799
122;122;1445944807;2.13887214661;0.7407392263410001;0.0348163545132;0;True;50;1;0.673589732510799
123;123;1445944807;2.1387441158300002;0.7407364249230001;0.0349075347185;0;True;50;1;0.673589732510799
124;124;1445944807;2.13894987106;0.740749180317;0.0347574464977;0;True;50;1;0.673589732510799
125;125;1445944807;2.13882517815;0.7405313849449999;0.0348898768425;0;True;50;1;0.673589732510799
126;126;1445944807;2.13890123367;0.740619301796;0.034808624535800005;0;True;50;1;0.673589732510799
127;127;1445944807;2.13886260986;0.740447044373;0.0347933098674;0;True;50;1;0.673589732510799
128;128;1445944807;2.13871359825;0.740490317345;0.0349238626659;0;True;50;1;0.673589732510799
129;129;1445944807;2.13897109032;0.740598082542;0.0347632020712;0;True;50;1;0.673589732510799
130;130;1445944807;2.13882303238;0.740581810474;0.034844622016;0;True;50;1;0.673589732510799
131;131;1445944807;2.13886928558;0.740658819675;0.034870304167300005;0;True;50;1;0.673589732510799
132;132;1445944807;2.13894081116;0.740566372871;0.0348082967103;0;True;50;1;0.673589732510799
133;133;1445944807;2.1389503479;0.740682542324;0.0347823724151;0;True;50;1;0.673589732510799
134;134;1445944807;2.13889932632;0.740620076656;0.0348099321127;0;True;50;1;0.673589732510799
135;135;1445944807;2.1388981342299997;0.7406391501430001;0.0348123013973;0;True;50;1;0.673589732510799
136;136;1445944807;2.1389222145099995;0.7405859231949999;0.0348190739751;0;True;50;1;0.673589732510799
137;137;1445944807;2.13888812065;0.7406175732610001;0.0348308384418;0;True;50;1;0.673589732510799
138;138;1445944807;2.13893985748;0.7407385110860001;0.034778639674199995;0;True;50;1;0.673589732510799
139;139;1445944807;2.13887524605;0.740599095821;0.034841906279300006;0;True;50;1;0.673589732510799
140;140;1445944807;2.1388833522799997;0.740620672703;0.034859884530300006;0;True;50;1;0.673589732510799
141;141;1445944807;2.1389293670700003;0.7404735684389999;0.034808672964599996;0;True;50;1;0.673589732510799
142;142;1445944807;2.1388516426099997;0.740596115589;0.034840736538199996;0;True;50;1;0.673589732510799
143;143;1445944807;2.13892626762;0.740677237511;0.0348093360662;0;True;50;1;0.673589732510799
144;144;1445944807;2.13893723488;0.7408460974690001;0.034784428775300004;0;True;50;1;0.673589732510799
145;145;1445944807;2.13887166977;0.740613520145;0.0348432809114;0;True;50;1;0.673589732510799
146;146;1445944807;2.1388785839099995;0.740634024143;0.0348868183792;0;True;50;1;0.673589732510799
147;147;1445944807;2.13894081116;0.740821838379;0.0347848311067;0;True;50;1;0.673589732510799
148;148;1445944807;2.13894033432;0.7407461404800001;0.034772194922;0;True;50;1;0.673589732510799
149;149;1445944807;2.1387681961099996;0.740492761135;0.034876573830800006;0;True;50;1;0.673589732510799
150;150;1445944807;2.13847756386;0.740562617779;0.0351109057665;0;True;50;1;0.673589732510799
151;151;1445944807;2.13889098167;0.7406139373780001;0.0348642878234;0;True;50;1;0.673589732510799
152;152;1445944807;2.13884019852;0.740596652031;0.034944910556099995;0;True;50;1;0.673589732510799
153;153;1445944807;2.13885259628;0.740629017353;0.0348969139159;0;True;50;1;0.673589732510799
154;154;1445944807;2.1390049457599996;0.7407121062279999;0.0347894616425;0;True;50;1;0.673589732510799
155;155;1445944807;2.13885378838;0.740596830845;0.0348386578262;0;True;50;1;0.673589732510799
156;156;1445944807;2.138671875;0.740577876568;0.034940496087099995;0;True;50;1;0.673589732510799
157;157;1445944807;2.1389241218599997;0.7406686544419999;0.0347986072302;0;True;50;1;0.673589732510799
158;158;1445944807;2.1389098167400005;0.740526795387;0.034846264869;0;True;50;1;0.673589732510799
159;159;1445944807;2.13881111145;0.740566790104;0.0349093079567;0;True;50;1;0.673589732510799
160;160;1445944807;2.1388456821400004;0.7406044602390001;0.0348105058074;0;True;50;1;0.673589732510799
161;161;1445944807;2.1388404369400003;0.740626811981;0.034893553704;0;True;50;1;0.673589732510799
162;162;1445944807;2.13879966736;0.740656852722;0.034904617816199995;0;True;50;1;0.673589732510799
163;163;1445944807;2.1388342380500003;0.740518450737;0.034866292029599996;0;True;50;1;0.673589732510799
164;164;1445944807;2.13889932632;0.740615487099;0.0348046906292;0;True;50;1;0.673589732510799
165;165;1445944807;2.1388425827;0.7405595183370001;0.0348168164492;0;True;50;1;0.673589732510799
166;166;1445944807;2.13885092735;0.7405899167059999;0.03482962399719999;0;True;50;1;0.673589732510799
167;167;1445944807;2.13884520531;0.740519821644;0.0349450074136;0;True;50;1;0.673589732510799
168;168;1445944807;2.13887691498;0.7405876517300001;0.034787122160199996;0;True;50;1;0.673589732510799
169;169;1445944807;2.13890242577;0.7406326532359999;0.0347791574895;0;True;50;1;0.673589732510799
170;170;1445944807;2.1388182640099997;0.7404680252079999;0.0349564999342;0;True;50;1;0.673589732510799
171;171;1445944808;2.13885593414;0.7405905127529999;0.0347832404077;1;True;50;1;0.673589732510799
172;172;1445944808;2.13891077042;0.740646719933;0.03474421054119999;1;True;50;1;0.673589732510799
173;173;1445944808;2.13894987106;0.740823447704;0.0347253531218;1;True;50;1;0.673589732510799
174;174;1445944808;2.13881444931;0.740565061569;0.034914754331099994;1;True;50;1;0.673589732510799
175;175;1445944808;2.1388103961900002;0.740517914295;0.034833882004;1;True;50;1;0.673589732510799
176;176;1445944808;2.1389136314400004;0.74064296484;0.0347433686256;1;True;50;1;0.673589732510799
177;177;1445944808;2.13893914223;0.740727365017;0.034715466201300005;1;True;50;1;0.673589732510799
178;178;1445944808;2.1388874053999998;0.740607082844;0.03476145491;1;True;50;1;0.673589732510799
179;179;1445944808;2.13892436028;0.740534245968;0.034757081419199996;1;True;50;1;0.673589732510799
180;180;1445944808;2.13884162903;0.740587592125;0.034762442112;1;True;50;1;0.673589732510799
181;181;1445944808;2.13889241219;0.740653991699;0.0347604230046;1;True;50;1;0.673589732510799
182;182;1445944808;2.13881611824;0.740502476692;0.034832328558;1;True;50;1;0.673589732510799
183;183;1445944808;2.1388351917299997;0.740622401237;0.0348287858069;1;True;50;1;0.673589732510799
184;184;1445944808;2.13882470131;0.740603208542;0.0347628369927;1;True;50;1;0.673589732510799
185;185;1445944808;2.13879370689;0.74041557312;0.0347637236118;1;True;50;1;0.673589732510799
186;186;1445944808;2.13878655434;0.740539371967;0.0347974188626;1;True;50;1;0.673589732510799
187;187;1445944808;2.13891100883;0.74065464735;0.0347201898694;1;True;50;1;0.673589732510799
188;188;1445944808;2.13889551163;0.7406205534929999;0.034719627350599996;1;True;50;1;0.673589732510799
189;189;1445944808;2.13895845413;0.7406299710269999;0.0346981063485;1;True;50;1;0.673589732510799
190;190;1445944808;2.13884067535;0.7405650019650001;0.0347751677036;1;True;50;1;0.673589732510799
191;191;1445944808;2.13882851601;0.7405672669410001;0.0347603820264;1;True;50;1;0.673589732510799
192;192;1445944808;2.13879752159;0.740555226803;0.0347750633955;1;True;50;1;0.673589732510799
193;193;1445944808;2.1388270854900004;0.740553736687;0.0347781553864;1;True;50;1;0.673589732510799
194;194;1445944808;2.13881993294;0.740564823151;0.034760441631099995;1;True;50;1;0.673589732510799
195;195;1445944808;2.13895058632;0.740557670593;0.0346891470253;1;True;50;1;0.673589732510799
196;196;1445944808;2.13878941536;0.7406080961229999;0.0348290428519;1;True;50;1;0.673589732510799
197;197;1445944808;2.13883852959;0.7405897378919999;0.0347582511604;1;True;50;1;0.673589732510799
198;198;1445944808;2.13878822327;0.7405631542209999;0.034889258444300006;1;True;50;1;0.673589732510799
199;199;1445944808;2.13892674446;0.740729928017;0.034698728472;1;True;50;1;0.673589732510799
200;200;1445944808;2.13880109787;0.740610420704;0.034845989197499996;1;True;50;1;0.673589732510799
201;201;1445944808;2.13877511024;0.7405583262440001;0.0347970053554;1;True;50;1;0.673589732510799
202;202;1445944808;2.13860154152;0.740522444248;0.0349484682083;1;True;50;1;0.673589732510799
203;203;1445944808;2.13892579079;0.740847170353;0.034690346568800004;1;True;50;1;0.673589732510799
204;204;1445944808;2.13887691498;0.7406129240989999;0.0347466431558;1;True;50;1;0.673589732510799
205;205;1445944808;2.1389515399900003;0.740636110306;0.03470364212990001;1;True;50;1;0.673589732510799
206;206;1445944808;2.13891291618;0.740644216537;0.0346979349852;1;True;50;1;0.673589732510799
207;207;1445944808;2.1387541294099996;0.7405421733859999;0.0348133146763;1;True;50;1;0.673589732510799
208;208;1445944808;2.13896965981;0.740494966507;0.0347032956779;1;True;50;1;0.673589732510799
209;209;1445944808;2.13896083832;0.740710437298;0.034720148891199995;1;True;50;1;0.673589732510799
210;210;1445944808;2.13893008232;0.74077218771;0.0347082018852;1;True;50;1;0.673589732510799
211;211;1445944808;2.13877034187;0.740583240986;0.0348153188825;1;True;50;1;0.673589732510799
212;212;1445944808;2.13873195648;0.740535080433;0.0348441451788;1;True;50;1;0.673589732510799
213;213;1445944808;2.13893914223;0.740799188614;0.0347115881741;1;True;50;1;0.673589732510799
214;214;1445944808;2.13888287544;0.740796864033;0.034725647419699995;1;True;50;1;0.673589732510799
215;215;1445944808;2.1388118267099996;0.7406261563300001;0.0347807519138;1;True;50;1;0.673589732510799
216;216;1445944808;2.1388318538699997;0.7406892776489999;0.0348583236337;1;True;50;1;0.673589732510799
217;217;1445944808;2.13895702362;0.740522563457;0.034725312143599994;1;True;50;1;0.673589732510799
218;218;1445944808;2.13889884949;0.7406712770460001;0.0347635187209;1;True;50;1;0.673589732510799
219;219;1445944808;2.138890028;0.7406564354899999;0.0347629226744;1;True;50;1;0.673589732510799
220;220;1445944808;2.13892865181;0.740669250488;0.0347318314016;1;True;50;1;0.673589732510799
221;221;1445944808;2.1389527320900004;0.74047601223;0.0347424633801;1;True;50;1;0.673589732510799
222;222;1445944808;2.13879227638;0.740642309189;0.0348062589765;1;True;50;1;0.673589732510799
223;223;1445944808;2.13880681992;0.740698218346;0.0347877591848;1;True;50;1;0.673589732510799
224;224;1445944808;2.1389093399;0.7405980229379999;0.03478571027519999;1;True;50;1;0.673589732510799
225;225;1445944808;2.1389644146;0.7405080199240001;0.034750815480900005;1;True;50;1;0.673589732510799
226;226;1445944808;2.13876342773;0.7404177188869999;0.034812875092000005;1;True;50;1;0.673589732510799
227;227;1445944808;2.13896393776;0.740746438503;0.034738831222099996;1;True;50;1;0.673589732510799
228;228;1445944808;2.1388604641;0.7407073378560001;0.0348080992699;1;True;50;1;0.673589732510799
229;229;1445944808;2.13895940781;0.7407446503640001;0.0347646251321;1;True;50;1;0.673589732510799
230;230;1445944808;2.13885068893;0.740678906441;0.034824937582;1;True;50;1;0.673589732510799
231;231;1445944808;2.13892817497;0.740620136261;0.0347988009453;1;True;50;1;0.673589732510799
232;232;1445944808;2.13883137703;0.740612089634;0.0347959436476;1;True;50;1;0.673589732510799
233;233;1445944808;2.1388273239099997;0.7406809926029999;0.0348932817578;1;True;50;1;0.673589732510799
234;234;1445944808;2.13895535469;0.7404905557629999;0.034769218415000004;1;True;50;1;0.673589732510799
235;235;1445944808;2.13894915581;0.740872919559;0.0347728356719;1;True;50;1;0.673589732510799
236;236;1445944808;2.13897418976;0.740759968758;0.0347724445164;1;True;50;1;0.673589732510799
237;237;1445944808;2.13888669014;0.740695238113;0.0347943529487;1;True;50;1;0.673589732510799
238;238;1445944808;2.13892579079;0.740703165531;0.0347857549787;1;True;50;1;0.673589732510799
239;239;1445944808;2.13895988464;0.740628600121;0.0347654521465;1;True;50;1;0.673589732510799
240;240;1445944808;2.1388788223299997;0.740772366524;0.034788638353300004;1;True;50;1;0.673589732510799
241;241;1445944808;2.1388630867;0.740617513657;0.0348472595215;1;True;50;1;0.673589732510799
242;242;1445944808;2.1389434337599997;0.7406319379809999;0.0348141975701;1;True;50;1;0.673589732510799
243;243;1445944808;2.13888478279;0.7407842278479999;0.0347942896187;1;True;50;1;0.673589732510799
244;244;1445944808;2.13878440857;0.7405992150309999;0.0349368304014;1;True;50;1;0.673589732510799
245;245;1445944808;2.13885235786;0.740626871586;0.0349123030901;1;True;50;1;0.673589732510799
246;246;1445944808;2.13896894455;0.7407143116;0.0347838662565;1;True;50;1;0.673589732510799
247;247;1445944808;2.13896012306;0.740702033043;0.0347745008767;1;True;50;1;0.673589732510799
248;248;1445944808;2.1389400959000002;0.7406481504440001;0.03481210768219999;1;True;50;1;0.673589732510799
249;249;1445944808;2.1389691829700004;0.7405803203579999;0.034788988530599994;1;True;50;1;0.673589732510799
250;250;1445944808;2.1387207508099997;0.7404735684389999;0.0349382422864;1;True;50;1;0.673589732510799
251;251;1445944808;2.13889431953;0.740725040436;0.034830696880800004;1;True;50;1;0.673589732510799
252;252;1445944808;2.1388659477200003;0.740569472313;0.034810535609699995;1;True;50;1;0.673589732510799
253;253;1445944808;2.1388714313499997;0.74058508873;0.034832321107400005;1;True;50;1;0.673589732510799
254;254;1445944808;2.13873934746;0.7404735684389999;0.034930422902099995;1;True;50;1;0.673589732510799
255;255;1445944808;2.13895130157;0.7408540844920001;0.034778628498300004;1;True;50;1;0.673589732510799
256;256;1445944808;2.1389269828799997;0.7407385110860001;0.0348189510405;1;True;50;1;0.673589732510799
257;257;1445944808;2.13889288902;0.740609228611;0.0348138697445;1;True;50;1;0.673589732510799
258;258;1445944808;2.1389720439900004;0.740781664848;0.0347668491304;1;True;50;1;0.673589732510799
259;259;1445944808;2.13896846771;0.740554630756;0.0347955264151;1;True;50;1;0.673589732510799
260;260;1445944808;2.13898396492;0.74049782753;0.0347688272595;1;True;50;1;0.673589732510799
261;261;1445944808;2.13898944855;0.740750253201;0.034772548824499996;1;True;50;1;0.673589732510799
262;262;1445944808;2.1389343738599997;0.7405862212180001;0.034826662391400004;1;True;50;1;0.673589732510799
263;263;1445944808;2.1387295723;0.7404331564899999;0.0350185222924;1;True;50;1;0.673589732510799
264;264;1445944808;2.1389968395200003;0.740806877613;0.0347582958639;1;True;50;1;0.673589732510799
265;265;1445944808;2.1388092040999998;0.7404807806020001;0.0348772890866;1;True;50;1;0.673589732510799
266;266;1445944808;2.13886356354;0.7406127452850001;0.0349107123911;1;True;50;1;0.673589732510799
267;267;1445944808;2.13891243935;0.740577876568;0.0348039604723;1;True;50;1;0.673589732510799
268;268;1445944808;2.13889145851;0.7405791282649999;0.0348197966814;1;True;50;1;0.673589732510799
269;269;1445944808;2.13877439499;0.7405151724819999;0.0349416732788;1;True;50;1;0.673589732510799
270;270;1445944808;2.138859272;0.740552842617;0.0348691381514;1;True;50;1;0.673589732510799
271;271;1445944808;2.13895988464;0.740595161915;0.0347870886326;1;True;50;1;0.673589732510799
272;272;1445944808;2.1386897563900003;0.740421354771;0.034935686737300006;1;True;50;1;0.673589732510799
273;273;1445944808;2.1388168335;0.740377366543;0.034892175346599996;1;True;50;1;0.673589732510799
274;274;1445944808;2.13890624046;0.740563631058;0.0348521471024;1;True;50;1;0.673589732510799
275;275;1445944808;2.13886833191;0.740473628044;0.034871507436;1;True;50;1;0.673589732510799
276;276;1445944808;2.1389677524599997;0.7406835556029999;0.03475797921419999;1;True;50;1;0.673589732510799
277;277;1445944808;2.1387205123900004;0.7404633164409999;0.0349717289209;1;True;50;1;0.673589732510799
278;278;1445944808;2.13887572289;0.74052721262;0.0348346531391;1;True;50;1;0.673589732510799
279;279;1445944808;2.1388835907;0.740455806255;0.0349562913179;1;True;50;1;0.673589732510799
280;280;1445944808;2.13891410828;0.740573167801;0.0347708798945;1;True;50;1;0.673589732510799
281;281;1445944808;2.13892817497;0.740371584892;0.0347997546196;1;True;50;1;0.673589732510799
282;282;1445944808;2.13897395134;0.7407013773919999;0.034737154841400004;1;True;50;1;0.673589732510799
283;283;1445944808;2.1388466358200002;0.7405992150309999;0.0348860099912;1;True;50;1;0.673589732510799
284;284;1445944808;2.13884019852;0.7405875325200001;0.0347931161523;1;True;50;1;0.673589732510799
285;285;1445944808;2.1387758255000002;0.7404418587680001;0.0348522439599;1;True;50;1;0.673589732510799
286;286;1445944808;2.13889145851;0.740559995174;0.0347675234079;1;True;50;1;0.673589732510799
287;287;1445944808;2.13876605034;0.740451395512;0.034856416285000004;1;True;50;1;0.673589732510799
288;288;1445944808;2.1389138698599997;0.740551292896;0.0347891971469;1;True;50;1;0.673589732510799
289;289;1445944808;2.1388657093;0.740441083908;0.0347400829196;1;True;50;1;0.673589732510799
290;290;1445944808;2.13893818855;0.740612268448;0.034779660403699994;1;True;50;1;0.673589732510799
291;291;1445944808;2.13890028;0.7405697107320001;0.03479411080480001;1;True;50;1;0.673589732510799
292;292;1445944808;2.13889575005;0.740686297417;0.0347708575428;1;True;50;1;0.673589732510799
293;293;1445944808;2.13884353638;0.740569651127;0.0348740443587;1;True;50;1;0.673589732510799
294;294;1445944808;2.13880705833;0.7406115531919999;0.0349043495953;1;True;50;1;0.673589732510799
295;295;1445944808;2.1388115882900003;0.740517795086;0.0349035635591;1;True;50;1;0.673589732510799
296;296;1445944808;2.13881421089;0.740545094013;0.0348970629275;1;True;50;1;0.673589732510799
297;297;1445944808;2.13881754875;0.740521132946;0.034819919616;1;True;50;1;0.673589732510799
298;298;1445944808;2.13882040977;0.740665733814;0.034836772829300006;1;True;50;1;0.673589732510799
299;299;1445944808;2.13881373405;0.740624606609;0.034845981746900005;1;True;50;1;0.673589732510799
300;300;1445944808;2.1388590335799997;0.7405478954320001;0.0348279625177;1;True;50;1;0.673589732510799
301;301;1445944808;2.13878512383;0.740445315838;0.0347874909639;1;True;50;1;0.673589732510799
302;302;1445944808;2.13878107071;0.740496218204;0.0348294861615;1;True;50;1;0.673589732510799
303;303;1445944808;2.13894295692;0.740743219852;0.034716136753599997;1;True;50;1;0.673589732510799
304;304;1445944808;2.1387939453099998;0.7405800819399999;0.03475185856219999;1;True;50;1;0.673589732510799
305;305;1445944808;2.13896965981;0.7406455278399999;0.034706838429;1;True;50;1;0.673589732510799
306;306;1445944808;2.13883590698;0.740628302097;0.03483059257269999;1;True;50;1;0.673589732510799
307;307;1445944808;2.13879823685;0.740515947342;0.0348312295973;1;True;50;1;0.673589732510799
308;308;1445944808;2.13888239861;0.740647614002;0.0347474403679;1;True;50;1;0.673589732510799
309;309;1445944808;2.13893961906;0.740821897984;0.034704737365199995;1;True;50;1;0.673589732510799
310;310;1445944808;2.13888311386;0.740582704544;0.034723766148099994;1;True;50;1;0.673589732510799
311;311;1445944808;2.1387877464300002;0.740574598312;0.0348433069885;1;True;50;1;0.673589732510799
312;312;1445944808;2.13879418373;0.7405775189399999;0.0348027348518;1;True;50;1;0.673589732510799
313;313;1445944808;2.13892507553;0.7408449649809999;0.0347067378461;1;True;50;1;0.673589732510799
314;314;1445944808;2.13885426521;0.7407446503640001;0.0347158871591;1;True;50;1;0.673589732510799
315;315;1445944808;2.13894534111;0.740799307823;0.0346925966442;1;True;50;1;0.673589732510799
316;316;1445944808;2.13892674446;0.7407351136210001;0.0346942953765;1;True;50;1;0.673589732510799
317;317;1445944808;2.13894081116;0.7407315969470001;0.0346928462386;1;True;50;1;0.673589732510799
318;318;1445944808;2.1388130188;0.740540266037;0.0347422361374;1;True;50;1;0.673589732510799
319;319;1445944808;2.1388788223299997;0.740715444088;0.03472916409369999;1;True;50;1;0.673589732510799
320;320;1445944808;2.1388046741499998;0.740624725819;0.0347808822989;1;True;50;1;0.673589732510799
321;321;1445944808;2.13893580437;0.740769803524;0.034714777022599994;1;True;50;1;0.673589732510799
322;322;1445944808;2.1388552188900003;0.740649521351;0.034753128886199997;1;True;50;1;0.673589732510799
323;323;1445944808;2.1385986805;0.7405939102169999;0.0349408984184;1;True;50;1;0.673589732510799
324;324;1445944808;2.1389656066900002;0.740677237511;0.0347285196185;1;True;50;1;0.673589732510799
325;325;1445944808;2.13879704475;0.7406041026119999;0.034857448190500004;1;True;50;1;0.673589732510799
326;326;1445944808;2.13891291618;0.7407753467560001;0.0347262881696;1;True;50;1;0.673589732510799
327;327;1445944808;2.1388964653;0.740588486195;0.034764170646699996;1;True;50;1;0.673589732510799
328;328;1445944808;2.13874602318;0.740565061569;0.0348535738885;1;True;50;1;0.673589732510799
329;329;1445944808;2.13875746727;0.740612506866;0.034790210425900005;1;True;50;1;0.673589732510799
330;330;1445944808;2.13894677162;0.7408738136290001;0.0347276590765;1;True;50;1;0.673589732510799
331;331;1445944808;2.13881850243;0.740630984306;0.0348117761314;1;True;50;1;0.673589732510799
332;332;1445944808;2.1387641429900004;0.7404012084010001;0.0348003581166;1;True;50;1;0.673589732510799
333;333;1445944808;2.1388874053999998;0.740652322769;0.034778852015699996;1;True;50;1;0.673589732510799
334;334;1445944808;2.13886022568;0.740457296371;0.0347677022219;1;True;50;1;0.673589732510799
335;335;1445944808;2.13886737823;0.740799725056;0.0347760915756;1;True;50;1;0.673589732510799
336;336;1445944808;2.1386504173299996;0.7405468225480001;0.034976039081800005;1;True;50;1;0.673589732510799
337;337;1445944808;2.13898897171;0.740747928619;0.0347546078265;1;True;50;1;0.673589732510799
338;338;1445944808;2.13879704475;0.74058419466;0.034847933799;1;True;50;1;0.673589732510799
339;339;1445944808;2.1389338970200003;0.740770995617;0.03475557267669999;1;True;50;1;0.673589732510799
340;340;1445944808;2.1388885974900003;0.7406509518619999;0.034785181283999995;1;True;50;1;0.673589732510799
341;341;1445944808;2.13893866539;0.740649819374;0.034750752151;1;True;50;1;0.673589732510799
342;342;1445944808;2.13884902;0.7405963540080001;0.034831281751399996;1;True;50;1;0.673589732510799
343;343;1445944808;2.1388001441999998;0.740544974804;0.0349041819572;1;True;50;1;0.673589732510799
344;344;1445944808;2.1389811039;0.7407341003419999;0.0347691401839;1;True;50;1;0.673589732510799
345;345;1445944808;2.13874769211;0.7406261563300001;0.034939154982599994;1;True;50;1;0.673589732510799
346;346;1445944808;2.13886928558;0.740754187107;0.0348132252693;1;True;50;1;0.673589732510799
347;347;1445944808;2.1388170719099997;0.740640282631;0.034916974604099996;1;True;50;1;0.673589732510799
348;348;1445944808;2.1388223171200003;0.740655958652;0.0349022261798;1;True;50;1;0.673589732510799
349;349;1445944808;2.13896369934;0.7408689856530001;0.034767229110000006;1;True;50;1;0.673589732510799
350;350;1445944808;2.13865876198;0.740532875061;0.0349634364247;1;True;50;1;0.673589732510799
351;351;1445944808;2.13893866539;0.7407405376430001;0.0347606725991;1;True;50;1;0.673589732510799
352;352;1445944808;2.13866376877;0.740474879742;0.034939520061;1;True;50;1;0.673589732510799
353;353;1445944808;2.13890457153;0.7407732605930001;0.0348128117621;1;True;50;1;0.673589732510799
354;354;1445944808;2.13894963264;0.7408740520479999;0.0347764566541;1;True;50;1;0.673589732510799
355;355;1445944808;2.13886356354;0.740576863289;0.0347959510982;1;True;50;1;0.673589732510799
356;356;1445944808;2.1388235092200003;0.7406618595119999;0.0349127836525;1;True;50;1;0.673589732510799
357;357;1445944808;2.1388864517200004;0.740621268749;0.034842681139699995;1;True;50;1;0.673589732510799
358;358;1445944808;2.13896369934;0.740737020969;0.0348097905517;1;True;50;1;0.673589732510799
359;359;1445944808;2.13888382912;0.740630805492;0.0348493084311;1;True;50;1;0.673589732510799
360;360;1445944808;2.13895201683;0.740764200687;0.034779045730800005;1;True;50;1;0.673589732510799
361;361;1445944808;2.13892745972;0.7404463291169999;0.0348238274455;1;True;50;1;0.673589732510799
362;362;1445944808;2.13881850243;0.74055403471;0.034892488271;1;True;50;1;0.673589732510799
363;363;1445944808;2.13895845413;0.7407119870190001;0.0347874350846;1;True;50;1;0.673589732510799
364;364;1445944808;2.13883471489;0.740620136261;0.0349220298231;1;True;50;1;0.673589732510799
365;365;1445944808;2.13889622688;0.7406440973280001;0.0348610319197;1;True;50;1;0.673589732510799
366;366;1445944808;2.1389501094799996;0.740705013275;0.034798659384300004;1;True;50;1;0.673589732510799
367;367;1445944808;2.13902235031;0.7406871914859999;0.03478799015280001;1;True;50;1;0.673589732510799
368;368;1445944808;2.13886737823;0.740537822247;0.0348775498569;1;True;50;1;0.673589732510799
369;369;1445944808;2.13885879517;0.740594983101;0.0349232554436;1;True;50;1;0.673589732510799
370;370;1445944808;2.1389322280900003;0.7406348586079999;0.034811429679400006;1;True;50;1;0.673589732510799
371;371;1445944808;2.1388707160900005;0.74053144455;0.0348777323961;1;True;50;1;0.673589732510799
372;372;1445944808;2.13887524605;0.740575134754;0.0348562113941;1;True;50;1;0.673589732510799
373;373;1445944808;2.13885259628;0.740754902363;0.0348426774144;1;True;50;1;0.673589732510799
374;374;1445944808;2.13893795013;0.7407053709029999;0.034785374999;1;True;50;1;0.673589732510799
375;375;1445944808;2.13894104958;0.740686118603;0.0347805283964;1;True;50;1;0.673589732510799
376;376;1445944808;2.13885593414;0.7405680418009999;0.0348349288106;1;True;50;1;0.673589732510799
377;377;1445944808;2.13897895813;0.740564644337;0.034782908856900004;1;True;50;1;0.673589732510799
378;378;1445944808;2.1389183998099996;0.7407215237620001;0.034779921174;1;True;50;1;0.673589732510799
379;379;1445944808;2.13884758949;0.740550041199;0.0348672904074;1;True;50;1;0.673589732510799
380;380;1445944808;2.13901901245;0.740668535233;0.0347775183618;1;True;50;1;0.673589732510799
381;381;1445944808;2.13872480392;0.7404767870899999;0.034904461354;1;True;50;1;0.673589732510799
382;382;1445944808;2.13884091377;0.740612447262;0.0348942689598;1;True;50;1;0.673589732510799
383;383;1445944808;2.1389734744999997;0.740725934505;0.0347630493343;1;True;50;1;0.673589732510799
384;384;1445944808;2.13891267776;0.740581393242;0.034768678247899996;1;True;50;1;0.673589732510799
385;385;1445944808;2.1389923095700003;0.740747869015;0.034752406179900004;1;True;50;1;0.673589732510799
386;386;1445944808;2.13897919655;0.7405631542209999;0.0347518846393;1;True;50;1;0.673589732510799
387;387;1445944808;2.13895893097;0.740711927414;0.0347512699664;1;True;50;1;0.673589732510799
388;388;1445944808;2.13878035545;0.7404394149779999;0.0348555445671;1;True;50;1;0.673589732510799
389;389;1445944808;2.13898611069;0.740634799004;0.03474612161519999;1;True;50;1;0.673589732510799
390;390;1445944808;2.1387720108000003;0.740410387516;0.03485269472;1;True;50;1;0.673589732510799
391;391;1445944808;2.1388361454;0.7405502200130001;0.0347681455314;1;True;50;1;0.673589732510799
392;392;1445944808;2.13886857033;0.7405837178229999;0.034794598817800004;1;True;50;1;0.673589732510799
393;393;1445944808;2.1388256549799998;0.740633428097;0.0348844192922;1;True;50;1;0.673589732510799
394;394;1445944808;2.1388964653;0.740734040737;0.034790251404;1;True;50;1;0.673589732510799
395;395;1445944808;2.13894939423;0.740701913834;0.0347285829484;1;True;50;1;0.673589732510799
396;396;1445944808;2.1388065815;0.74045920372;0.0348040871322;1;True;50;1;0.673589732510799
397;397;1445944808;2.13896822929;0.740832209587;0.034727245569199996;1;True;50;1;0.673589732510799
398;398;1445944808;2.1387872695900003;0.740571558475;0.0348226688802;1;True;50;1;0.673589732510799
399;399;1445944808;2.13896179199;0.740734815598;0.034722872078400004;1;True;50;1;0.673589732510799
400;400;1445944808;2.13886117935;0.7407256364820001;0.034806359559300004;1;True;50;1;0.673589732510799
401;401;1445944808;2.13893532753;0.740548610687;0.034738637507;1;True;50;1;0.673589732510799
402;402;1445944808;2.1389465332;0.740759193897;0.034719474613699994;1;True;50;1;0.673589732510799
403;403;1445944808;2.1389441490200003;0.740776479244;0.034716948866800004;1;True;50;1;0.673589732510799
404;404;1445944808;2.13893198967;0.740786671638;0.0347170084715;1;True;50;1;0.673589732510799
405;405;1445944808;2.13883471489;0.740591406822;0.0348116569221;1;True;50;1;0.673589732510799
406;406;1445944808;2.1389043331099997;0.74076372385;0.034729432314599996;1;True;50;1;0.673589732510799
407;407;1445944808;2.13897442818;0.740751802921;0.0347130857408;1;True;50;1;0.673589732510799
408;408;1445944808;2.1385040283200003;0.740384638309;0.0350055508316;1;True;50;1;0.673589732510799
409;409;1445944809;2.13895106316;0.740588665009;0.034710779786099995;2;True;50;1;0.673589732510799
410;410;1445944809;2.1388454437299997;0.7406373023989999;0.0347453765571;2;True;50;1;0.673589732510799
411;411;1445944809;2.13877105713;0.7407053112980001;0.0348843708634;2;True;50;1;0.673589732510799
412;412;1445944809;2.1387796402;0.74061268568;0.034802373498699996;2;True;50;1;0.673589732510799
413;413;1445944809;2.13893032074;0.7406225204469999;0.0347378738225;2;True;50;1;0.673589732510799
414;414;1445944809;2.13874435425;0.740558385849;0.034784462302900006;2;True;50;1;0.673589732510799
415;415;1445944809;2.13891553879;0.740758180618;0.0347108319402;2;True;50;1;0.673589732510799
416;416;1445944809;2.13878822327;0.7406854033470001;0.034759152680599995;2;True;50;1;0.673589732510799
417;417;1445944809;2.1388323307;0.740780711174;0.0347595512867;2;True;50;1;0.673589732510799
418;418;1445944809;2.13893198967;0.740726470947;0.034721042960900006;2;True;50;1;0.673589732510799
419;419;1445944809;2.13892388344;0.740895271301;0.0347027592361;2;True;50;1;0.673589732510799
420;420;1445944809;2.1388223171200003;0.740697085857;0.034770626574800005;2;True;50;1;0.673589732510799
421;421;1445944809;2.13880634308;0.740689575672;0.0348503738642;2;True;50;1;0.673589732510799
422;422;1445944809;2.13875627518;0.7405390143389999;0.034776747226699996;2;True;50;1;0.673589732510799
423;423;1445944809;2.13894104958;0.740829527378;0.0347052924335;2;True;50;1;0.673589732510799
424;424;1445944809;2.13888454437;0.740692555904;0.0347361974418;2;True;50;1;0.673589732510799
425;425;1445944809;2.1389138698599997;0.7407474517820001;0.0347269661725;2;True;50;1;0.673589732510799
426;426;1445944809;2.1389214992500003;0.74090141058;0.0347116328776;2;True;50;1;0.673589732510799
427;427;1445944809;2.1385431289700003;0.740489900112;0.034944098442800005;2;True;50;1;0.673589732510799
428;428;1445944809;2.13879942894;0.740711688995;0.0348428674042;2;True;50;1;0.673589732510799
429;429;1445944809;2.1388442516299997;0.740821957588;0.0347826518118;2;True;50;1;0.673589732510799
430;430;1445944809;2.13890838623;0.74065464735;0.0347043015063;2;True;50;1;0.673589732510799
431;431;1445944809;2.1388664245599998;0.740682065487;0.034758660942300006;2;True;50;1;0.673589732510799
432;432;1445944809;2.13885259628;0.740716576576;0.034835476428300004;2;True;50;1;0.673589732510799
433;433;1445944809;2.1389143466900005;0.740842103958;0.0347269065678;2;True;50;1;0.673589732510799
434;434;1445944809;2.13879871368;0.740564405918;0.0347785130143;2;True;50;1;0.673589732510799
435;435;1445944809;2.13891553879;0.740651190281;0.0347747839987;2;True;50;1;0.673589732510799
436;436;1445944809;2.13882303238;0.740624785423;0.0348173379898;2;True;50;1;0.673589732510799
437;437;1445944809;2.13864421844;0.740583896637;0.0348979085684;2;True;50;1;0.673589732510799
438;438;1445944809;2.13893985748;0.740860044956;0.0347183831036;2;True;50;1;0.673589732510799
439;439;1445944809;2.1389415264099996;0.740890443325;0.034715048968800004;2;True;50;1;0.673589732510799
440;440;1445944809;2.13877487183;0.740635693073;0.034804482013;2;True;50;1;0.673589732510799
441;441;1445944809;2.1389276981400003;0.740891158581;0.0347170121968;2;True;50;1;0.673589732510799
442;442;1445944809;2.1389367580400003;0.7405747175220001;0.03472693264480001;2;True;50;1;0.673589732510799
443;443;1445944809;2.13893556595;0.740885317326;0.034717995673400004;2;True;50;1;0.673589732510799
444;444;1445944809;2.13888812065;0.7407986521719999;0.0347300246358;2;True;50;1;0.673589732510799
445;445;1445944809;2.1389412879900003;0.740674376488;0.0347331129014;2;True;50;1;0.673589732510799
446;446;1445944809;2.13894987106;0.740651428699;0.0347386598587;2;True;50;1;0.673589732510799
447;447;1445944809;2.13878703117;0.740549981594;0.0347987785935;2;True;50;1;0.673589732510799
448;448;1445944809;2.13894295692;0.740892648697;0.0347288101912;2;True;50;1;0.673589732510799
449;449;1445944809;2.13893485069;0.740782797337;0.034736603498499996;2;True;50;1;0.673589732510799
450;450;1445944809;2.1388978958099996;0.740555107594;0.0347636863589;2;True;50;1;0.673589732510799
451;451;1445944809;2.13888311386;0.740748524666;0.034768566489199994;2;True;50;1;0.673589732510799
452;452;1445944809;2.1388878822299997;0.740755736828;0.034761108458;2;True;50;1;0.673589732510799
453;453;1445944809;2.13883137703;0.740763485432;0.0348020344973;2;True;50;1;0.673589732510799
454;454;1445944809;2.1389064788799996;0.7408604621889999;0.0347509719431;2;True;50;1;0.673589732510799
455;455;1445944809;2.13885784149;0.740629136562;0.034888420254000005;2;True;50;1;0.673589732510799
456;456;1445944809;2.13891649246;0.740784525871;0.034755900502199996;2;True;50;1;0.673589732510799
457;457;1445944809;2.1387932300599997;0.740602433681;0.0348987579346;2;True;50;1;0.673589732510799
458;458;1445944809;2.13882899284;0.740531742573;0.0348145738244;2;True;50;1;0.673589732510799
459;459;1445944809;2.13882493973;0.740568757057;0.034858491271699994;2;True;50;1;0.673589732510799
460;460;1445944809;2.1387104988099996;0.7403591275220001;0.034893877804300005;2;True;50;1;0.673589732510799
461;461;1445944809;2.13879275322;0.740556180477;0.0348542444408;2;True;50;1;0.673589732510799
462;462;1445944809;2.13894248009;0.7407572269439999;0.03476242721080001;2;True;50;1;0.673589732510799
463;463;1445944809;2.13894319534;0.740625321865;0.0347860343754;2;True;50;1;0.673589732510799
464;464;1445944809;2.1389605999000003;0.740774869919;0.0347476936877;2;True;50;1;0.673589732510799
465;465;1445944809;2.13880968094;0.7405763268469999;0.034814886748800004;2;True;50;1;0.673589732510799
466;466;1445944809;2.13893699646;0.7407438158990001;0.0347678810358;2;True;50;1;0.673589732510799
467;467;1445944809;2.13897180557;0.740768969059;0.034759581089;2;True;50;1;0.673589732510799
468;468;1445944809;2.13898944855;0.7406245470049999;0.0347647368908;2;True;50;1;0.673589732510799
469;469;1445944809;2.13896012306;0.7407704591750001;0.0347559191287;2;True;50;1;0.673589732510799
470;470;1445944809;2.1389143466900005;0.7407576441760001;0.034775599837300004;2;True;50;1;0.673589732510799
471;471;1445944809;2.13897538185;0.7407643198970001;0.0347663611174;2;True;50;1;0.673589732510799
472;472;1445944809;2.13889694214;0.7406408786769999;0.03490644693369999;2;True;50;1;0.673589732510799
473;473;1445944809;2.13890028;0.7407160997390001;0.034829344600400006;2;True;50;1;0.673589732510799
474;474;1445944809;2.13890004158;0.740715146065;0.034835077822199995;2;True;50;1;0.673589732510799
475;475;1445944809;2.13891720772;0.740745723248;0.0347778201103;2;True;50;1;0.673589732510799
476;476;1445944809;2.1388399601;0.7406048178669999;0.0349360741675;2;True;50;1;0.673589732510799
477;477;1445944809;2.13896179199;0.7406346201899999;0.0347931981087;2;True;50;1;0.673589732510799
478;478;1445944809;2.1387577056900002;0.740486741066;0.034911043942;2;True;50;1;0.673589732510799
479;479;1445944809;2.1389746666;0.7407454252240001;0.0347816683352;2;True;50;1;0.673589732510799
480;480;1445944809;2.1388604641;0.7405170798299999;0.0348912738264;2;True;50;1;0.673589732510799
481;481;1445944809;2.13891553879;0.740705609322;0.034836903214500003;2;True;50;1;0.673589732510799
482;482;1445944809;2.13897633553;0.7405930161480001;0.034813102334699995;2;True;50;1;0.673589732510799
483;483;1445944809;2.1388604641;0.740556955338;0.0348651185632;2;True;50;1;0.673589732510799
484;484;1445944809;2.13899302483;0.7407507300380001;0.0347772426903;2;True;50;1;0.673589732510799
485;485;1445944809;2.13897180557;0.740570902824;0.0348040871322;2;True;50;1;0.673589732510799
486;486;1445944809;2.13891983032;0.7407141923899999;0.034834831952999995;2;True;50;1;0.673589732510799
487;487;1445944809;2.1387968063400002;0.7405148148540001;0.0348945111036;2;True;50;1;0.673589732510799
488;488;1445944809;2.1389706134799997;0.7405746579170001;0.03480945900080001;2;True;50;1;0.673589732510799
489;489;1445944809;2.1389427185099996;0.7407006025309999;0.0347905755043;2;True;50;1;0.673589732510799
490;490;1445944809;2.1389765739400004;0.7407572269439999;0.0347709171474;2;True;50;1;0.673589732510799
491;491;1445944809;2.1388976573900003;0.7406473755840001;0.0347951129079;2;True;50;1;0.673589732510799
492;492;1445944809;2.13898301125;0.740591585636;0.034772489219900005;2;True;50;1;0.673589732510799
493;493;1445944809;2.13882446289;0.740524530411;0.0348971933126;2;True;50;1;0.673589732510799
494;494;1445944809;2.1388628482799996;0.7406503558159999;0.034904807806;2;True;50;1;0.673589732510799
495;495;1445944809;2.1388468742400004;0.7405895590780001;0.034911043942;2;True;50;1;0.673589732510799
496;496;1445944809;2.13893795013;0.740541100502;0.034824300557400004;2;True;50;1;0.673589732510799
497;497;1445944809;2.13872671127;0.740578532219;0.0349682047963;2;True;50;1;0.673589732510799
498;498;1445944809;2.13884234428;0.7406224608419999;0.0348979495466;2;True;50;1;0.673589732510799
499;499;1445944809;2.1388356685599996;0.740527451038;0.0348815470934;2;True;50;1;0.673589732510799
500;500;1445944809;2.1389050483700003;0.7405925393100001;0.034791413694599996;2;True;50;1;0.673589732510799
501;501;1445944809;2.13886857033;0.7405965328219999;0.0348262600601;2;True;50;1;0.673589732510799
502;502;1445944809;2.13889718056;0.740637481213;0.0348046347499;2;True;50;1;0.673589732510799
503;503;1445944809;2.1388361454;0.7407073378560001;0.0348749011755;2;True;50;1;0.673589732510799
504;504;1445944809;2.13881754875;0.7406468391419999;0.0348979309201;2;True;50;1;0.673589732510799
505;505;1445944809;2.1389713287400003;0.7407531142229999;0.0347543731332;2;True;50;1;0.673589732510799
506;506;1445944809;2.1389412879900003;0.7407137155529999;0.0347636900842;2;True;50;1;0.673589732510799
507;507;1445944809;2.13875985146;0.7405863404269999;0.0349739603698;2;True;50;1;0.673589732510799
508;508;1445944809;2.1389427185099996;0.7406454086300001;0.034744348377;2;True;50;1;0.673589732510799
509;509;1445944809;2.1389174461400002;0.740657329559;0.0347527600825;2;True;50;1;0.673589732510799
510;510;1445944809;2.13896226883;0.740800797939;0.0347313433886;2;True;50;1;0.673589732510799
511;511;1445944809;2.13891577721;0.7406454682350001;0.0347875878215;2;True;50;1;0.673589732510799
512;512;1445944809;2.1388165950799998;0.740545511246;0.0348465517163;2;True;50;1;0.673589732510799
513;513;1445944809;2.1388907432599997;0.7408088445659999;0.034768879413600004;2;True;50;1;0.673589732510799
514;514;1445944809;2.13893270493;0.740763783455;0.0347447767854;2;True;50;1;0.673589732510799
515;515;1445944809;2.1388599872599996;0.740722537041;0.034760389477;2;True;50;1;0.673589732510799
516;516;1445944809;2.1389582157099998;0.74053555727;0.034729167819;2;True;50;1;0.673589732510799
517;517;1445944809;2.1386728286700003;0.740522027016;0.0349149182439;2;True;50;1;0.673589732510799
518;518;1445944809;2.13866710663;0.740594804287;0.0349514186382;2;True;50;1;0.673589732510799
519;519;1445944809;2.13883638382;0.740621447563;0.0348265133798;2;True;50;1;0.673589732510799
520;520;1445944809;2.1389341354400004;0.740749657154;0.034731566905999996;2;True;50;1;0.673589732510799
521;521;1445944809;2.1388080120099997;0.7405726909639999;0.034811235964300004;2;True;50;1;0.673589732510799
522;522;1445944809;2.13893485069;0.740735590458;0.03472019732;2;True;50;1;0.673589732510799
523;523;1445944809;2.13889861107;0.7406530380249999;0.034765291959;2;True;50;1;0.673589732510799
524;524;1445944809;2.13884997368;0.7405888438220001;0.0347876064479;2;True;50;1;0.673589732510799
525;525;1445944809;2.13893008232;0.740709364414;0.0347354114056;2;True;50;1;0.673589732510799
526;526;1445944809;2.13890600204;0.7406955957410001;0.0347457155585;2;True;50;1;0.673589732510799
527;527;1445944809;2.13884878159;0.740610897541;0.0347887612879;2;True;50;1;0.673589732510799
528;528;1445944809;2.13889694214;0.7405340671539999;0.0347547568381;2;True;50;1;0.673589732510799
529;529;1445944809;2.13894939423;0.74067980051;0.0347320176661;2;True;50;1;0.673589732510799
530;530;1445944809;2.1389389038099997;0.740749239922;0.034729462116999996;2;True;50;1;0.673589732510799
531;531;1445944809;2.13886618614;0.740610778332;0.0347731150687;2;True;50;1;0.673589732510799
532;532;1445944809;2.13887524605;0.740541875362;0.034786626696599994;2;True;50;1;0.673589732510799
533;533;1445944809;2.13887739182;0.7405972480769999;0.034748185426;2;True;50;1;0.673589732510799
534;534;1445944809;2.13888835907;0.7406474947930001;0.034771855920599996;2;True;50;1;0.673589732510799
535;535;1445944809;2.13874936104;0.74060690403;0.0348441526294;2;True;50;1;0.673589732510799
536;536;1445944809;2.13884449005;0.740563333035;0.0347584336996;2;True;50;1;0.673589732510799
537;537;1445944809;2.1389341354400004;0.740452826023;0.0347378887236;2;True;50;1;0.673589732510799
538;538;1445944809;2.13888978958;0.7406270504000001;0.03475003317;2;True;50;1;0.673589732510799
539;539;1445944809;2.13889598846;0.740704357624;0.0347363315523;2;True;50;1;0.673589732510799
540;540;1445944809;2.1388323307;0.740525126457;0.034750763326900004;2;True;50;1;0.673589732510799
541;541;1445944809;2.1388792991599996;0.740657269955;0.0347459837794;2;True;50;1;0.673589732510799
542;542;1445944809;2.13891649246;0.7406939864159999;0.0347473286092;2;True;50;1;0.673589732510799
543;543;1445944809;2.1388163566599996;0.740570783615;0.0348743759096;2;True;50;1;0.673589732510799
544;544;1445944809;2.1388018131299997;0.740664422512;0.0348497666419;2;True;50;1;0.673589732510799
545;545;1445944809;2.1387596130400004;0.740564227104;0.0348519049585;2;True;50;1;0.673589732510799
546;546;1445944809;2.13858628273;0.740582346916;0.034941852092699996;2;True;50;1;0.673589732510799
547;547;1445944809;2.13889956474;0.740568935871;0.0347483195364;2;True;50;1;0.673589732510799
548;548;1445944809;2.13890075684;0.740569651127;0.03472911939019999;2;True;50;1;0.673589732510799
549;549;1445944809;2.1388878822299997;0.740665137768;0.0347353704274;2;True;50;1;0.673589732510799
550;550;1445944809;2.13876271248;0.7405663132670001;0.034901555627599994;2;True;50;1;0.673589732510799
551;551;1445944809;2.13891482353;0.740667521954;0.0347514562309;2;True;50;1;0.673589732510799
552;552;1445944809;2.13869524002;0.7404999136920001;0.034876439720400006;2;True;50;1;0.673589732510799
553;553;1445944809;2.13879990578;0.7404527664180001;0.0347803458571;2;True;50;1;0.673589732510799
554;554;1445944809;2.13894915581;0.7406236529350001;0.034727293997999995;2;True;50;1;0.673589732510799
555;555;1445944809;2.13896894455;0.7405436038969999;0.0347134508193;2;True;50;1;0.673589732510799
556;556;1445944809;2.13884305954;0.740742564201;0.0347801037133;2;True;50;1;0.673589732510799
557;557;1445944809;2.13896465302;0.740555465221;0.0347158014774;2;True;50;1;0.673589732510799
558;558;1445944809;2.1389067173;0.7407827377320001;0.034723259508599995;2;True;50;1;0.673589732510799
559;559;1445944809;2.13894581795;0.740872740746;0.0347206033766;2;True;50;1;0.673589732510799
560;560;1445944809;2.13888072968;0.7407522201540001;0.0347622223198;2;True;50;1;0.673589732510799
561;561;1445944809;2.1388018131299997;0.740661621094;0.0348718240857;2;True;50;1;0.673589732510799
562;562;1445944809;2.13894891739;0.740724563599;0.0347315557301;2;True;50;1;0.673589732510799
563;563;1445944809;2.138702631;0.7404773831370001;0.0348888598382;2;True;50;1;0.673589732510799
564;564;1445944809;2.1388893127400004;0.740487217903;0.0347491763532;2;True;50;1;0.673589732510799
565;565;1445944809;2.13872861862;0.74050360918;0.0348705798388;2;True;50;1;0.673589732510799
566;566;1445944809;2.13880634308;0.7405774593350001;0.034777387976599995;2;True;50;1;0.673589732510799
567;567;1445944809;2.13894701004;0.740754902363;0.0347278155386;2;True;50;1;0.673589732510799
568;568;1445944809;2.13881325722;0.7405558228489999;0.0347897596657;2;True;50;1;0.673589732510799
569;569;1445944809;2.13898873329;0.7407163977619999;0.0347272381186;2;True;50;1;0.673589732510799
570;570;1445944809;2.1388714313499997;0.740700781345;0.0348119623959;2;True;50;1;0.673589732510799
571;571;1445944809;2.13866090775;0.740501642227;0.034947834909000004;2;True;50;1;0.673589732510799
572;572;1445944809;2.13883209229;0.7406394481659999;0.0348766334355;2;True;50;1;0.673589732510799
573;573;1445944809;2.13876771927;0.7406006455419999;0.0348888486624;2;True;50;1;0.673589732510799
574;574;1445944809;2.1389701366400002;0.740831911564;0.0347326099873;2;True;50;1;0.673589732510799
575;575;1445944809;2.1387376785299996;0.7405752539630001;0.0349127911031;2;True;50;1;0.673589732510799
576;576;1445944809;2.13894891739;0.7407255172730001;0.03474178537730001;2;True;50;1;0.673589732510799
577;577;1445944809;2.13885569572;0.740587770939;0.0348122790456;2;True;50;1;0.673589732510799
578;578;1445944809;2.13889551163;0.7407273054119999;0.034800097346300005;2;True;50;1;0.673589732510799
579;579;1445944809;2.13881063461;0.740416705608;0.0348108932376;2;True;50;1;0.673589732510799
580;580;1445944809;2.13886618614;0.7405969500540001;0.034887399524500005;2;True;50;1;0.673589732510799
581;581;1445944809;2.13883805275;0.7405848503110001;0.0348299667239;2;True;50;1;0.673589732510799
582;582;1445944809;2.1389515399900003;0.7407394647600001;0.0347632393241;2;True;50;1;0.673589732510799
583;583;1445944809;2.13882017136;0.7405297756199999;0.034889720380300006;2;True;50;1;0.673589732510799
584;584;1445944809;2.1389882564500002;0.740647733212;0.034772921353599995;2;True;50;1;0.673589732510799
585;585;1445944809;2.13888120651;0.740577816963;0.0347800701857;2;True;50;1;0.673589732510799
586;586;1445944809;2.1389241218599997;0.740737557411;0.0347946286201;2;True;50;1;0.673589732510799
587;587;1445944809;2.1388182640099997;0.740632772446;0.0348132550716;2;True;50;1;0.673589732510799
588;588;1445944809;2.13895940781;0.740535736084;0.034772064536800006;2;True;50;1;0.673589732510799
589;589;1445944809;2.13882040977;0.740532457829;0.0348798781633;2;True;50;1;0.673589732510799
590;590;1445944809;2.13890743256;0.7406388521189999;0.034796345979;2;True;50;1;0.673589732510799
591;591;1445944809;2.1389183998099996;0.740571558475;0.03480839356780001;2;True;50;1;0.673589732510799
592;592;1445944809;2.1388733387;0.7405691742899999;0.0349081382155;2;True;50;1;0.673589732510799
593;593;1445944809;2.1388309001900003;0.7405312657359999;0.034905321896099996;2;True;50;1;0.673589732510799
594;594;1445944809;2.138879776;0.7405800819399999;0.0349046252668;2;True;50;1;0.673589732510799
595;595;1445944809;2.13889884949;0.7406176328659999;0.034853592515;2;True;50;1;0.673589732510799
596;596;1445944809;2.13892626762;0.7406373023989999;0.0348354615271;2;True;50;1;0.673589732510799
597;597;1445944809;2.13891339302;0.740654110909;0.0348107367754;2;True;50;1;0.673589732510799
598;598;1445944809;2.13894224167;0.740652501583;0.034800078719900006;2;True;50;1;0.673589732510799
599;599;1445944809;2.1388628482799996;0.740517377853;0.0349049605429;2;True;50;1;0.673589732510799
600;600;1445944809;2.13902807236;0.740664243698;0.0348373688757;2;True;50;1;0.673589732510799
601;601;1445944809;2.13894891739;0.740585267544;0.034832019358900006;2;True;50;1;0.673589732510799
602;602;1445944809;2.13863253593;0.740410089493;0.0350304841995;2;True;50;1;0.673589732510799
603;603;1445944809;2.13886404037;0.740582704544;0.0348628461361;2;True;50;1;0.673589732510799
604;604;1445944809;2.13892793655;0.740674436092;0.034789476543699994;2;True;50;1;0.673589732510799
605;605;1445944809;2.1389322280900003;0.740645706654;0.0348068960011;2;True;50;1;0.673589732510799
606;606;1445944809;2.13891983032;0.7406755685809999;0.034804597497;2;True;50;1;0.673589732510799
