;Unnamed: 0;header_stamp_secs;pose_position_x;pose_position_y;pose_position_z;seconds;drop_values;flight_number;label;dtw
0;0;1449484861;2.17009854317;0.793134748936;0.069150172174;0;True;6;1;76.93100384995458
1;1;1449484861;2.1700971126599997;0.7931501865389999;0.06920970976350001;0;True;6;1;76.93100384995458
2;2;1449484861;2.17023015022;0.7929751276970001;0.0689712241292;0;True;6;1;76.93100384995458
3;3;1449484861;2.1701107025099997;0.7930688858030001;0.069159284234;0;True;6;1;76.93100384995458
4;4;1449484861;2.1703219413799997;0.7932104468350001;0.06890475749969999;0;True;6;1;76.93100384995458
5;5;1449484861;2.17014741898;0.793116807938;0.0691331252456;0;True;6;1;76.93100384995458
6;6;1449484861;2.17031264305;0.7933879494670001;0.06897229701280001;0;True;6;1;76.93100384995458
7;7;1449484861;2.1703183651;0.7933546900749999;0.068978227675;0;True;6;1;76.93100384995458
8;8;1449484861;2.17017865181;0.793125212193;0.06910988688469999;0;True;6;1;76.93100384995458
9;9;1449484861;2.17033004761;0.793208301067;0.0689168274403;0;True;6;1;76.93100384995458
10;10;1449484861;2.17007279396;0.7930858731270001;0.0692292898893;0;True;6;1;76.93100384995458
11;11;1449484861;2.17019248009;0.793189704418;0.0691155493259;0;True;6;1;76.93100384995458
12;12;1449484861;2.17010807991;0.7930615544320001;0.0691821277142;0;True;6;1;76.93100384995458
13;13;1449484861;2.17028951645;0.793106615543;0.06894930452110001;0;True;6;1;76.93100384995458
14;14;1449484861;2.17032909393;0.793155372143;0.0689920932055;0;True;6;1;76.93100384995458
15;15;1449484861;2.17032313347;0.7933132052420001;0.06896617263560001;0;True;6;1;76.93100384995458
16;16;1449484861;2.17036414146;0.79329842329;0.0690689608455;0;True;6;1;76.93100384995458
17;17;1449484861;2.17001342773;0.793045699596;0.06910869479180001;0;True;6;1;76.93100384995458
18;18;1449484861;2.17034840584;0.793111145496;0.0688907951117;0;True;6;1;76.93100384995458
19;19;1449484861;2.1702413559;0.793206572533;0.0690914988518;0;True;6;1;76.93100384995458
20;20;1449484861;2.17031431198;0.793339133263;0.0689674392343;0;True;6;1;76.93100384995458
21;21;1449484861;2.17018508911;0.793116033077;0.0692125856876;0;True;6;1;76.93100384995458
22;22;1449484861;2.17034006119;0.793210566044;0.068915091455;0;True;6;1;76.93100384995458
23;23;1449484861;2.17013287544;0.7931030392649999;0.06917770951989999;0;True;6;1;76.93100384995458
24;24;1449484861;2.17028689384;0.793205678463;0.0691312327981;0;True;6;1;76.93100384995458
25;25;1449484861;2.17016220093;0.7931284904479999;0.06914766132830001;0;True;6;1;76.93100384995458
26;26;1449484861;2.17017793655;0.793106079102;0.0691509321332;0;True;6;1;76.93100384995458
27;27;1449484861;2.1703078746799997;0.793151557446;0.0689743310213;0;True;6;1;76.93100384995458
28;28;1449484861;2.1702399253799998;0.793363571167;0.06905285269019999;0;True;6;1;76.93100384995458
29;29;1449484861;2.17035746574;0.79330176115;0.0689707770944;0;True;6;1;76.93100384995458
30;30;1449484861;2.1702563762700002;0.7932365536689999;0.0691458582878;0;True;6;1;76.93100384995458
31;31;1449484861;2.17012572289;0.792998075485;0.06914646178480001;0;True;6;1;76.93100384995458
32;32;1449484861;2.1703317165400002;0.793206214905;0.0689757838845;0;True;6;1;76.93100384995458
33;33;1449484861;2.17016625404;0.7931703329090001;0.06921204179530001;0;True;6;1;76.93100384995458
34;34;1449484861;2.17034029961;0.7931807041169999;0.06895345449450001;0;True;6;1;76.93100384995458
35;35;1449484861;2.17013907433;0.7930079102519999;0.06918518990280001;0;True;6;1;76.93100384995458
36;36;1449484861;2.17026805878;0.7932198643680001;0.0691638961434;0;True;6;1;76.93100384995458
37;37;1449484861;2.17010426521;0.792859792709;0.0691955834627;0;True;6;1;76.93100384995458
38;38;1449484861;2.17018985748;0.793248176575;0.06922661513089999;0;True;6;1;76.93100384995458
39;39;1449484861;2.1703820228599997;0.793301224709;0.06901232153180001;0;True;6;1;76.93100384995458
40;40;1449484861;2.17018771172;0.7932776808740001;0.0690954178572;0;True;6;1;76.93100384995458
41;41;1449484861;2.1702842712400003;0.7932574748989999;0.0691849142313;0;True;6;1;76.93100384995458
42;42;1449484861;2.17036104202;0.793188929558;0.0690000355244;0;True;6;1;76.93100384995458
43;43;1449484861;2.17016148567;0.793079137802;0.06923315674069999;0;True;6;1;76.93100384995458
44;44;1449484861;2.17039346695;0.7934093475339999;0.069093734026;0;True;6;1;76.93100384995458
45;45;1449484861;2.17032289505;0.793189466;0.06923943758010001;0;True;6;1;76.93100384995458
46;46;1449484861;2.17031049728;0.793149530888;0.0691246464849;0;True;6;1;76.93100384995458
47;47;1449484861;2.17017006874;0.793063819408;0.0692245438695;0;True;6;1;76.93100384995458
48;48;1449484861;2.17024850845;0.79314827919;0.06926461309189999;0;True;6;1;76.93100384995458
49;49;1449484861;2.1703336238900004;0.793275535107;0.0692382752895;0;True;6;1;76.93100384995458
50;50;1449484861;2.1703250408200003;0.793272733688;0.0692441686988;0;True;6;1;76.93100384995458
51;51;1449484861;2.17037558556;0.793371498585;0.0690914317966;0;True;6;1;76.93100384995458
52;52;1449484861;2.1703879833200004;0.793129444122;0.069078758359;0;True;6;1;76.93100384995458
53;53;1449484861;2.17016243935;0.792887568474;0.06927243620160001;0;True;6;1;76.93100384995458
54;54;1449484861;2.17042088509;0.793335616589;0.0690536201;0;True;6;1;76.93100384995458
55;55;1449484861;2.17025899887;0.793132424355;0.0692755430937;0;True;6;1;76.93100384995458
56;56;1449484861;2.17039084435;0.7932166457179999;0.0691232681274;0;True;6;1;76.93100384995458
57;57;1449484861;2.17039346695;0.793376266956;0.0691299512982;0;True;6;1;76.93100384995458
58;58;1449484861;2.17043399811;0.793400108814;0.06913366913800001;0;True;6;1;76.93100384995458
59;59;1449484861;2.17024469376;0.793116271496;0.06929077953099999;0;True;6;1;76.93100384995458
60;60;1449484861;2.1704449653599998;0.793328642845;0.06911548972130001;0;True;6;1;76.93100384995458
61;61;1449484861;2.1703000068700002;0.793205499649;0.06926437467339999;0;True;6;1;76.93100384995458
62;62;1449484861;2.17026209831;0.7930827736849999;0.0692879632115;0;True;6;1;76.93100384995458
63;63;1449484861;2.17033481598;0.79322385788;0.0692766979337;0;True;6;1;76.93100384995458
64;64;1449484861;2.17028331757;0.7931783199310001;0.06927479058500001;0;True;6;1;76.93100384995458
65;65;1449484861;2.1703886985799996;0.793300032616;0.0692589133978;0;True;6;1;76.93100384995458
66;66;1449484862;2.17042589188;0.793378829956;0.0691467821598;1;True;6;1;76.93100384995458
67;67;1449484862;2.1703119278;0.79299467802;0.06916577368969999;1;True;6;1;76.93100384995458
68;68;1449484862;2.1703441143;0.7932682037350001;0.0692746192217;1;True;6;1;76.93100384995458
69;69;1449484862;2.1703197956099998;0.793232500553;0.0692826062441;1;True;6;1;76.93100384995458
70;70;1449484862;2.170378685;0.7933335304260001;0.0692543759942;1;True;6;1;76.93100384995458
71;71;1449484862;2.17018008232;0.7929425835609999;0.0693060532212;1;True;6;1;76.93100384995458
72;72;1449484862;2.17030549049;0.793208658695;0.06925431638960002;1;True;6;1;76.93100384995458
73;73;1449484862;2.17028093338;0.793203771114;0.06927165389060001;1;True;6;1;76.93100384995458
74;74;1449484862;2.17031359673;0.7932289242739999;0.06924339383839999;1;True;6;1;76.93100384995458
75;75;1449484862;2.17008852959;0.7932352423669999;0.0694043934345;1;True;6;1;76.93100384995458
76;76;1449484862;2.17036700249;0.7933203578;0.0692585855722;1;True;6;1;76.93100384995458
77;77;1449484862;2.17023205757;0.793130040169;0.06924267113210002;1;True;6;1;76.93100384995458
78;78;1449484862;2.17027544975;0.793196618557;0.0692554786801;1;True;6;1;76.93100384995458
79;79;1449484862;2.17029881477;0.793213009834;0.0692052915692;1;True;6;1;76.93100384995458
80;80;1449484862;2.1702899932900004;0.793118298054;0.06917533278469999;1;True;6;1;76.93100384995458
81;81;1449484862;2.17035603523;0.7933422327040001;0.0692181661725;1;True;6;1;76.93100384995458
82;82;1449484862;2.17040944099;0.7934199571610001;0.069096699357;1;True;6;1;76.93100384995458
83;83;1449484862;2.17034626007;0.7932690381999999;0.069117590785;1;True;6;1;76.93100384995458
84;84;1449484862;2.17031955719;0.7932931780820001;0.0691356286407;1;True;6;1;76.93100384995458
85;85;1449484862;2.1702542305000003;0.793174684048;0.0692359209061;1;True;6;1;76.93100384995458
86;86;1449484862;2.17032337189;0.7932832837100001;0.0691166296601;1;True;6;1;76.93100384995458
87;87;1449484862;2.17038011551;0.7932352423669999;0.06900930404660001;1;True;6;1;76.93100384995458
88;88;1449484862;2.17017960548;0.7931675314899999;0.06928414851430001;1;True;6;1;76.93100384995458
89;89;1449484862;2.17024946213;0.7932049632070001;0.06919617205860001;1;True;6;1;76.93100384995458
90;90;1449484862;2.17016911507;0.7931818366050001;0.0691323727369;1;True;6;1;76.93100384995458
91;91;1449484862;2.17026686668;0.793130755424;0.0691227987409;1;True;6;1;76.93100384995458
92;92;1449484862;2.17039346695;0.793416917324;0.06892732530830001;1;True;6;1;76.93100384995458
93;93;1449484862;2.1702251434299997;0.7931507229800001;0.0691727101803;1;True;6;1;76.93100384995458
94;94;1449484862;2.1703414917;0.7932069301610001;0.06896393746139999;1;True;6;1;76.93100384995458
95;95;1449484862;2.1702556610099997;0.793274343014;0.0690785869956;1;True;6;1;76.93100384995458
96;96;1449484862;2.1700818538699997;0.7928831577300001;0.06918034702539999;1;True;6;1;76.93100384995458
97;97;1449484862;2.1702377796200003;0.7929291725159999;0.06897819787260001;1;True;6;1;76.93100384995458
98;98;1449484862;2.1700654029799997;0.793104112148;0.0691002756357;1;True;6;1;76.93100384995458
99;99;1449484862;2.17011499405;0.793148875237;0.0691532492638;1;True;6;1;76.93100384995458
100;100;1449484862;2.17009162903;0.793162643909;0.06908798962830001;1;True;6;1;76.93100384995458
101;101;1449484862;2.17022395134;0.793170154095;0.0691323876381;1;True;6;1;76.93100384995458
102;102;1449484862;2.1700809001900003;0.79317098856;0.06909471005199999;1;True;6;1;76.93100384995458
103;103;1449484862;2.1701374053999998;0.793147683144;0.0690951570868;1;True;6;1;76.93100384995458
104;104;1449484862;2.17011260986;0.793115317822;0.069116987288;1;True;6;1;76.93100384995458
105;105;1449484862;2.17009997368;0.7931730151180001;0.0692092329264;1;True;6;1;76.93100384995458
106;106;1449484862;2.1700968742400004;0.7930899858470001;0.0691187381744;1;True;6;1;76.93100384995458
107;107;1449484862;2.1701683998099996;0.7931913137440001;0.0690841674805;1;True;6;1;76.93100384995458
108;108;1449484862;2.17022895813;0.7931808233259999;0.06898928433660001;1;True;6;1;76.93100384995458
109;109;1449484862;2.17005753517;0.7929043769840001;0.0691048055887;1;True;6;1;76.93100384995458
110;110;1449484862;2.17013812065;0.793234586716;0.06907273828980001;1;True;6;1;76.93100384995458
111;111;1449484862;2.17024755478;0.793463110924;0.0689040571451;1;True;6;1;76.93100384995458
112;112;1449484862;2.17020940781;0.792970716953;0.0689347609878;1;True;6;1;76.93100384995458
113;113;1449484862;2.1700954437299997;0.793210804462;0.06904040277000001;1;True;6;1;76.93100384995458
114;114;1449484862;2.17016792297;0.793191850185;0.0690474808216;1;True;6;1;76.93100384995458
115;115;1449484862;2.17018055916;0.793082237244;0.0690431520343;1;True;6;1;76.93100384995458
116;116;1449484862;2.1702082157099998;0.793203234673;0.06900294870139999;1;True;6;1;76.93100384995458
117;117;1449484862;2.17008137703;0.7931396961210001;0.0690897479653;1;True;6;1;76.93100384995458
118;118;1449484862;2.17018556595;0.7931697964669999;0.06908045709130001;1;True;6;1;76.93100384995458
119;119;1449484862;2.17010354996;0.793138086796;0.06905845552680001;1;True;6;1;76.93100384995458
120;120;1449484862;2.1700735092200003;0.7931214570999999;0.0690737366676;1;True;6;1;76.93100384995458
121;121;1449484862;2.17003488541;0.7930786013600001;0.0691514089704;1;True;6;1;76.93100384995458
122;122;1449484862;2.17031574249;0.793277740479;0.06897797435519999;1;True;6;1;76.93100384995458
123;123;1449484862;2.1701579093900003;0.7931853532790001;0.0690465345979;1;True;6;1;76.93100384995458
124;124;1449484862;2.17006587982;0.793120443821;0.06911267340180001;1;True;6;1;76.93100384995458
125;125;1449484862;2.17009925842;0.793053984642;0.06908262521030001;1;True;6;1;76.93100384995458
126;126;1449484862;2.16998720169;0.793059408665;0.06893264502289999;1;True;6;1;76.93100384995458
127;127;1449484862;2.17023468018;0.7933093905449999;0.06905345618719999;1;True;6;1;76.93100384995458
128;128;1449484862;2.17007803917;0.793061137199;0.06900234520439999;1;True;6;1;76.93100384995458
129;129;1449484862;2.17020130157;0.7931914329530001;0.06909611821169999;1;True;6;1;76.93100384995458
130;130;1449484862;2.17004871368;0.7929354906080001;0.0690755173564;1;True;6;1;76.93100384995458
131;131;1449484862;2.17018342018;0.7931382060050001;0.0690538883209;1;True;6;1;76.93100384995458
132;132;1449484862;2.17028689384;0.793151557446;0.06887768208980001;1;True;6;1;76.93100384995458
133;133;1449484862;2.17017173767;0.793134152889;0.0690717846155;1;True;6;1;76.93100384995458
134;134;1449484862;2.1702191829700004;0.792931079865;0.06895678490399999;1;True;6;1;76.93100384995458
135;135;1449484862;2.1700696945200004;0.792987108231;0.069132976234;1;True;6;1;76.93100384995458
136;136;1449484862;2.17010831833;0.793075203896;0.0691574513912;1;True;6;1;76.93100384995458
137;137;1449484862;2.17012763023;0.793170452118;0.0691267475486;1;True;6;1;76.93100384995458
138;138;1449484862;2.1700925827;0.7928789258;0.06914722919460001;1;True;6;1;76.93100384995458
139;139;1449484862;2.17008638382;0.79291921854;0.0691723227501;1;True;6;1;76.93100384995458
140;140;1449484862;2.1702105999000003;0.7931813001629999;0.0691187307239;1;True;6;1;76.93100384995458
141;141;1449484862;2.16996312141;0.793166875839;0.0693965405226;1;True;6;1;76.93100384995458
142;142;1449484862;2.17015075684;0.793101370335;0.0691394880414;1;True;6;1;76.93100384995458
143;143;1449484862;2.17032456398;0.793139755726;0.0689787641168;1;True;6;1;76.93100384995458
144;144;1449484862;2.17018342018;0.793209195137;0.0692800655961;1;True;6;1;76.93100384995458
145;145;1449484862;2.1702940464;0.793567180634;0.06915806233880001;1;True;6;1;76.93100384995458
146;146;1449484862;2.17018699646;0.7930363416670001;0.0691149756312;1;True;6;1;76.93100384995458
147;147;1449484862;2.1703152656599998;0.793272256851;0.0690240189433;1;True;6;1;76.93100384995458
148;148;1449484862;2.17034244537;0.793255388737;0.06914346665139999;1;True;6;1;76.93100384995458
149;149;1449484862;2.17013502121;0.793105661869;0.06927018612619999;1;True;6;1;76.93100384995458
150;150;1449484862;2.17035984993;0.7933334112170001;0.0690779387951;1;True;6;1;76.93100384995458
151;151;1449484862;2.1702399253799998;0.7930791974070001;0.06928643584250001;1;True;6;1;76.93100384995458
152;152;1449484862;2.1700758934;0.792977750301;0.0691972449422;1;True;6;1;76.93100384995458
153;153;1449484862;2.1701631546;0.793182194233;0.06921810656789999;1;True;6;1;76.93100384995458
154;154;1449484862;2.1703059673299996;0.793166279793;0.0692542865872;1;True;6;1;76.93100384995458
155;155;1449484862;2.17034840584;0.79339247942;0.0691164806485;1;True;6;1;76.93100384995458
156;156;1449484862;2.17044758797;0.793350875378;0.06908620148900001;1;True;6;1;76.93100384995458
157;157;1449484862;2.17037439346;0.793213903904;0.0690205395222;1;True;6;1;76.93100384995458
158;158;1449484862;2.17025256157;0.7930207848549999;0.0691381320357;1;True;6;1;76.93100384995458
159;159;1449484862;2.1704123020200004;0.7932255268100001;0.06905215233560001;1;True;6;1;76.93100384995458
160;160;1449484862;2.1702206134799997;0.7931976318359999;0.06914832443;1;True;6;1;76.93100384995458
161;161;1449484862;2.1702642440799997;0.7931159138680001;0.0693293884397;1;True;6;1;76.93100384995458
162;162;1449484862;2.17015337944;0.793221116066;0.0692724660039;1;True;6;1;76.93100384995458
163;163;1449484862;2.1703095436099997;0.7932499647139999;0.0692520663142;1;True;6;1;76.93100384995458
164;164;1449484862;2.17041444778;0.7932785749439999;0.0690735578537;1;True;6;1;76.93100384995458
165;165;1449484862;2.17038011551;0.7932302355769999;0.0691978558898;1;True;6;1;76.93100384995458
166;166;1449484862;2.1701874733;0.793151855469;0.06929539144039999;1;True;6;1;76.93100384995458
167;167;1449484862;2.1701841354400004;0.7931804060940001;0.0693084448576;1;True;6;1;76.93100384995458
168;168;1449484862;2.17043638229;0.793410181999;0.0690568089485;1;True;6;1;76.93100384995458
169;169;1449484862;2.17039942741;0.793219566345;0.069208689034;1;True;6;1;76.93100384995458
170;170;1449484862;2.17014670372;0.793042838573;0.069333486259;1;True;6;1;76.93100384995458
171;171;1449484862;2.1702580452;0.793072223663;0.0692778304219;1;True;6;1;76.93100384995458
172;172;1449484862;2.17021274567;0.793131291866;0.0693070441484;1;True;6;1;76.93100384995458
173;173;1449484862;2.170399189;0.7932253479960001;0.06908462941650001;1;True;6;1;76.93100384995458
174;174;1449484862;2.17024302483;0.793229401112;0.06929379701610001;1;True;6;1;76.93100384995458
175;175;1449484862;2.17029380798;0.79313403368;0.06919194757939999;1;True;6;1;76.93100384995458
176;176;1449484862;2.1702303886400003;0.793133854866;0.0693064406514;1;True;6;1;76.93100384995458
177;177;1449484862;2.1704082489;0.793352603912;0.0691170021892;1;True;6;1;76.93100384995458
178;178;1449484862;2.17015457153;0.7931391000749999;0.0694104507565;1;True;6;1;76.93100384995458
179;179;1449484862;2.17030096054;0.793150424957;0.0693468227983;1;True;6;1;76.93100384995458
180;180;1449484862;2.1703019142200004;0.793220162392;0.0692005679011;1;True;6;1;76.93100384995458
181;181;1449484862;2.1701955795299996;0.7931574583050001;0.0692932456732;1;True;6;1;76.93100384995458
182;182;1449484862;2.17027974129;0.793225586414;0.06926722079520001;1;True;6;1;76.93100384995458
183;183;1449484862;2.17022323608;0.7931696772579999;0.0692685395479;1;True;6;1;76.93100384995458
184;184;1449484862;2.1702671050999998;0.79324388504;0.0692521706223;1;True;6;1;76.93100384995458
185;185;1449484862;2.1703612804400003;0.793443500996;0.0691300556064;1;True;6;1;76.93100384995458
186;186;1449484862;2.17036795616;0.793242573738;0.0690730512142;1;True;6;1;76.93100384995458
187;187;1449484862;2.17031550407;0.793206572533;0.0692679733038;1;True;6;1;76.93100384995458
188;188;1449484862;2.17013168335;0.79311311245;0.069237165153;1;True;6;1;76.93100384995458
189;189;1449484862;2.1703510284400003;0.79309540987;0.0690317004919;1;True;6;1;76.93100384995458
190;190;1449484862;2.17016577721;0.79302740097;0.0692163333297;1;True;6;1;76.93100384995458
191;191;1449484862;2.1702377796200003;0.7932260632510001;0.0692227035761;1;True;6;1;76.93100384995458
192;192;1449484862;2.1701357364700002;0.7930329442020001;0.0691900849342;1;True;6;1;76.93100384995458
193;193;1449484862;2.1701838970200003;0.793142735958;0.0692458227277;1;True;6;1;76.93100384995458
194;194;1449484862;2.170170784;0.793142914772;0.06920174509289999;1;True;6;1;76.93100384995458
195;195;1449484862;2.17016673088;0.7931370735169999;0.06922309845689999;1;True;6;1;76.93100384995458
196;196;1449484862;2.17035341263;0.79322719574;0.0690122321248;1;True;6;1;76.93100384995458
197;197;1449484862;2.17034482956;0.793338060379;0.0690265223384;1;True;6;1;76.93100384995458
198;198;1449484862;2.17017674446;0.7931465506550001;0.0691586881876;1;True;6;1;76.93100384995458
199;199;1449484862;2.17017054558;0.793438673019;0.06914605200289999;1;True;6;1;76.93100384995458
200;200;1449484862;2.17017745972;0.793136239052;0.0691075176001;1;True;6;1;76.93100384995458
201;201;1449484862;2.1703004837;0.793237030506;0.06899193674330001;1;True;6;1;76.93100384995458
202;202;1449484862;2.1702120304099997;0.7932209372519999;0.06917279958719999;1;True;6;1;76.93100384995458
203;203;1449484862;2.1700942516299997;0.793179452419;0.0691875517368;1;True;6;1;76.93100384995458
204;204;1449484862;2.17028331757;0.793119013309;0.0690141916275;1;True;6;1;76.93100384995458
205;205;1449484862;2.17021632195;0.793164372444;0.06908340007069999;1;True;6;1;76.93100384995458
206;206;1449484862;2.17008256912;0.7930814623829999;0.0691733136773;1;True;6;1;76.93100384995458
207;207;1449484862;2.17006731033;0.793114542961;0.0691104233265;1;True;6;1;76.93100384995458
208;208;1449484862;2.17009615898;0.7931076884270001;0.06921163201330001;1;True;6;1;76.93100384995458
209;209;1449484862;2.17017102242;0.793153762817;0.0691112205386;1;True;6;1;76.93100384995458
210;210;1449484862;2.1700558662400002;0.7933798432350001;0.0691319033504;1;True;6;1;76.93100384995458
211;211;1449484862;2.17013978958;0.793111503124;0.0690897554159;1;True;6;1;76.93100384995458
212;212;1449484862;2.17006397247;0.7930385470389999;0.0691619515419;1;True;6;1;76.93100384995458
213;213;1449484862;2.17027521133;0.793104052544;0.06885930895810001;1;True;6;1;76.93100384995458
214;214;1449484862;2.17025351524;0.793285012245;0.0689454898238;1;True;6;1;76.93100384995458
215;215;1449484862;2.1701729297599996;0.7929207086560001;0.06895418465139999;1;True;6;1;76.93100384995458
216;216;1449484862;2.17009091377;0.7930935621259999;0.0690908655524;1;True;6;1;76.93100384995458
217;217;1449484862;2.17023563385;0.793159127235;0.0688702762127;1;True;6;1;76.93100384995458
218;218;1449484862;2.17028164864;0.7933043837549999;0.06883928924800001;1;True;6;1;76.93100384995458
219;219;1449484862;2.17015147209;0.7930233478550001;0.0690472722054;1;True;6;1;76.93100384995458
220;220;1449484862;2.17011523247;0.7930858731270001;0.0690532326698;1;True;6;1;76.93100384995458
221;221;1449484862;2.17022895813;0.792960166931;0.0688645765185;1;True;6;1;76.93100384995458
222;222;1449484862;2.1701505184200003;0.793102145195;0.0690634474158;1;True;6;1;76.93100384995458
223;223;1449484862;2.1702423095700003;0.793218612671;0.06890994310380001;1;True;6;1;76.93100384995458
224;224;1449484862;2.1700372695900003;0.7931866049770001;0.0692498832941;1;True;6;1;76.93100384995458
225;225;1449484862;2.17028164864;0.7932206988330001;0.068798661232;1;True;6;1;76.93100384995458
226;226;1449484862;2.1701118946099998;0.793060421944;0.06898212432860001;1;True;6;1;76.93100384995458
227;227;1449484862;2.17009806633;0.7931466698649999;0.0690984800458;1;True;6;1;76.93100384995458
228;228;1449484862;2.1700899601;0.79302662611;0.06908047199249999;1;True;6;1;76.93100384995458
229;229;1449484862;2.17025232315;0.7931750416760001;0.06888779997830001;1;True;6;1;76.93100384995458
230;230;1449484862;2.17026758194;0.793273627758;0.0688192471862;1;True;6;1;76.93100384995458
231;231;1449484862;2.17024850845;0.793110013008;0.0689014196396;1;True;6;1;76.93100384995458
232;232;1449484862;2.17022705078;0.793224692345;0.0690386816859;1;True;6;1;76.93100384995458
233;233;1449484862;2.17013025284;0.793074190617;0.0689465478063;1;True;6;1;76.93100384995458
234;234;1449484862;2.1702337265000002;0.793229162693;0.0690184906125;1;True;6;1;76.93100384995458
235;235;1449484862;2.17029976845;0.79317855835;0.06885806471110001;1;True;6;1;76.93100384995458
236;236;1449484862;2.17002940178;0.793111145496;0.0690608397126;1;True;6;1;76.93100384995458
237;237;1449484862;2.17016267776;0.7930969595909999;0.0690832957625;1;True;6;1;76.93100384995458
238;238;1449484862;2.17011404037;0.7931609153749999;0.06911455094810001;1;True;6;1;76.93100384995458
239;239;1449484862;2.17022538185;0.7930784821510001;0.0691181644797;1;True;6;1;76.93100384995458
240;240;1449484862;2.1702032089200003;0.7929026484489999;0.0689179822803;1;True;6;1;76.93100384995458
241;241;1449484862;2.17019510269;0.793099343777;0.0690987706184;1;True;6;1;76.93100384995458
242;242;1449484862;2.1701843738599997;0.7931853532790001;0.0691030025482;1;True;6;1;76.93100384995458
243;243;1449484862;2.17013955116;0.793097138405;0.0691177397966;1;True;6;1;76.93100384995458
244;244;1449484862;2.17007851601;0.7930664420129999;0.0690331682563;1;True;6;1;76.93100384995458
245;245;1449484862;2.1701550483700003;0.7930696606640001;0.0690171346068;1;True;6;1;76.93100384995458
246;246;1449484862;2.17015314102;0.793263137341;0.0691924840212;1;True;6;1;76.93100384995458
247;247;1449484862;2.17011332512;0.793114364147;0.06911733746530001;1;True;6;1;76.93100384995458
248;248;1449484862;2.1700718402900003;0.793136060238;0.0691166594625;1;True;6;1;76.93100384995458
249;249;1449484862;2.1702375412;0.793294370174;0.0690575689077;1;True;6;1;76.93100384995458
250;250;1449484862;2.1701595783200003;0.793132066727;0.0690934956074;1;True;6;1;76.93100384995458
251;251;1449484862;2.1701567173;0.793157756329;0.06916687637569999;1;True;6;1;76.93100384995458
252;252;1449484862;2.1702268123599997;0.7932512760160001;0.06915885210039999;1;True;6;1;76.93100384995458
253;253;1449484862;2.1701478958099996;0.7931625247;0.069161221385;1;True;6;1;76.93100384995458
254;254;1449484862;2.1701245307900003;0.7930618524549999;0.06921450048689999;1;True;6;1;76.93100384995458
255;255;1449484862;2.17030835152;0.793292403221;0.06904935091730001;1;True;6;1;76.93100384995458
256;256;1449484862;2.17017126083;0.793149590492;0.0692202448845;1;True;6;1;76.93100384995458
257;257;1449484862;2.17018866539;0.793150544167;0.0691775530577;1;True;6;1;76.93100384995458
258;258;1449484862;2.17027711868;0.793004751205;0.0690458342433;1;True;6;1;76.93100384995458
259;259;1449484862;2.1701636314400004;0.7931293845180001;0.0691977068782;1;True;6;1;76.93100384995458
260;260;1449484862;2.17017865181;0.7931975722310001;0.0692690461874;1;True;6;1;76.93100384995458
261;261;1449484862;2.1703655719799997;0.793372809887;0.06901271641250001;1;True;6;1;76.93100384995458
262;262;1449484862;2.17016291618;0.793140113354;0.0692592561245;1;True;6;1;76.93100384995458
263;263;1449484862;2.17039775848;0.793415427208;0.0690394565463;1;True;6;1;76.93100384995458
264;264;1449484862;2.1703865528099997;0.793255209923;0.06906337291;1;True;6;1;76.93100384995458
265;265;1449484862;2.1701729297599996;0.793146729469;0.06927819550039999;1;True;6;1;76.93100384995458
266;266;1449484862;2.17032265663;0.7932247519490001;0.0691611096263;1;True;6;1;76.93100384995458
267;267;1449484862;2.17021369934;0.7931886315350001;0.06928775459530001;1;True;6;1;76.93100384995458
268;268;1449484862;2.17020177841;0.793061673641;0.0692694112659;1;True;6;1;76.93100384995458
269;269;1449484862;2.17040681839;0.7932437658310001;0.0691165626049;1;True;6;1;76.93100384995458
270;270;1449484862;2.1702761650099998;0.79316431284;0.0693497136235;1;True;6;1;76.93100384995458
271;271;1449484862;2.17028093338;0.793242990971;0.06927351653580001;1;True;6;1;76.93100384995458
272;272;1449484862;2.1702082157099998;0.7931398749349999;0.0693167597055;1;True;6;1;76.93100384995458
273;273;1449484862;2.17042589188;0.79341083765;0.0690997764468;1;True;6;1;76.93100384995458
274;274;1449484862;2.1704728603400003;0.793551266193;0.0691367313266;1;True;6;1;76.93100384995458
275;275;1449484862;2.1702032089200003;0.7932412624359999;0.0691429004073;1;True;6;1;76.93100384995458
276;276;1449484862;2.17036390305;0.793271183968;0.0692979842424;1;True;6;1;76.93100384995458
277;277;1449484862;2.17032408714;0.793022274971;0.0691900923848;1;True;6;1;76.93100384995458
278;278;1449484862;2.17043805122;0.793395221233;0.0691832005978;1;True;6;1;76.93100384995458
279;279;1449484862;2.1702413559;0.793156147003;0.0693055391312;1;True;6;1;76.93100384995458
280;280;1449484862;2.17038702965;0.793387889862;0.0691860318184;1;True;6;1;76.93100384995458
281;281;1449484862;2.17033553123;0.7929785251620001;0.06916908919810001;1;True;6;1;76.93100384995458
282;282;1449484862;2.1704285144799997;0.7934833765029999;0.0691841393709;1;True;6;1;76.93100384995458
283;283;1449484862;2.17040014267;0.7932561635969999;0.06909038126469999;1;True;6;1;76.93100384995458
284;284;1449484862;2.17039251328;0.7934349179269999;0.06916842609639999;1;True;6;1;76.93100384995458
285;285;1449484862;2.17013716698;0.7929776906970001;0.0693241283298;1;True;6;1;76.93100384995458
286;286;1449484862;2.17018771172;0.793145358562;0.0693211108446;1;True;6;1;76.93100384995458
287;287;1449484862;2.17031574249;0.7932438254359999;0.0692033171654;1;True;6;1;76.93100384995458
288;288;1449484862;2.1702113151599995;0.7932221293449999;0.0692968666553;1;True;6;1;76.93100384995458
289;289;1449484862;2.1703655719799997;0.793359816074;0.06911746412519999;1;True;6;1;76.93100384995458
290;290;1449484862;2.16998577118;0.793071508408;0.06943877786399999;1;True;6;1;76.93100384995458
291;291;1449484862;2.17026782036;0.7932064533230001;0.0692620277405;1;True;6;1;76.93100384995458
292;292;1449484862;2.17039084435;0.793212711811;0.0690756067634;1;True;6;1;76.93100384995458
293;293;1449484862;2.17031502724;0.792946279049;0.06906992197039999;1;True;6;1;76.93100384995458
294;294;1449484862;2.1702704429599997;0.793206870556;0.0692266970873;1;True;6;1;76.93100384995458
295;295;1449484862;2.17014431953;0.793028593063;0.0692542344332;1;True;6;1;76.93100384995458
296;296;1449484862;2.17039990425;0.793332695961;0.069077886641;1;True;6;1;76.93100384995458
297;297;1449484862;2.17019963264;0.793101012707;0.0691479220986;1;True;6;1;76.93100384995458
298;298;1449484862;2.1703264713299997;0.7933247089390001;0.0690594315529;1;True;6;1;76.93100384995458
299;299;1449484862;2.17032909393;0.7930205464360001;0.0689792409539;1;True;6;1;76.93100384995458
300;300;1449484862;2.17034244537;0.793369531631;0.06905032694339999;1;True;6;1;76.93100384995458
301;301;1449484862;2.170317173;0.7932576537129999;0.0690463781357;1;True;6;1;76.93100384995458
302;302;1449484862;2.17021465302;0.7930738329889999;0.06907086074350001;1;True;6;1;76.93100384995458
303;303;1449484862;2.17032527924;0.793150484562;0.0689887627959;1;True;6;1;76.93100384995458
304;304;1449484862;2.1701481342299997;0.793081820011;0.0691595077515;1;True;6;1;76.93100384995458
305;305;1449484863;2.17007875443;0.7930976152420001;0.0692393109202;2;True;6;1;76.93100384995458
306;306;1449484863;2.17021083832;0.793039619923;0.0690929219127;2;True;6;1;76.93100384995458
307;307;1449484863;2.17008376122;0.793111920357;0.069186873734;2;True;6;1;76.93100384995458
308;308;1449484863;2.170129776;0.793082118034;0.0691592171788;2;True;6;1;76.93100384995458
309;309;1449484863;2.17025613785;0.793160676956;0.0690792948008;2;True;6;1;76.93100384995458
310;310;1449484863;2.17031741142;0.7933043837549999;0.06889904290439999;2;True;6;1;76.93100384995458
311;311;1449484863;2.1702299118;0.7931051850319999;0.06902229040860001;2;True;6;1;76.93100384995458
312;312;1449484863;2.170119524;0.793058693409;0.06903512030839999;2;True;6;1;76.93100384995458
313;313;1449484863;2.17029857635;0.7931547164920001;0.06890739500519999;2;True;6;1;76.93100384995458
314;314;1449484863;2.17011737823;0.79306268692;0.0690321549773;2;True;6;1;76.93100384995458
315;315;1449484863;2.17013812065;0.7931686043739999;0.06909416615960001;2;True;6;1;76.93100384995458
316;316;1449484863;2.17011809349;0.793052792549;0.0690329447389;2;True;6;1;76.93100384995458
317;317;1449484863;2.17021393776;0.79321539402;0.06902144104239999;2;True;6;1;76.93100384995458
318;318;1449484863;2.1701204776800003;0.793168663979;0.06904122233389999;2;True;6;1;76.93100384995458
319;319;1449484863;2.17026758194;0.793173253536;0.0688946396112;2;True;6;1;76.93100384995458
320;320;1449484863;2.1701118946099998;0.7930348515510001;0.068997643888;2;True;6;1;76.93100384995458
321;321;1449484863;2.1702549457599996;0.7932515740389999;0.06893514096739999;2;True;6;1;76.93100384995458
322;322;1449484863;2.17026925087;0.793168783188;0.0688494890928;2;True;6;1;76.93100384995458
323;323;1449484863;2.17014217377;0.793171942234;0.06903669238089999;2;True;6;1;76.93100384995458
324;324;1449484863;2.17012739182;0.793145954609;0.06902484595780001;2;True;6;1;76.93100384995458
325;325;1449484863;2.1700274944299998;0.79300069809;0.0691918134689;2;True;6;1;76.93100384995458
326;326;1449484863;2.1702902316999997;0.7931684255600001;0.06886824965480001;2;True;6;1;76.93100384995458
327;327;1449484863;2.17027235031;0.793025791645;0.0688418745995;2;True;6;1;76.93100384995458
328;328;1449484863;2.17016673088;0.793110132217;0.0689906328917;2;True;6;1;76.93100384995458
329;329;1449484863;2.17019581795;0.793189466;0.0690214782953;2;True;6;1;76.93100384995458
330;330;1449484863;2.1701600551599998;0.793160378933;0.0690674111247;2;True;6;1;76.93100384995458
331;331;1449484863;2.1700336933099997;0.793084800243;0.0691406801343;2;True;6;1;76.93100384995458
332;332;1449484863;2.17006111145;0.7931451797490001;0.0691396817565;2;True;6;1;76.93100384995458
333;333;1449484863;2.17007660866;0.793095529079;0.06907545030119999;2;True;6;1;76.93100384995458
334;334;1449484863;2.17007613182;0.793126344681;0.0690709277987;2;True;6;1;76.93100384995458
335;335;1449484863;2.1702415943099997;0.7932549715039999;0.0689556524158;2;True;6;1;76.93100384995458
336;336;1449484863;2.17007279396;0.792957901955;0.06909207999710001;2;True;6;1;76.93100384995458
337;337;1449484863;2.17006015778;0.7931025624279999;0.06904426962139999;2;True;6;1;76.93100384995458
338;338;1449484863;2.1702852249099998;0.7932082414630001;0.0688941627741;2;True;6;1;76.93100384995458
339;339;1449484863;2.17028903961;0.7932281494140001;0.0688681080937;2;True;6;1;76.93100384995458
340;340;1449484863;2.1701593399;0.7931050658230001;0.0690474063158;2;True;6;1;76.93100384995458
341;341;1449484863;2.1702837944;0.79310131073;0.0688684433699;2;True;6;1;76.93100384995458
342;342;1449484863;2.1702065467800002;0.7929937243459999;0.068923138082;2;True;6;1;76.93100384995458
343;343;1449484863;2.17016410828;0.79317009449;0.069088421762;2;True;6;1;76.93100384995458
344;344;1449484863;2.17019367218;0.793169558048;0.06904974579810001;2;True;6;1;76.93100384995458
345;345;1449484863;2.17017364502;0.7932192683220001;0.0690909773111;2;True;6;1;76.93100384995458
346;346;1449484863;2.1701645851099998;0.793191969395;0.0690720751882;2;True;6;1;76.93100384995458
347;347;1449484863;2.17021012306;0.7931628227230001;0.06917725503439999;2;True;6;1;76.93100384995458
348;348;1449484863;2.1701676845599995;0.79298388958;0.069031894207;2;True;6;1;76.93100384995458
349;349;1449484863;2.17029237747;0.7930813431739999;0.06892529875039999;2;True;6;1;76.93100384995458
350;350;1449484863;2.17021012306;0.792992532253;0.0690041780472;2;True;6;1;76.93100384995458
351;351;1449484863;2.17021632195;0.7932736873630001;0.0691170617938;2;True;6;1;76.93100384995458
352;352;1449484863;2.17026925087;0.793016135693;0.0689894258976;2;True;6;1;76.93100384995458
353;353;1449484863;2.17010450363;0.7930995821950001;0.0691249072552;2;True;6;1;76.93100384995458
354;354;1449484863;2.1703362464900002;0.793346762657;0.06899303942919999;2;True;6;1;76.93100384995458
355;355;1449484863;2.1701335907;0.7931652069089999;0.06921201199289999;2;True;6;1;76.93100384995458
356;356;1449484863;2.17028737068;0.793430626392;0.0690495744348;2;True;6;1;76.93100384995458
357;357;1449484863;2.17033553123;0.793277382851;0.0689815878868;2;True;6;1;76.93100384995458
358;358;1449484863;2.17014360428;0.7931869029999999;0.0691273286939;2;True;6;1;76.93100384995458
359;359;1449484863;2.17017912865;0.792924642563;0.06904864311219999;2;True;6;1;76.93100384995458
360;360;1449484863;2.17035627365;0.793388605118;0.0689598172903;2;True;6;1;76.93100384995458
361;361;1449484863;2.17036533356;0.7934015989300001;0.0689786672592;2;True;6;1;76.93100384995458
362;362;1449484863;2.17012023926;0.793043792248;0.0692204162478;2;True;6;1;76.93100384995458
363;363;1449484863;2.17022538185;0.793219208717;0.06922632455830001;2;True;6;1;76.93100384995458
364;364;1449484863;2.1702251434299997;0.793227612972;0.0692538172007;2;True;6;1;76.93100384995458
365;365;1449484863;2.1702272892;0.793209671974;0.0691985934973;2;True;6;1;76.93100384995458
366;366;1449484863;2.17023181915;0.793234586716;0.06921096891160002;2;True;6;1;76.93100384995458
367;367;1449484863;2.17011475563;0.7931298017499999;0.0693464875221;2;True;6;1;76.93100384995458
368;368;1449484863;2.1701579093900003;0.7931869029999999;0.0692122653127;2;True;6;1;76.93100384995458
369;369;1449484863;2.17014932632;0.793072581291;0.06925408542160001;2;True;6;1;76.93100384995458
370;370;1449484863;2.17034220695;0.793122529984;0.0690105110407;2;True;6;1;76.93100384995458
371;371;1449484863;2.17030143738;0.793312132359;0.0692086219788;2;True;6;1;76.93100384995458
372;372;1449484863;2.17024731636;0.792985379696;0.0690996199846;2;True;6;1;76.93100384995458
373;373;1449484863;2.17034912109;0.793244302273;0.0690046921372;2;True;6;1;76.93100384995458
374;374;1449484863;2.1701204776800003;0.793059229851;0.0692060515285;2;True;6;1;76.93100384995458
375;375;1449484863;2.17015886307;0.7931684851649999;0.069344162941;2;True;6;1;76.93100384995458
376;376;1449484863;2.17025756836;0.793193638325;0.0692073479295;2;True;6;1;76.93100384995458
377;377;1449484863;2.17024827003;0.793127715588;0.0693289861083;2;True;6;1;76.93100384995458
378;378;1449484863;2.17024874687;0.7932057380679999;0.0692079439759;2;True;6;1;76.93100384995458
379;379;1449484863;2.1702623367299996;0.793204307556;0.0692523047328;2;True;6;1;76.93100384995458
380;380;1449484863;2.17019081116;0.793076336384;0.0692499652505;2;True;6;1;76.93100384995458
381;381;1449484863;2.17034983635;0.7932038307189999;0.0690524205565;2;True;6;1;76.93100384995458
382;382;1449484863;2.17031478882;0.793272018433;0.06913600116969999;2;True;6;1;76.93100384995458
383;383;1449484863;2.17031240463;0.793068408966;0.0690450668335;2;True;6;1;76.93100384995458
384;384;1449484863;2.17013096809;0.79307359457;0.0692241713405;2;True;6;1;76.93100384995458
385;385;1449484863;2.1701867580400003;0.7930881381029999;0.0692110359669;2;True;6;1;76.93100384995458
386;386;1449484863;2.17035484314;0.793288648129;0.06908014416689999;2;True;6;1;76.93100384995458
387;387;1449484863;2.17036390305;0.793198168278;0.0690373778343;2;True;6;1;76.93100384995458
388;388;1449484863;2.17019367218;0.793159067631;0.0692348927259;2;True;6;1;76.93100384995458
389;389;1449484863;2.17016077042;0.792947530746;0.06920589506630001;2;True;6;1;76.93100384995458
390;390;1449484863;2.17024946213;0.793058812618;0.069191545248;2;True;6;1;76.93100384995458
391;391;1449484863;2.17022228241;0.793143570423;0.06914119422439999;2;True;6;1;76.93100384995458
392;392;1449484863;2.1700897216799997;0.7930317521100001;0.0692673921585;2;True;6;1;76.93100384995458
393;393;1449484863;2.1700856685599996;0.7928637266159999;0.0692517459393;2;True;6;1;76.93100384995458
394;394;1449484863;2.1700966358200002;0.7930169105529999;0.06926441937689999;2;True;6;1;76.93100384995458
395;395;1449484863;2.17029666901;0.7931807041169999;0.069224268198;2;True;6;1;76.93100384995458
396;396;1449484863;2.17032837868;0.793312251568;0.0690536722541;2;True;6;1;76.93100384995458
397;397;1449484863;2.17013168335;0.793071508408;0.06920722126960001;2;True;6;1;76.93100384995458
398;398;1449484863;2.1702156066900002;0.7931554913519999;0.06919976323839999;2;True;6;1;76.93100384995458
399;399;1449484863;2.1701889038099997;0.7931482195849999;0.0691829398274;2;True;6;1;76.93100384995458
400;400;1449484863;2.17032051086;0.793005108833;0.0689663514495;2;True;6;1;76.93100384995458
401;401;1449484863;2.17005753517;0.7932842969889999;0.06937468051910001;2;True;6;1;76.93100384995458
402;402;1449484863;2.17022871971;0.793183684349;0.0692468583584;2;True;6;1;76.93100384995458
403;403;1449484863;2.17025876045;0.7929234504699999;0.0690317004919;2;True;6;1;76.93100384995458
404;404;1449484863;2.17012119293;0.793099999428;0.06918258219960001;2;True;6;1;76.93100384995458
405;405;1449484863;2.17033195496;0.793043076992;0.068959005177;2;True;6;1;76.93100384995458
406;406;1449484863;2.1702625751499998;0.792924523354;0.0690163522959;2;True;6;1;76.93100384995458
407;407;1449484863;2.17013454437;0.793129920959;0.06918375194069999;2;True;6;1;76.93100384995458
408;408;1449484863;2.17032527924;0.7930276989939999;0.0689719244838;2;True;6;1;76.93100384995458
409;409;1449484863;2.17008590698;0.792855978012;0.0691962614655;2;True;6;1;76.93100384995458
410;410;1449484863;2.17018961906;0.793091356754;0.0691815018654;2;True;6;1;76.93100384995458
411;411;1449484863;2.1701259613;0.7931087613109999;0.0692068710923;2;True;6;1;76.93100384995458
412;412;1449484863;2.17008805275;0.792882859707;0.0691825896502;2;True;6;1;76.93100384995458
413;413;1449484863;2.17013239861;0.7930922508239999;0.0691482573748;2;True;6;1;76.93100384995458
414;414;1449484863;2.1703073978400003;0.793193101883;0.0691546350718;2;True;6;1;76.93100384995458
415;415;1449484863;2.17018651962;0.793140172958;0.0692569091916;2;True;6;1;76.93100384995458
416;416;1449484863;2.17029571533;0.7931970357889999;0.06917040795089999;2;True;6;1;76.93100384995458
417;417;1449484863;2.17014622688;0.793122529984;0.06929256767030001;2;True;6;1;76.93100384995458
418;418;1449484863;2.1703243255599998;0.793085157871;0.0689362213016;2;True;6;1;76.93100384995458
419;419;1449484863;2.17013216019;0.7930443286900001;0.0691890046;2;True;6;1;76.93100384995458
420;420;1449484863;2.17029070854;0.79315495491;0.06920215487480001;2;True;6;1;76.93100384995458
421;421;1449484863;2.17010951042;0.793120920658;0.0691927149892;2;True;6;1;76.93100384995458
422;422;1449484863;2.1701838970200003;0.7930677533149999;0.0691139996052;2;True;6;1;76.93100384995458
423;423;1449484863;2.1703197956099998;0.793339967728;0.0690298080444;2;True;6;1;76.93100384995458
424;424;1449484863;2.17009139061;0.7929881215100001;0.06916561722760001;2;True;6;1;76.93100384995458
425;425;1449484863;2.17036581039;0.793218910694;0.0689402222633;2;True;6;1;76.93100384995458
426;426;1449484863;2.17017674446;0.793112039566;0.06917031854389999;2;True;6;1;76.93100384995458
427;427;1449484863;2.17011475563;0.793015778065;0.0691586881876;2;True;6;1;76.93100384995458
428;428;1449484863;2.17023468018;0.7931710481640001;0.06915370374919999;2;True;6;1;76.93100384995458
429;429;1449484863;2.1703464984900003;0.793219685555;0.0689631775022;2;True;6;1;76.93100384995458
430;430;1449484863;2.1702246666;0.7929509878159999;0.06902550905939998;2;True;6;1;76.93100384995458
431;431;1449484863;2.17012500763;0.793116569519;0.0691726654768;2;True;6;1;76.93100384995458
432;432;1449484863;2.1702623367299996;0.792951822281;0.06899441778660001;2;True;6;1;76.93100384995458
433;433;1449484863;2.1701564788799996;0.793130338192;0.0691559687257;2;True;6;1;76.93100384995458
434;434;1449484863;2.17011928558;0.7931197881700001;0.069172129035;2;True;6;1;76.93100384995458
435;435;1449484863;2.17028570175;0.793001532555;0.0689836367965;2;True;6;1;76.93100384995458
436;436;1449484863;2.170109272;0.7931342720990001;0.0691366046667;2;True;6;1;76.93100384995458
437;437;1449484863;2.17034339905;0.793220102787;0.0689555034041;2;True;6;1;76.93100384995458
438;438;1449484863;2.1700904369400003;0.793019592762;0.0691212564707;2;True;6;1;76.93100384995458
439;439;1449484863;2.17033958435;0.793256223202;0.06893473118539999;2;True;6;1;76.93100384995458
440;440;1449484863;2.1700577735900004;0.793177068233;0.06907452642919999;2;True;6;1;76.93100384995458
441;441;1449484863;2.17033982277;0.793367266655;0.0689254552126;2;True;6;1;76.93100384995458
442;442;1449484863;2.17007660866;0.793049991131;0.0691806301475;2;True;6;1;76.93100384995458
443;443;1449484863;2.17034482956;0.7933767437929999;0.06895396858450001;2;True;6;1;76.93100384995458
444;444;1449484863;2.1701357364700002;0.79317265749;0.0691936016083;2;True;6;1;76.93100384995458
445;445;1449484863;2.17032933235;0.793243050575;0.0689331516623;2;True;6;1;76.93100384995458
446;446;1449484863;2.1700665950799998;0.793103456497;0.06919370591639999;2;True;6;1;76.93100384995458
447;447;1449484863;2.17011833191;0.793089866638;0.06920601427560001;2;True;6;1;76.93100384995458
448;448;1449484863;2.17011260986;0.793147623539;0.0691821649671;2;True;6;1;76.93100384995458
449;449;1449484863;2.17010879517;0.7931052446369999;0.06916102021930001;2;True;6;1;76.93100384995458
450;450;1449484863;2.1702983379400003;0.793203234673;0.0691844150424;2;True;6;1;76.93100384995458
451;451;1449484863;2.17033433914;0.793267786503;0.06894913315769999;2;True;6;1;76.93100384995458
452;452;1449484863;2.17014241219;0.793142735958;0.0691204071045;2;True;6;1;76.93100384995458
453;453;1449484863;2.17008066177;0.793091416359;0.06917080283160001;2;True;6;1;76.93100384995458
454;454;1449484863;2.1703414917;0.793219923973;0.0689448565245;2;True;6;1;76.93100384995458
455;455;1449484863;2.1702392101299997;0.7930113077159999;0.0689573809505;2;True;6;1;76.93100384995458
456;456;1449484863;2.1701333522799997;0.7931744456290001;0.06912488490339999;2;True;6;1;76.93100384995458
457;457;1449484863;2.17023229599;0.793244898319;0.06910753995180001;2;True;6;1;76.93100384995458
458;458;1449484863;2.17011237144;0.7931452989579999;0.06913583725689999;2;True;6;1;76.93100384995458
459;459;1449484863;2.17019057274;0.7932427525519999;0.06909841299060002;2;True;6;1;76.93100384995458
460;460;1449484863;2.17017889023;0.793058991432;0.06910341978069999;2;True;6;1;76.93100384995458
461;461;1449484863;2.1702399253799998;0.7931057810780001;0.0690373927355;2;True;6;1;76.93100384995458
462;462;1449484863;2.17032003403;0.793192446232;0.0689321383834;2;True;6;1;76.93100384995458
463;463;1449484863;2.1700925827;0.793131828308;0.0692220255733;2;True;6;1;76.93100384995458
464;464;1449484863;2.17015838623;0.793110311031;0.06913273781539998;2;True;6;1;76.93100384995458
465;465;1449484863;2.17019224167;0.793124198914;0.0690030008554;2;True;6;1;76.93100384995458
466;466;1449484863;2.17018651962;0.793170154095;0.0691569596529;2;True;6;1;76.93100384995458
467;467;1449484863;2.1701724529299997;0.7931283712389999;0.0690700337291;2;True;6;1;76.93100384995458
468;468;1449484863;2.1703248024;0.793346822262;0.06892064958810001;2;True;6;1;76.93100384995458
469;469;1449484863;2.17026782036;0.793261408806;0.0690144449472;2;True;6;1;76.93100384995458
470;470;1449484863;2.17017054558;0.793137669563;0.06907552480700001;2;True;6;1;76.93100384995458
471;471;1449484863;2.17012834549;0.793133556843;0.06913071125749999;2;True;6;1;76.93100384995458
472;472;1449484863;2.17019224167;0.793447196484;0.0691323578358;2;True;6;1;76.93100384995458
473;473;1449484863;2.1702170372;0.793481349945;0.0691490024328;2;True;6;1;76.93100384995458
474;474;1449484863;2.17031931877;0.7930628657340001;0.0689007267356;2;True;6;1;76.93100384995458
475;475;1449484863;2.1702876091;0.793199360371;0.0691361129284;2;True;6;1;76.93100384995458
476;476;1449484863;2.17028617859;0.7929911017419999;0.0689420700073;2;True;6;1;76.93100384995458
477;477;1449484863;2.170170784;0.7932371497149999;0.0691534727812;2;True;6;1;76.93100384995458
478;478;1449484863;2.17024564743;0.79324901104;0.06910265237089999;2;True;6;1;76.93100384995458
479;479;1449484863;2.17009067535;0.7931377887729999;0.0692111477256;2;True;6;1;76.93100384995458
480;480;1449484863;2.1700513362900002;0.793133735657;0.0692163780332;2;True;6;1;76.93100384995458
481;481;1449484863;2.1701364517200004;0.793086111546;0.0691513121128;2;True;6;1;76.93100384995458
482;482;1449484863;2.17019915581;0.7931851148610001;0.069159373641;2;True;6;1;76.93100384995458
483;483;1449484863;2.17032575607;0.7930657267569999;0.0689042508602;2;True;6;1;76.93100384995458
484;484;1449484863;2.17014217377;0.7931231856350001;0.06922753900289999;2;True;6;1;76.93100384995458
485;485;1449484863;2.1701011657700002;0.7930777668950001;0.06917563080789998;2;True;6;1;76.93100384995458
486;486;1449484863;2.17015314102;0.793132245541;0.0691658705473;2;True;6;1;76.93100384995458
487;487;1449484863;2.17012834549;0.793100714684;0.0691098570824;2;True;6;1;76.93100384995458
488;488;1449484863;2.17025256157;0.792916357517;0.0689929053187;2;True;6;1;76.93100384995458
489;489;1449484863;2.17003941536;0.7930057644840001;0.06921949237589999;2;True;6;1;76.93100384995458
490;490;1449484863;2.17020964622;0.7931893467899999;0.0691537633538;2;True;6;1;76.93100384995458
491;491;1449484863;2.17007613182;0.792816162109;0.0691780373454;2;True;6;1;76.93100384995458
492;492;1449484863;2.1701550483700003;0.79312813282;0.06935134530069999;2;True;6;1;76.93100384995458
493;493;1449484863;2.170140028;0.793068766594;0.0691640526056;2;True;6;1;76.93100384995458
494;494;1449484863;2.17010450363;0.792943656445;0.0691698417068;2;True;6;1;76.93100384995458
495;495;1449484863;2.17031478882;0.793155252934;0.0690030306578;2;True;6;1;76.93100384995458
496;496;1449484863;2.17012572289;0.793187081814;0.0692057535052;2;True;6;1;76.93100384995458
497;497;1449484863;2.1702468395200003;0.7931566238400001;0.06912801414730001;2;True;6;1;76.93100384995458
498;498;1449484863;2.17018198967;0.7931289672849999;0.0691898912191;2;True;6;1;76.93100384995458
499;499;1449484863;2.1701426506;0.793101131916;0.0693073272705;2;True;6;1;76.93100384995458
500;500;1449484863;2.17013692856;0.793033778667;0.06921758502719999;2;True;6;1;76.93100384995458
501;501;1449484863;2.1702306270599996;0.793117642403;0.0690876692533;2;True;6;1;76.93100384995458
502;502;1449484863;2.17035865784;0.7933021783830001;0.06897448003289999;2;True;6;1;76.93100384995458
503;503;1449484863;2.17036390305;0.793180048466;0.0690025091171;2;True;6;1;76.93100384995458
504;504;1449484863;2.17012023926;0.793058633804;0.0693220794201;2;True;6;1;76.93100384995458
505;505;1449484863;2.17012405396;0.793102145195;0.0692282542586;2;True;6;1;76.93100384995458
506;506;1449484863;2.17037415504;0.793324768543;0.06900200992819999;2;True;6;1;76.93100384995458
507;507;1449484863;2.17031478882;0.7931585907940001;0.06924695521589999;2;True;6;1;76.93100384995458
508;508;1449484863;2.17019248009;0.793182790279;0.0691801384091;2;True;6;1;76.93100384995458
509;509;1449484863;2.17014551163;0.793061375618;0.0693625360727;2;True;6;1;76.93100384995458
510;510;1449484863;2.17037320137;0.793262720108;0.0690855756402;2;True;6;1;76.93100384995458
511;511;1449484863;2.17020893097;0.793144285679;0.0692602396011;2;True;6;1;76.93100384995458
512;512;1449484863;2.17016100883;0.792928576469;0.0692186951637;2;True;6;1;76.93100384995458
513;513;1449484863;2.17019581795;0.793131411076;0.0692502632737;2;True;6;1;76.93100384995458
514;514;1449484863;2.17024421692;0.7930722832680001;0.06925159692760001;2;True;6;1;76.93100384995458
515;515;1449484863;2.1701674461400002;0.792891681194;0.0692359507084;2;True;6;1;76.93100384995458
516;516;1449484863;2.17026042938;0.7931513786319999;0.0692398250103;2;True;6;1;76.93100384995458
517;517;1449484863;2.17026162148;0.793089926243;0.0692639797926;2;True;6;1;76.93100384995458
518;518;1449484863;2.17039513588;0.793348550797;0.0691261589527;2;True;6;1;76.93100384995458
519;519;1449484863;2.17027211189;0.793145477772;0.0693627148867;2;True;6;1;76.93100384995458
520;520;1449484863;2.17027544975;0.793028175831;0.0692594572902;2;True;6;1;76.93100384995458
521;521;1449484863;2.1701769828799997;0.79305768013;0.0692677795887;2;True;6;1;76.93100384995458
522;522;1449484863;2.17027783394;0.793104350567;0.069183409214;2;True;6;1;76.93100384995458
523;523;1449484863;2.17043280602;0.793326795101;0.0691016167402;2;True;6;1;76.93100384995458
524;524;1449484863;2.1704473495500003;0.7934833765029999;0.0690957084298;2;True;6;1;76.93100384995458
525;525;1449484863;2.1702642440799997;0.793157219887;0.0692613646388;2;True;6;1;76.93100384995458
526;526;1449484863;2.17038583755;0.793047130108;0.0690483525395;2;True;6;1;76.93100384995458
527;527;1449484863;2.17020988464;0.7931721210480001;0.0692777186632;2;True;6;1;76.93100384995458
528;528;1449484863;2.17029261589;0.793216347694;0.0692409873009;2;True;6;1;76.93100384995458
529;529;1449484863;2.17020511627;0.7930982112880001;0.06924169510599999;2;True;6;1;76.93100384995458
530;530;1449484863;2.1702859401700003;0.793228626251;0.0692377462983;2;True;6;1;76.93100384995458
531;531;1449484863;2.17035055161;0.793331980705;0.06918571889399999;2;True;6;1;76.93100384995458
532;532;1449484863;2.17021346092;0.793158054352;0.0692599341273;2;True;6;1;76.93100384995458
533;533;1449484863;2.17040491104;0.7933608889579999;0.06902399659160001;2;True;6;1;76.93100384995458
534;534;1449484863;2.1701977253;0.7931078672409999;0.06929919123650001;2;True;6;1;76.93100384995458
535;535;1449484863;2.17037963867;0.793346107006;0.0690696388483;2;True;6;1;76.93100384995458
536;536;1449484863;2.1702413559;0.7931681275370001;0.06923675537110001;2;True;6;1;76.93100384995458
537;537;1449484863;2.17040419579;0.7933997511859999;0.06899219006299999;2;True;6;1;76.93100384995458
538;538;1449484863;2.1703619957;0.7932175397869999;0.06902775913480001;2;True;6;1;76.93100384995458
539;539;1449484863;2.17035722733;0.7932766675949999;0.06902994215489999;2;True;6;1;76.93100384995458
540;540;1449484863;2.17036986351;0.7931041717530001;0.068998709321;2;True;6;1;76.93100384995458
541;541;1449484863;2.17033553123;0.793067514896;0.0689811483026;2;True;6;1;76.93100384995458
542;542;1449484863;2.17021965981;0.7929553985600001;0.0690895691514;2;True;6;1;76.93100384995458
543;543;1449484863;2.17018508911;0.793133318424;0.0691807195544;2;True;6;1;76.93100384995458
544;544;1449484864;2.17020487785;0.793225884438;0.0691837072372;3;True;6;1;76.93100384995458
545;545;1449484864;2.1703865528099997;0.7933954596520001;0.0689528137445;3;True;6;1;76.93100384995458
546;546;1449484864;2.17023324966;0.793099284172;0.0691262483597;3;True;6;1;76.93100384995458
547;547;1449484864;2.1703133583099996;0.793319702148;0.0691384747624;3;True;6;1;76.93100384995458
548;548;1449484864;2.1701550483700003;0.7931553125380001;0.069072432816;3;True;6;1;76.93100384995458
549;549;1449484864;2.17017102242;0.793189466;0.0691304802895;3;True;6;1;76.93100384995458
550;550;1449484864;2.17014503479;0.793153822422;0.0691229477525;3;True;6;1;76.93100384995458
551;551;1449484864;2.17037272453;0.7934463620190001;0.06891211867330001;3;True;6;1;76.93100384995458
552;552;1449484864;2.17015624046;0.793231904507;0.0691672414541;3;True;6;1;76.93100384995458
553;553;1449484864;2.17006611824;0.7931107878679999;0.069174028933;3;True;6;1;76.93100384995458
554;554;1449484864;2.1702439785;0.793270111084;0.0691025480628;3;True;6;1;76.93100384995458
555;555;1449484864;2.17017626762;0.793171823025;0.06914575397969999;3;True;6;1;76.93100384995458
556;556;1449484864;2.1701724529299997;0.7931677103039999;0.0690919011831;3;True;6;1;76.93100384995458
557;557;1449484864;2.1703383922599997;0.7933689951899999;0.0688857361674;3;True;6;1;76.93100384995458
558;558;1449484864;2.1701254844699998;0.7931078076360001;0.0691210702062;3;True;6;1;76.93100384995458
559;559;1449484864;2.17010188103;0.79292589426;0.0691482052207;3;True;6;1;76.93100384995458
560;560;1449484864;2.17010450363;0.793233454227;0.0690506324172;3;True;6;1;76.93100384995458
561;561;1449484864;2.17024421692;0.793201267719;0.06907438486810001;3;True;6;1;76.93100384995458
562;562;1449484864;2.1703021526299997;0.793031930923;0.0688855648041;3;True;6;1;76.93100384995458
563;563;1449484864;2.17024469376;0.7931602001189999;0.06905722618099999;3;True;6;1;76.93100384995458
564;564;1449484864;2.1701207160900005;0.7930991649629999;0.0690678134561;3;True;6;1;76.93100384995458
565;565;1449484864;2.17017602921;0.7931628227230001;0.06909325718880001;3;True;6;1;76.93100384995458
566;566;1449484864;2.1701598167400005;0.793145358562;0.0690279603004;3;True;6;1;76.93100384995458
567;567;1449484864;2.1700897216799997;0.793148815632;0.0690538883209;3;True;6;1;76.93100384995458
568;568;1449484864;2.1700968742400004;0.793118417263;0.06901727616789999;3;True;6;1;76.93100384995458
569;569;1449484864;2.1700823307;0.7930882573129999;0.0690584853292;3;True;6;1;76.93100384995458
570;570;1449484864;2.17008852959;0.7931311130519999;0.0690385326743;3;True;6;1;76.93100384995458
571;571;1449484864;2.1700711250299998;0.79304176569;0.0691071078181;3;True;6;1;76.93100384995458
572;572;1449484864;2.17025756836;0.7930334210400001;0.0688343122602;3;True;6;1;76.93100384995458
573;573;1449484864;2.17009472847;0.793123543262;0.0691040381789;3;True;6;1;76.93100384995458
574;574;1449484864;2.1702656745900004;0.7932022213940001;0.06886430829760001;3;True;6;1;76.93100384995458
575;575;1449484864;2.16999697685;0.7928160429000001;0.0690822228789;3;True;6;1;76.93100384995458
576;576;1449484864;2.1700677871700003;0.79297888279;0.06902041286230001;3;True;6;1;76.93100384995458
577;577;1449484864;2.17000985146;0.793047904968;0.0691059231758;3;True;6;1;76.93100384995458
578;578;1449484864;2.1702785491900003;0.79316419363;0.06886374950410001;3;True;6;1;76.93100384995458
579;579;1449484864;2.17024922371;0.7931799292560001;0.06887752562760001;3;True;6;1;76.93100384995458
580;580;1449484864;2.17005896568;0.7930983901019999;0.0690769702196;3;True;6;1;76.93100384995458
581;581;1449484864;2.17016339302;0.793131172657;0.068986363709;3;True;6;1;76.93100384995458
582;582;1449484864;2.1701452732099997;0.793090164661;0.068999402225;3;True;6;1;76.93100384995458
583;583;1449484864;2.1702666282700003;0.7930324077609999;0.06884430348869999;3;True;6;1;76.93100384995458
584;584;1449484864;2.1702623367299996;0.793317615986;0.06892323493960001;3;True;6;1;76.93100384995458
585;585;1449484864;2.17008543015;0.7930587530140001;0.06902939081189999;3;True;6;1;76.93100384995458
586;586;1449484864;2.1701505184200003;0.793061256409;0.06916850060219999;3;True;6;1;76.93100384995458
587;587;1449484864;2.1701793670700003;0.792908906937;0.0689381957054;3;True;6;1;76.93100384995458
588;588;1449484864;2.1702947616599997;0.793386220932;0.06887279450889999;3;True;6;1;76.93100384995458
589;589;1449484864;2.1700477600099997;0.792957663536;0.06910225003960001;3;True;6;1;76.93100384995458
590;590;1449484864;2.17017459869;0.793143451214;0.06906464695930001;3;True;6;1;76.93100384995458
591;591;1449484864;2.1701378822299997;0.793067991734;0.06902518123389999;3;True;6;1;76.93100384995458
592;592;1449484864;2.1702761650099998;0.7931430339810001;0.06890252977610001;3;True;6;1;76.93100384995458
593;593;1449484864;2.17003059387;0.793170750141;0.0691010057926;3;True;6;1;76.93100384995458
594;594;1449484864;2.1703021526299997;0.793162584305;0.0689054355025;3;True;6;1;76.93100384995458
595;595;1449484864;2.1701939106;0.793155372143;0.0691066980362;3;True;6;1;76.93100384995458
596;596;1449484864;2.1700720787;0.793046712875;0.0691674798727;3;True;6;1;76.93100384995458
597;597;1449484864;2.17012834549;0.793142437935;0.0691429376602;3;True;6;1;76.93100384995458
598;598;1449484864;2.17009925842;0.793127954006;0.06913845241069999;3;True;6;1;76.93100384995458
599;599;1449484864;2.1703264713299997;0.7933736443520001;0.0689297690988;3;True;6;1;76.93100384995458
600;600;1449484864;2.17007660866;0.7929764986040001;0.0691933259368;3;True;6;1;76.93100384995458
601;601;1449484864;2.16999983788;0.793256223202;0.0693305581808;3;True;6;1;76.93100384995458
602;602;1449484864;2.17006444931;0.792966842651;0.0692226663232;3;True;6;1;76.93100384995458
603;603;1449484864;2.17030882835;0.7930297255519999;0.0689653456211;3;True;6;1;76.93100384995458
604;604;1449484864;2.1701319217700004;0.7931544184679999;0.0692131817341;3;True;6;1;76.93100384995458
605;605;1449484864;2.17021894455;0.793170571327;0.0691683366895;3;True;6;1;76.93100384995458
606;606;1449484864;2.1701714992500003;0.7930876612659999;0.06916433572769999;3;True;6;1;76.93100384995458
607;607;1449484864;2.17012763023;0.793049395084;0.0691575929523;3;True;6;1;76.93100384995458
608;608;1449484864;2.17014145851;0.793077528477;0.0693482086062;3;True;6;1;76.93100384995458
609;609;1449484864;2.17031049728;0.792992770672;0.0690260902047;3;True;6;1;76.93100384995458
610;610;1449484864;2.17031908035;0.7932791113850001;0.06906516849989999;3;True;6;1;76.93100384995458
611;611;1449484864;2.17024326324;0.793182611465;0.0692219436169;3;True;6;1;76.93100384995458
612;612;1449484864;2.17013692856;0.793109953403;0.0693499743938;3;True;6;1;76.93100384995458
613;613;1449484864;2.17028403282;0.793139815331;0.0692620426416;3;True;6;1;76.93100384995458
