;Unnamed: 0;header_stamp_secs;pose_position_x;pose_position_y;pose_position_z;seconds;drop_values;flight_number;label;dtw
0;0;1449484994;2.1279292106599996;0.794573366642;0.0687039941549;0;True;7;1;78.06677857041421
1;1;1449484994;2.12791895866;0.79470795393;0.06874173879619999;0;True;7;1;78.06677857041421
2;2;1449484994;2.1279435157799997;0.794770896435;0.0687538161874;0;True;7;1;78.06677857041421
3;3;1449484994;2.12792062759;0.794692099094;0.0688178688288;0;True;7;1;78.06677857041421
4;4;1449484994;2.12789297104;0.7945736050609999;0.0687985271215;0;True;7;1;78.06677857041421
5;5;1449484994;2.12795853615;0.794662058353;0.068769082427;0;True;7;1;78.06677857041421
6;6;1449484994;2.12793588638;0.794709742069;0.0687712952495;0;True;7;1;78.06677857041421
7;7;1449484994;2.1279668808000003;0.7946965098379999;0.06877137720580001;0;True;7;1;78.06677857041421
8;8;1449484994;2.12791323662;0.79463660717;0.06885851919649999;0;True;7;1;78.06677857041421
9;9;1449484994;2.1279399395;0.794631481171;0.0688240230083;0;True;7;1;78.06677857041421
10;10;1449484994;2.12798070908;0.794691324234;0.0687561929226;0;True;7;1;78.06677857041421
11;11;1449484994;2.12796425819;0.79479432106;0.0688316449523;0;True;7;1;78.06677857041421
12;12;1449484994;2.12787938118;0.794683337212;0.0688186511397;0;True;7;1;78.06677857041421
13;13;1449484994;2.12799358368;0.794850945473;0.068746894598;0;True;7;1;78.06677857041421
14;14;1449484994;2.12793827057;0.794661045074;0.0688100233674;0;True;7;1;78.06677857041421
15;15;1449484994;2.12802386284;0.794604361057;0.0687426701188;0;True;7;1;78.06677857041421
16;16;1449484994;2.12787938118;0.7946066260340001;0.0688814818859;0;True;7;1;78.06677857041421
17;17;1449484994;2.12796163559;0.794757783413;0.0688526928425;0;True;7;1;78.06677857041421
18;18;1449484994;2.12792134285;0.794659554958;0.06889607012269999;0;True;7;1;78.06677857041421
19;19;1449484994;2.12792658806;0.794642806053;0.06881538033489999;0;True;7;1;78.06677857041421
20;20;1449484994;2.12797498703;0.7947121858600001;0.0688230767846;0;True;7;1;78.06677857041421
21;21;1449484994;2.12795805931;0.7947236895559999;0.06886536628010001;0;True;7;1;78.06677857041421
22;22;1449484994;2.12797284126;0.794925391674;0.06868222355840001;0;True;7;1;78.06677857041421
23;23;1449484994;2.12795090675;0.7947575449940001;0.06877078861000001;0;True;7;1;78.06677857041421
24;24;1449484994;2.12795376778;0.794734835625;0.068763166666;0;True;7;1;78.06677857041421
25;25;1449484994;2.1279232502000003;0.7946408390999999;0.0688384100795;0;True;7;1;78.06677857041421
26;26;1449484994;2.12796258926;0.794719040394;0.0687572956085;0;True;7;1;78.06677857041421
27;27;1449484994;2.12787675858;0.794807493687;0.0687248259783;0;True;7;1;78.06677857041421
28;28;1449484994;2.1279630661;0.794691741467;0.068787060678;0;True;7;1;78.06677857041421
29;29;1449484994;2.1278433799700003;0.794870853424;0.0688159093261;0;True;7;1;78.06677857041421
30;30;1449484994;2.1279475688900003;0.7946891784669999;0.0687687620521;0;True;7;1;78.06677857041421
31;31;1449484994;2.1279399395;0.794890403748;0.0687003284693;0;True;7;1;78.06677857041421
32;32;1449484994;2.1279425621;0.79466176033;0.068802036345;0;True;7;1;78.06677857041421
33;33;1449484994;2.1279275417299996;0.7946263551710001;0.06878555566069999;0;True;7;1;78.06677857041421
34;34;1449484994;2.12796854973;0.7948426604269999;0.0687326714396;0;True;7;1;78.06677857041421
35;35;1449484994;2.12795376778;0.7945882678030001;0.068710885942;0;True;7;1;78.06677857041421
36;36;1449484994;2.12796092033;0.7947909832;0.068724617362;0;True;7;1;78.06677857041421
37;37;1449484994;2.12787938118;0.794466376305;0.0687219053507;0;True;7;1;78.06677857041421
38;38;1449484994;2.1279346942900004;0.794797956944;0.0688167363405;0;True;7;1;78.06677857041421
39;39;1449484994;2.12788319588;0.794476091862;0.0687109231949;0;True;7;1;78.06677857041421
40;40;1449484994;2.12791085243;0.794737398624;0.0688140243292;0;True;7;1;78.06677857041421
41;41;1449484994;2.12787556648;0.794464945793;0.0686967819929;0;True;7;1;78.06677857041421
42;42;1449484994;2.12792158127;0.794658362865;0.0687617361546;0;True;7;1;78.06677857041421
43;43;1449484994;2.1279156208;0.7946318387989999;0.0686960965395;0;True;7;1;78.06677857041421
44;44;1449484994;2.1278958320599997;0.794591009617;0.06880186498169999;0;True;7;1;78.06677857041421
45;45;1449484994;2.12793517113;0.7946699857709999;0.068702571094;0;True;7;1;78.06677857041421
46;46;1449484994;2.12794733047;0.7948413491249999;0.0686996132135;0;True;7;1;78.06677857041421
47;47;1449484994;2.1278851032299997;0.794575214386;0.0687592104077;0;True;7;1;78.06677857041421
48;48;1449484994;2.12791776657;0.7945836186409999;0.0686576962471;0;True;7;1;78.06677857041421
49;49;1449484994;2.1279637813599996;0.794761896133;0.0687730759382;0;True;7;1;78.06677857041421
50;50;1449484994;2.12790346146;0.794743061066;0.0687183141708;0;True;7;1;78.06677857041421
51;51;1449484994;2.12789988518;0.7945679426189999;0.0686610862613;0;True;7;1;78.06677857041421
52;52;1449484994;2.12789463997;0.794645726681;0.0687298327684;0;True;7;1;78.06677857041421
53;53;1449484994;2.1279528141;0.79467010498;0.0686259567738;0;True;7;1;78.06677857041421
54;54;1449484994;2.12789463997;0.7946005463600001;0.0686823278666;0;True;7;1;78.06677857041421
55;55;1449484994;2.1278219223;0.7945353984829999;0.06879976391789999;0;True;7;1;78.06677857041421
56;56;1449484994;2.12791109085;0.794601023197;0.0686129629612;0;True;7;1;78.06677857041421
57;57;1449484994;2.12792801857;0.794753491879;0.06870742887260001;0;True;7;1;78.06677857041421
58;58;1449484994;2.12792158127;0.7947316169740001;0.0687218531966;0;True;7;1;78.06677857041421
59;59;1449484994;2.12790083885;0.794833242893;0.0686017498374;0;True;7;1;78.06677857041421
60;60;1449484994;2.12791657448;0.7946338653560001;0.0686233341694;0;True;7;1;78.06677857041421
61;61;1449484994;2.1278758049;0.7946514487270001;0.0686550959945;0;True;7;1;78.06677857041421
62;62;1449484994;2.1278553009;0.794687211514;0.068696051836;0;True;7;1;78.06677857041421
63;63;1449484994;2.1279101371799998;0.794687271118;0.0686344727874;0;True;7;1;78.06677857041421
64;64;1449484994;2.12795758247;0.794581949711;0.0686544179916;0;True;7;1;78.06677857041421
65;65;1449484994;2.1279115676900004;0.794701635838;0.0686837956309;0;True;7;1;78.06677857041421
66;66;1449484994;2.1278963089;0.794685721397;0.06856115907430001;0;True;7;1;78.06677857041421
67;67;1449484994;2.12791061401;0.7946879863740001;0.0686242207885;0;True;7;1;78.06677857041421
68;68;1449484994;2.12789034843;0.794682443142;0.0686238259077;0;True;7;1;78.06677857041421
69;69;1449484994;2.1278910636900004;0.794668257236;0.06869135051969999;0;True;7;1;78.06677857041421
70;70;1449484994;2.1278433799700003;0.794583797455;0.0687137246132;0;True;7;1;78.06677857041421
71;71;1449484994;2.12787604332;0.794739603996;0.06872900575400001;0;True;7;1;78.06677857041421
72;72;1449484994;2.1279399395;0.794813513756;0.0686943084002;0;True;7;1;78.06677857041421
73;73;1449484994;2.12792134285;0.794738948345;0.0686412230134;0;True;7;1;78.06677857041421
74;74;1449484994;2.1279270649;0.7948134541509999;0.0685444921255;0;True;7;1;78.06677857041421
75;75;1449484994;2.1277818679799996;0.79465341568;0.0687878355384;0;True;7;1;78.06677857041421
76;76;1449484994;2.1278810501099996;0.7947316169740001;0.0686440318823;0;True;7;1;78.06677857041421
77;77;1449484994;2.12789177895;0.794720411301;0.0685797333717;0;True;7;1;78.06677857041421
78;78;1449484994;2.12788748741;0.794693827629;0.0685979127884;0;True;7;1;78.06677857041421
79;79;1449484994;2.12787413597;0.7947584390639999;0.0687132403255;0;True;7;1;78.06677857041421
80;80;1449484994;2.12792181969;0.79477006197;0.06866625696419999;0;True;7;1;78.06677857041421
81;81;1449484994;2.12785768509;0.7945386767389999;0.0686032176018;0;True;7;1;78.06677857041421
82;82;1449484994;2.1278188228599997;0.794465720654;0.0686303153634;0;True;7;1;78.06677857041421
83;83;1449484994;2.12789845467;0.794634699821;0.0685757920146;0;True;7;1;78.06677857041421
84;84;1449484994;2.1279582977300002;0.794744312763;0.0686762928963;0;True;7;1;78.06677857041421
85;85;1449484994;2.1277387142200004;0.794720590115;0.0686583742499;0;True;7;1;78.06677857041421
86;86;1449484994;2.12785935402;0.7946671843529999;0.0687276870012;0;True;7;1;78.06677857041421
87;87;1449484994;2.12787008286;0.7946862578389999;0.068725682795;0;True;7;1;78.06677857041421
88;88;1449484994;2.1278603076900002;0.794496238232;0.0686925277114;0;True;7;1;78.06677857041421
89;89;1449484994;2.12788653374;0.794653892517;0.0686828270555;0;True;7;1;78.06677857041421
90;90;1449484994;2.12799263;0.7946773171420001;0.0686282217503;0;True;7;1;78.06677857041421
91;91;1449484994;2.127815485;0.7946266531939999;0.0687269344926;0;True;7;1;78.06677857041421
92;92;1449484994;2.12788176537;0.7946640849109999;0.0687587037683;0;True;7;1;78.06677857041421
93;93;1449484994;2.12783908844;0.794832229614;0.0685841441154;0;True;7;1;78.06677857041421
94;94;1449484994;2.12792134285;0.794708311558;0.068584382534;0;True;7;1;78.06677857041421
95;95;1449484994;2.12782073021;0.7947111129760001;0.0687984526157;0;True;7;1;78.06677857041421
96;96;1449484994;2.12788486481;0.7946209311489999;0.0687531903386;0;True;7;1;78.06677857041421
97;97;1449484994;2.12785029411;0.79467779398;0.0687397271395;0;True;7;1;78.06677857041421
98;98;1449484994;2.1278758049;0.794579803944;0.06877558678389999;0;True;7;1;78.06677857041421
99;99;1449484994;2.1278808116900003;0.794589579105;0.068769082427;0;True;7;1;78.06677857041421
100;100;1449484994;2.1279706955;0.794730365276;0.0686708688736;0;True;7;1;78.06677857041421
101;101;1449484994;2.12795639038;0.7947281003;0.0687135905027;0;True;7;1;78.06677857041421
102;102;1449484994;2.12795233727;0.79467779398;0.0686865225434;0;True;7;1;78.06677857041421
103;103;1449484994;2.12797617912;0.7946929335590001;0.0686386376619;0;True;7;1;78.06677857041421
104;104;1449484994;2.1279551982900005;0.794664144516;0.068695358932;0;True;7;1;78.06677857041421
105;105;1449484994;2.12791275978;0.794736802578;0.0687426328659;0;True;7;1;78.06677857041421
106;106;1449484994;2.12795209885;0.7948219776150001;0.0688737034798;0;True;7;1;78.06677857041421
107;107;1449484994;2.1279933452599997;0.794675350189;0.0686653703451;0;True;7;1;78.06677857041421
108;108;1449484994;2.12794065475;0.794788122177;0.06881962716580001;0;True;7;1;78.06677857041421
109;109;1449484994;2.1279392242400004;0.794535756111;0.06883821636439999;0;True;7;1;78.06677857041421
110;110;1449484994;2.12799429893;0.794709980488;0.0687566921115;0;True;7;1;78.06677857041421
111;111;1449484994;2.12796521187;0.79474234581;0.0688493326306;0;True;7;1;78.06677857041421
112;112;1449484994;2.12798905373;0.7947502136229999;0.0688422471285;0;True;7;1;78.06677857041421
113;113;1449484994;2.12797689438;0.794724881649;0.0687852576375;0;True;7;1;78.06677857041421
114;114;1449484994;2.12804436684;0.7949025034899999;0.06876984983680001;0;True;7;1;78.06677857041421
115;115;1449484994;2.12797760963;0.7945787906649999;0.0686969906092;0;True;7;1;78.06677857041421
116;116;1449484994;2.1279480457299997;0.794560074806;0.06873940676450001;0;True;7;1;78.06677857041421
117;117;1449484994;2.1279578208900003;0.794665336609;0.06890314072369999;0;True;7;1;78.06677857041421
118;118;1449484994;2.12777709961;0.7944646477699999;0.0688460990787;0;True;7;1;78.06677857041421
119;119;1449484994;2.1279258728;0.7947772741320001;0.0688157901168;0;True;7;1;78.06677857041421
120;120;1449484994;2.12796711922;0.794591605663;0.06874144822360001;0;True;7;1;78.06677857041421
121;121;1449484994;2.1279451847099997;0.794705867767;0.06886694580319999;0;True;7;1;78.06677857041421
122;122;1449484994;2.1279916763299997;0.7947149276729999;0.0687243044376;0;True;7;1;78.06677857041421
123;123;1449484994;2.12793636322;0.794592916965;0.06874471157789999;0;True;7;1;78.06677857041421
124;124;1449484994;2.1279296875;0.794775009155;0.0689069628716;0;True;7;1;78.06677857041421
125;125;1449484994;2.1279451847099997;0.7947086691859999;0.0688601955771;0;True;7;1;78.06677857041421
126;126;1449484994;2.12797307968;0.794647634029;0.0688416585326;0;True;7;1;78.06677857041421
127;127;1449484994;2.1279232502000003;0.794626772404;0.0688771009445;0;True;7;1;78.06677857041421
128;128;1449484994;2.1279501915;0.7946215868000001;0.0688592344522;0;True;7;1;78.06677857041421
129;129;1449484994;2.12807798386;0.794720411301;0.0687688291073;0;True;7;1;78.06677857041421
130;130;1449484994;2.1279828548400004;0.7947058081630001;0.0688089877367;0;True;7;1;78.06677857041421
131;131;1449484994;2.12796998024;0.794646084309;0.0687365680933;0;True;7;1;78.06677857041421
132;132;1449484995;2.12796711922;0.794710814953;0.06886862218380001;1;True;7;1;78.06677857041421
133;133;1449484995;2.1279301643400004;0.794477641582;0.06874464452269999;1;True;7;1;78.06677857041421
134;134;1449484995;2.12802553177;0.794792056084;0.0688202083111;1;True;7;1;78.06677857041421
135;135;1449484995;2.12789607048;0.7946950793269999;0.0688273906708;1;True;7;1;78.06677857041421
136;136;1449484995;2.12795639038;0.794530630112;0.0687383189797;1;True;7;1;78.06677857041421
137;137;1449484995;2.12793898582;0.794757962227;0.0688275769353;1;True;7;1;78.06677857041421
138;138;1449484995;2.12794041634;0.7945601940160001;0.0688027888536;1;True;7;1;78.06677857041421
139;139;1449484995;2.12791490555;0.7944920659070001;0.06877243518830001;1;True;7;1;78.06677857041421
140;140;1449484995;2.1279861927;0.794791400433;0.0688587203622;1;True;7;1;78.06677857041421
141;141;1449484995;2.12798142433;0.7945786118510001;0.0687293410301;1;True;7;1;78.06677857041421
142;142;1449484995;2.12797212601;0.7947471141820001;0.0688105821609;1;True;7;1;78.06677857041421
143;143;1449484995;2.12794113159;0.7949399352069999;0.0687070786953;1;True;7;1;78.06677857041421
144;144;1449484995;2.1279828548400004;0.794654130936;0.0687416642904;1;True;7;1;78.06677857041421
145;145;1449484995;2.12800693512;0.794734895229;0.0687893629074;1;True;7;1;78.06677857041421
146;146;1449484995;2.12799787521;0.794714272022;0.0687439888716;1;True;7;1;78.06677857041421
147;147;1449484995;2.12796998024;0.794765233994;0.0688649117947;1;True;7;1;78.06677857041421
148;148;1449484995;2.12798190117;0.794645607471;0.06872224807739999;1;True;7;1;78.06677857041421
149;149;1449484995;2.12797689438;0.794727683067;0.0688434317708;1;True;7;1;78.06677857041421
150;150;1449484995;2.128002882;0.7946888804440001;0.06868503987789999;1;True;7;1;78.06677857041421
151;151;1449484995;2.1279797553999997;0.7946306467059999;0.0686952397227;1;True;7;1;78.06677857041421
152;152;1449484995;2.12796711922;0.794638514519;0.0687136203051;1;True;7;1;78.06677857041421
153;153;1449484995;2.12799453735;0.7947764396670001;0.0687555298209;1;True;7;1;78.06677857041421
154;154;1449484995;2.12794494629;0.794744849205;0.0687245875597;1;True;7;1;78.06677857041421
155;155;1449484995;2.1279742717700003;0.79472386837;0.0687480047345;1;True;7;1;78.06677857041421
156;156;1449484995;2.12799358368;0.7949282526970001;0.068739682436;1;True;7;1;78.06677857041421
157;157;1449484995;2.12793421745;0.7947473526000001;0.06872351467610001;1;True;7;1;78.06677857041421
158;158;1449484995;2.12793159485;0.794758617878;0.06873992085460001;1;True;7;1;78.06677857041421
159;159;1449484995;2.12794876099;0.794641375542;0.0687643066049;1;True;7;1;78.06677857041421
160;160;1449484995;2.1279475688900003;0.794644415379;0.0686759054661;1;True;7;1;78.06677857041421
161;161;1449484995;2.12791848183;0.7947067022319999;0.068815022707;1;True;7;1;78.06677857041421
162;162;1449484995;2.12788724899;0.79455935955;0.0687153115869;1;True;7;1;78.06677857041421
163;163;1449484995;2.12786841393;0.7943917512890001;0.0686604976654;1;True;7;1;78.06677857041421
164;164;1449484995;2.12791323662;0.7946297526360001;0.06870095431800001;1;True;7;1;78.06677857041421
165;165;1449484995;2.12790298462;0.794643342495;0.0687190368772;1;True;7;1;78.06677857041421
166;166;1449484995;2.1279275417299996;0.7946752905850001;0.0687029212713;1;True;7;1;78.06677857041421
167;167;1449484995;2.1278719902;0.794610500336;0.0687378272414;1;True;7;1;78.06677857041421
168;168;1449484995;2.12790203094;0.794645130634;0.0687713623047;1;True;7;1;78.06677857041421
169;169;1449484995;2.12785410881;0.794653952122;0.06886191666130001;1;True;7;1;78.06677857041421
170;170;1449484995;2.12794852257;0.794780313969;0.0686456263065;1;True;7;1;78.06677857041421
171;171;1449484995;2.12787985802;0.794429600239;0.0686206445098;1;True;7;1;78.06677857041421
172;172;1449484995;2.12793874741;0.794664740562;0.06861305236819999;1;True;7;1;78.06677857041421
173;173;1449484995;2.12789750099;0.7947195172310001;0.0686660185456;1;True;7;1;78.06677857041421
174;174;1449484995;2.1279010772699998;0.794671833515;0.0687505751848;1;True;7;1;78.06677857041421
175;175;1449484995;2.1278638839700004;0.794454097748;0.0686232596636;1;True;7;1;78.06677857041421
176;176;1449484995;2.12792825699;0.7946876883509999;0.0685912147164;1;True;7;1;78.06677857041421
177;177;1449484995;2.12789678574;0.7946891784669999;0.06875822693110001;1;True;7;1;78.06677857041421
178;178;1449484995;2.12791919708;0.7946894764899999;0.06869868189100001;1;True;7;1;78.06677857041421
179;179;1449484995;2.1278796196000003;0.794561445713;0.068708203733;1;True;7;1;78.06677857041421
180;180;1449484995;2.12793707848;0.7947725653650001;0.0686128586531;1;True;7;1;78.06677857041421
181;181;1449484995;2.12791895866;0.794685125351;0.06870771944519999;1;True;7;1;78.06677857041421
182;182;1449484995;2.12792634964;0.794751405716;0.06870803236959999;1;True;7;1;78.06677857041421
183;183;1449484995;2.12787938118;0.7947232127189999;0.0687148943543;1;True;7;1;78.06677857041421
184;184;1449484995;2.12794137001;0.794709682465;0.06879369914530001;1;True;7;1;78.06677857041421
185;185;1449484995;2.12791657448;0.794632196426;0.0686232745647;1;True;7;1;78.06677857041421
186;186;1449484995;2.12790203094;0.79469114542;0.06875682622189999;1;True;7;1;78.06677857041421
187;187;1449484995;2.12791848183;0.794667601585;0.06862279772760001;1;True;7;1;78.06677857041421
188;188;1449484995;2.1278762817400003;0.7944951057430001;0.0686393156648;1;True;7;1;78.06677857041421
189;189;1449484995;2.12787842751;0.794782042503;0.068706959486;1;True;7;1;78.06677857041421
190;190;1449484995;2.12793374062;0.794724524021;0.0686247944832;1;True;7;1;78.06677857041421
191;191;1449484995;2.1278719902;0.7944686412809999;0.0686126202345;1;True;7;1;78.06677857041421
192;192;1449484995;2.1278274059299997;0.794609606266;0.0687924772501;1;True;7;1;78.06677857041421
193;193;1449484995;2.12795090675;0.7947666049;0.0687121748924;1;True;7;1;78.06677857041421
194;194;1449484995;2.12788486481;0.7946506738660001;0.068687826395;1;True;7;1;78.06677857041421
195;195;1449484995;2.12796115875;0.7947180271150001;0.0687481835485;1;True;7;1;78.06677857041421
196;196;1449484995;2.12795734406;0.794766545296;0.0687297582626;1;True;7;1;78.06677857041421
197;197;1449484995;2.12795734406;0.7948043346410001;0.0686481595039;1;True;7;1;78.06677857041421
198;198;1449484995;2.1279318332700004;0.794694960117;0.06865020096300001;1;True;7;1;78.06677857041421
199;199;1449484995;2.1279399395;0.794773459435;0.0687134414911;1;True;7;1;78.06677857041421
200;200;1449484995;2.1279201507599996;0.794721961021;0.068780630827;1;True;7;1;78.06677857041421
201;201;1449484995;2.12793707848;0.7947977781300001;0.0687679499388;1;True;7;1;78.06677857041421
202;202;1449484995;2.12795686722;0.79470294714;0.0687504559755;1;True;7;1;78.06677857041421
203;203;1449484995;2.1278660297400003;0.794495403767;0.0687227323651;1;True;7;1;78.06677857041421
204;204;1449484995;2.12791848183;0.794684052467;0.06874246150260001;1;True;7;1;78.06677857041421
205;205;1449484995;2.12791728973;0.79452842474;0.0686759203672;1;True;7;1;78.06677857041421
206;206;1449484995;2.1278855800599996;0.794677257538;0.068745419383;1;True;7;1;78.06677857041421
207;207;1449484995;2.12791800499;0.794538974762;0.0686730518937;1;True;7;1;78.06677857041421
208;208;1449484995;2.12790346146;0.79456537962;0.068694524467;1;True;7;1;78.06677857041421
209;209;1449484995;2.1278374195099996;0.7947292923929999;0.0686430633068;1;True;7;1;78.06677857041421
210;210;1449484995;2.12796545029;0.794699430466;0.06869857758280001;1;True;7;1;78.06677857041421
211;211;1449484995;2.12788462639;0.794787228107;0.06890946626660001;1;True;7;1;78.06677857041421
212;212;1449484995;2.12796020508;0.7947292923929999;0.06879100203510001;1;True;7;1;78.06677857041421
213;213;1449484995;2.12796640396;0.794696748257;0.0687300488353;1;True;7;1;78.06677857041421
214;214;1449484995;2.12797927856;0.79476416111;0.0686919242144;1;True;7;1;78.06677857041421
215;215;1449484995;2.12789082527;0.794683039188;0.0688015818596;1;True;7;1;78.06677857041421
216;216;1449484995;2.1279435157799997;0.7947781682009999;0.0688450187445;1;True;7;1;78.06677857041421
217;217;1449484995;2.12794280052;0.7947490215299999;0.0687858611345;1;True;7;1;78.06677857041421
218;218;1449484995;2.12793254852;0.7947018146510001;0.0687653571367;1;True;7;1;78.06677857041421
219;219;1449484995;2.12793493271;0.7946640849109999;0.06883162260060001;1;True;7;1;78.06677857041421
220;220;1449484995;2.1279697418200003;0.7947242856029999;0.0687092244625;1;True;7;1;78.06677857041421
221;221;1449484995;2.12794041634;0.7945507168770001;0.0687302798033;1;True;7;1;78.06677857041421
222;222;1449484995;2.12792849541;0.79452931881;0.0687096714973;1;True;7;1;78.06677857041421
223;223;1449484995;2.12796139717;0.794657111168;0.0687476992607;1;True;7;1;78.06677857041421
224;224;1449484995;2.1279866695400003;0.7947064042090001;0.0687079876661;1;True;7;1;78.06677857041421
225;225;1449484995;2.1279928684200002;0.794818639755;0.0688582509756;1;True;7;1;78.06677857041421
226;226;1449484995;2.1279103756;0.794818580151;0.0688320025802;1;True;7;1;78.06677857041421
227;227;1449484995;2.12798261642;0.7946997284890001;0.06882732361560001;1;True;7;1;78.06677857041421
228;228;1449484995;2.12787008286;0.794535636902;0.0689220353961;1;True;7;1;78.06677857041421
229;229;1449484995;2.1279923915900003;0.794710934162;0.06879513710739998;1;True;7;1;78.06677857041421
230;230;1449484995;2.12796711922;0.794757425785;0.0688588246703;1;True;7;1;78.06677857041421
231;231;1449484995;2.1278955936400004;0.794415891171;0.06874037534;1;True;7;1;78.06677857041421
232;232;1449484995;2.1279053688;0.7944754362109999;0.06885554641489999;1;True;7;1;78.06677857041421
233;233;1449484995;2.1279208660099997;0.794872939587;0.0688635855913;1;True;7;1;78.06677857041421
234;234;1449484995;2.1279451847099997;0.7946963310240001;0.0687885209918;1;True;7;1;78.06677857041421
235;235;1449484995;2.12795734406;0.794684588909;0.06882414221760001;1;True;7;1;78.06677857041421
236;236;1449484995;2.1279900074;0.794789075851;0.0688401460648;1;True;7;1;78.06677857041421
237;237;1449484995;2.12800312042;0.794697463512;0.0688079744577;1;True;7;1;78.06677857041421
238;238;1449484995;2.12800788879;0.794691562653;0.0687447041273;1;True;7;1;78.06677857041421
239;239;1449484995;2.12800860405;0.7947077155110001;0.06873451173310001;1;True;7;1;78.06677857041421
240;240;1449484995;2.12798500061;0.794713973999;0.0687592402101;1;True;7;1;78.06677857041421
241;241;1449484995;2.12798428535;0.7947209477420001;0.0686880275607;1;True;7;1;78.06677857041421
242;242;1449484995;2.12802124023;0.794800281525;0.0688576549292;1;True;7;1;78.06677857041421
243;243;1449484995;2.12803459167;0.794644713402;0.0687496215105;1;True;7;1;78.06677857041421
244;244;1449484995;2.12788915634;0.7944779992100001;0.06887724250560001;1;True;7;1;78.06677857041421
245;245;1449484995;2.1279158592200003;0.794549167156;0.0688147693872;1;True;7;1;78.06677857041421
246;246;1449484995;2.12798428535;0.794636011124;0.06872619688510001;1;True;7;1;78.06677857041421
247;247;1449484995;2.1280059814500003;0.794789433479;0.0688227266073;1;True;7;1;78.06677857041421
248;248;1449484995;2.12798547745;0.794683158398;0.0687525197864;1;True;7;1;78.06677857041421
249;249;1449484995;2.12796258926;0.794730961323;0.0688807219267;1;True;7;1;78.06677857041421
250;250;1449484995;2.12795805931;0.7946604490279999;0.06878561526539999;1;True;7;1;78.06677857041421
251;251;1449484995;2.12797284126;0.794653356075;0.0687069147825;1;True;7;1;78.06677857041421
252;252;1449484995;2.1279492378200002;0.79461234808;0.068780221045;1;True;7;1;78.06677857041421
253;253;1449484995;2.12794995308;0.794652581215;0.0689229741693;1;True;7;1;78.06677857041421
254;254;1449484995;2.12799501419;0.794681608677;0.06871170550580001;1;True;7;1;78.06677857041421
255;255;1449484995;2.1279551982900005;0.7946733236310001;0.06884427368639999;1;True;7;1;78.06677857041421
256;256;1449484995;2.1279163360599997;0.7946847081180001;0.06881877779960001;1;True;7;1;78.06677857041421
257;257;1449484995;2.1279637813599996;0.794698297977;0.06881096214060001;1;True;7;1;78.06677857041421
258;258;1449484995;2.12798976898;0.79475158453;0.0686940848827;1;True;7;1;78.06677857041421
259;259;1449484995;2.1279425621;0.794617593288;0.0687586665154;1;True;7;1;78.06677857041421
260;260;1449484995;2.1279623508500003;0.7946965098379999;0.06877347826960001;1;True;7;1;78.06677857041421
261;261;1449484995;2.12797546387;0.7945865392679999;0.0687137022614;1;True;7;1;78.06677857041421
262;262;1449484995;2.1280040741;0.7947902083399999;0.06883941590789999;1;True;7;1;78.06677857041421
263;263;1449484995;2.12802886963;0.794815599918;0.06882598996160001;1;True;7;1;78.06677857041421
264;264;1449484995;2.12796330452;0.794888556004;0.0686360299587;1;True;7;1;78.06677857041421
265;265;1449484995;2.12795424461;0.794676840305;0.0686657652259;1;True;7;1;78.06677857041421
266;266;1449484995;2.12790560722;0.794520437717;0.0687558278441;1;True;7;1;78.06677857041421
267;267;1449484995;2.12790346146;0.7947290539740001;0.0687361359596;1;True;7;1;78.06677857041421
268;268;1449484995;2.12797403336;0.794740259647;0.0687939673662;1;True;7;1;78.06677857041421
269;269;1449484995;2.12796568871;0.7947223186489999;0.0687468424439;1;True;7;1;78.06677857041421
270;270;1449484995;2.12798452377;0.7949343323710001;0.0687418952584;1;True;7;1;78.06677857041421
271;271;1449484995;2.12794876099;0.794671118259;0.06867532432080001;1;True;7;1;78.06677857041421
272;272;1449484995;2.12793278694;0.794619381428;0.0686709731817;1;True;7;1;78.06677857041421
273;273;1449484995;2.1279475688900003;0.794698655605;0.06876088678839999;1;True;7;1;78.06677857041421
274;274;1449484995;2.12788724899;0.7944836616519999;0.0686928704381;1;True;7;1;78.06677857041421
275;275;1449484995;2.1279435157799997;0.794670403004;0.0688348263502;1;True;7;1;78.06677857041421
276;276;1449484995;2.12793040276;0.794631302357;0.0687478780746;1;True;7;1;78.06677857041421
277;277;1449484995;2.12790298462;0.794544100761;0.0686871930957;1;True;7;1;78.06677857041421
278;278;1449484995;2.1278958320599997;0.794646263123;0.0686955973506;1;True;7;1;78.06677857041421
279;279;1449484995;2.12795209885;0.7946718931199999;0.06866340339180001;1;True;7;1;78.06677857041421
280;280;1449484995;2.1279039382900002;0.7946718931199999;0.0687220543623;1;True;7;1;78.06677857041421
281;281;1449484995;2.12794828415;0.7947235107420001;0.0687427148223;1;True;7;1;78.06677857041421
282;282;1449484995;2.12788748741;0.794511437416;0.0686461254954;1;True;7;1;78.06677857041421
283;283;1449484995;2.1278722286200003;0.794795513153;0.0687012821436;1;True;7;1;78.06677857041421
284;284;1449484995;2.12794017792;0.79476493597;0.06861710548399999;1;True;7;1;78.06677857041421
285;285;1449484995;2.1278920173599998;0.794771194458;0.06886768341060001;1;True;7;1;78.06677857041421
286;286;1449484995;2.12800836563;0.7946115136149999;0.0687032714486;1;True;7;1;78.06677857041421
287;287;1449484995;2.12789845467;0.7946339249609999;0.06874737143519999;1;True;7;1;78.06677857041421
288;288;1449484995;2.12792038918;0.794581830502;0.0686191618443;1;True;7;1;78.06677857041421
289;289;1449484995;2.1278851032299997;0.7945646047589999;0.0686744973063;1;True;7;1;78.06677857041421
290;290;1449484995;2.1278822422;0.79455190897;0.0687146037817;1;True;7;1;78.06677857041421
291;291;1449484995;2.12797188759;0.794772922993;0.068670168519;1;True;7;1;78.06677857041421
292;292;1449484995;2.12788677216;0.7946514487270001;0.06880919635300001;1;True;7;1;78.06677857041421
293;293;1449484995;2.12788653374;0.794726788998;0.0686856284738;1;True;7;1;78.06677857041421
294;294;1449484995;2.1278128624;0.7947133779530001;0.06872782111169999;1;True;7;1;78.06677857041421
295;295;1449484995;2.1278898716;0.7945230603219999;0.06864666938780001;1;True;7;1;78.06677857041421
296;296;1449484995;2.1279103756;0.794726848602;0.06877581775189999;1;True;7;1;78.06677857041421
297;297;1449484995;2.1278758049;0.794467806816;0.0686448737979;1;True;7;1;78.06677857041421
298;298;1449484995;2.1279644966099998;0.794712543488;0.0686205402017;1;True;7;1;78.06677857041421
299;299;1449484995;2.12794542313;0.7946714758869999;0.0687155276537;1;True;7;1;78.06677857041421
300;300;1449484995;2.12792658806;0.794681966305;0.0686886534095;1;True;7;1;78.06677857041421
301;301;1449484995;2.1279060840599997;0.794782340527;0.0687873065472;1;True;7;1;78.06677857041421
302;302;1449484995;2.12796545029;0.794754266739;0.0687433704734;1;True;7;1;78.06677857041421
303;303;1449484995;2.12788915634;0.794708430767;0.0687422454357;1;True;7;1;78.06677857041421
304;304;1449484995;2.12792348862;0.794608771801;0.0686983689666;1;True;7;1;78.06677857041421
305;305;1449484995;2.12792849541;0.7947127223010001;0.0686843320727;1;True;7;1;78.06677857041421
306;306;1449484995;2.12787938118;0.794711649418;0.0687263980508;1;True;7;1;78.06677857041421
307;307;1449484995;2.12791323662;0.794581055641;0.06869130581619999;1;True;7;1;78.06677857041421
308;308;1449484995;2.1279673576400002;0.7947577238079999;0.0686620101333;1;True;7;1;78.06677857041421
309;309;1449484995;2.12793636322;0.794929265976;0.068589605391;1;True;7;1;78.06677857041421
310;310;1449484995;2.12790513039;0.7947133183480001;0.068759791553;1;True;7;1;78.06677857041421
311;311;1449484995;2.12789797783;0.79467612505;0.0687160342932;1;True;7;1;78.06677857041421
312;312;1449484995;2.12792277336;0.794677913189;0.0687498599291;1;True;7;1;78.06677857041421
313;313;1449484995;2.1279590129900003;0.794741630554;0.0687833055854;1;True;7;1;78.06677857041421
314;314;1449484995;2.12793135643;0.794588088989;0.0686545148492;1;True;7;1;78.06677857041421
315;315;1449484995;2.12791085243;0.794690787792;0.0687387287617;1;True;7;1;78.06677857041421
316;316;1449484995;2.12796401978;0.794830083847;0.06872041523460001;1;True;7;1;78.06677857041421
317;317;1449484995;2.1279673576400002;0.7947587370870001;0.0686774253845;1;True;7;1;78.06677857041421
318;318;1449484995;2.12794446945;0.794680953026;0.0687540918589;1;True;7;1;78.06677857041421
319;319;1449484995;2.1278851032299997;0.794744491577;0.0687836259604;1;True;7;1;78.06677857041421
320;320;1449484995;2.12788653374;0.7945345044140001;0.0687708482146;1;True;7;1;78.06677857041421
321;321;1449484995;2.1279697418200003;0.7946930527689999;0.0687180757523;1;True;7;1;78.06677857041421
322;322;1449484995;2.1279497146599997;0.7946823835369999;0.0687531232834;1;True;7;1;78.06677857041421
323;323;1449484995;2.12796640396;0.794747889042;0.068795196712;1;True;7;1;78.06677857041421
324;324;1449484995;2.12794494629;0.7946795821189999;0.0687201321125;1;True;7;1;78.06677857041421
325;325;1449484995;2.12785029411;0.7946901917460001;0.06883262842889999;1;True;7;1;78.06677857041421
326;326;1449484995;2.12796711922;0.794689536095;0.0687936022878;1;True;7;1;78.06677857041421
327;327;1449484995;2.1279489994;0.794714212418;0.0687326863408;1;True;7;1;78.06677857041421
328;328;1449484995;2.12785816193;0.7949657440189999;0.0686702653766;1;True;7;1;78.06677857041421
329;329;1449484995;2.1278023719799997;0.7947633266449999;0.0687762796879;1;True;7;1;78.06677857041421
330;330;1449484995;2.1279492378200002;0.7947155833239999;0.0687338858843;1;True;7;1;78.06677857041421
331;331;1449484995;2.1279287338299997;0.794492125511;0.0686766728759;1;True;7;1;78.06677857041421
332;332;1449484995;2.12796616554;0.794685125351;0.0686738938093;1;True;7;1;78.06677857041421
333;333;1449484995;2.1279306411700003;0.7945944070819999;0.06878702342510001;1;True;7;1;78.06677857041421
334;334;1449484995;2.1279947757700004;0.794778525829;0.0688052400947;1;True;7;1;78.06677857041421
335;335;1449484995;2.1279153823900003;0.7945398092270001;0.06874778121710001;1;True;7;1;78.06677857041421
336;336;1449484995;2.12799978256;0.794660210609;0.06878110021350001;1;True;7;1;78.06677857041421
337;337;1449484995;2.1279566288;0.794689238071;0.0687479898334;1;True;7;1;78.06677857041421
338;338;1449484995;2.1279888153099997;0.7947071790700001;0.0687702074647;1;True;7;1;78.06677857041421
339;339;1449484995;2.1279399395;0.79455947876;0.06874593347310001;1;True;7;1;78.06677857041421
340;340;1449484995;2.12797904015;0.7946870327;0.0687830150127;1;True;7;1;78.06677857041421
341;341;1449484995;2.12801146507;0.7947244048119999;0.0688368603587;1;True;7;1;78.06677857041421
342;342;1449484995;2.12797904015;0.794791102409;0.0687892213464;1;True;7;1;78.06677857041421
343;343;1449484995;2.1279821395900003;0.7946966886519999;0.0687066689134;1;True;7;1;78.06677857041421
344;344;1449484995;2.12795639038;0.7947895526890001;0.06885452568530001;1;True;7;1;78.06677857041421
345;345;1449484995;2.1280207634;0.7947605252269999;0.0687431395054;1;True;7;1;78.06677857041421
346;346;1449484995;2.12801218033;0.794742166996;0.06870312243700001;1;True;7;1;78.06677857041421
347;347;1449484995;2.12797474861;0.794615924358;0.0687874704599;1;True;7;1;78.06677857041421
348;348;1449484995;2.12797164917;0.794617772102;0.0687651783228;1;True;7;1;78.06677857041421
349;349;1449484995;2.12798500061;0.794682621956;0.0688429698348;1;True;7;1;78.06677857041421
350;350;1449484995;2.12800002098;0.794653117657;0.06869228929280001;1;True;7;1;78.06677857041421
351;351;1449484995;2.12801837921;0.7947303056720001;0.06879174709319999;1;True;7;1;78.06677857041421
352;352;1449484995;2.12797403336;0.794652998447;0.06879365444180001;1;True;7;1;78.06677857041421
353;353;1449484995;2.12801837921;0.7946820855140001;0.0687010362744;1;True;7;1;78.06677857041421
354;354;1449484995;2.12785816193;0.7946561574940001;0.0688233748078;1;True;7;1;78.06677857041421
355;355;1449484995;2.12803411484;0.794914960861;0.068799905479;1;True;7;1;78.06677857041421
356;356;1449484995;2.12794423103;0.794480979443;0.0687005743384;1;True;7;1;78.06677857041421
357;357;1449484995;2.12797880173;0.7945938110349999;0.06879441440110001;1;True;7;1;78.06677857041421
358;358;1449484995;2.12797760963;0.794711768627;0.0687973722816;1;True;7;1;78.06677857041421
359;359;1449484995;2.12798404694;0.7947752475740001;0.06877917796369999;1;True;7;1;78.06677857041421
360;360;1449484995;2.12792730331;0.794707894325;0.06876725703480001;1;True;7;1;78.06677857041421
361;361;1449484995;2.1279623508500003;0.7947873473170001;0.068788819015;1;True;7;1;78.06677857041421
362;362;1449484995;2.1280081272099998;0.7946875095370001;0.0688847750425;1;True;7;1;78.06677857041421
363;363;1449484995;2.12795138359;0.7947106361390001;0.06889991462230001;1;True;7;1;78.06677857041421
364;364;1449484995;2.12790250778;0.794456839561;0.0688236728311;1;True;7;1;78.06677857041421
365;365;1449484995;2.1279554367099998;0.794569969177;0.0687404125929;1;True;7;1;78.06677857041421
366;366;1449484995;2.12797403336;0.794695317745;0.0687766894698;1;True;7;1;78.06677857041421
367;367;1449484995;2.12789320946;0.7944970726970001;0.0687962397933;1;True;7;1;78.06677857041421
368;368;1449484995;2.1279954910299996;0.7947201132770001;0.0687049254775;1;True;7;1;78.06677857041421
369;369;1449484995;2.12794065475;0.7945196628569999;0.0686940252781;1;True;7;1;78.06677857041421
370;370;1449484995;2.12797141075;0.794611036777;0.0687402933836;1;True;7;1;78.06677857041421
371;371;1449484996;2.12800216675;0.7947595119480001;0.0687789693475;2;True;7;1;78.06677857041421
372;372;1449484996;2.12799191475;0.7948483824729999;0.0687152147293;2;True;7;1;78.06677857041421
373;373;1449484996;2.12794947624;0.7945807576180001;0.0687472447753;2;True;7;1;78.06677857041421
374;374;1449484996;2.12792205811;0.79463493824;0.0687904804945;2;True;7;1;78.06677857041421
375;375;1449484996;2.12791347504;0.7947612404819999;0.0688356459141;2;True;7;1;78.06677857041421
376;376;1449484996;2.12802410126;0.794809103012;0.0687926858664;2;True;7;1;78.06677857041421
377;377;1449484996;2.12793707848;0.794563412666;0.06866545975209999;2;True;7;1;78.06677857041421
378;378;1449484996;2.1279828548400004;0.79471886158;0.06878374516960001;2;True;7;1;78.06677857041421
379;379;1449484996;2.1279301643400004;0.794604957104;0.0687935501337;2;True;7;1;78.06677857041421
380;380;1449484996;2.12797188759;0.7947229743;0.06866734474899999;2;True;7;1;78.06677857041421
381;381;1449484996;2.12789034843;0.794597625732;0.06872335076330001;2;True;7;1;78.06677857041421
382;382;1449484996;2.1279301643400004;0.794610202312;0.0687497258186;2;True;7;1;78.06677857041421
383;383;1449484996;2.1279737949400004;0.79464507103;0.0686709657311;2;True;7;1;78.06677857041421
384;384;1449484996;2.1277983188599996;0.794766306877;0.0687599927187;2;True;7;1;78.06677857041421
385;385;1449484996;2.12791919708;0.794531464577;0.068705432117;2;True;7;1;78.06677857041421
386;386;1449484996;2.1279039382900002;0.7945309877399999;0.0687622576952;2;True;7;1;78.06677857041421
387;387;1449484996;2.12794494629;0.7945794463160001;0.06870931386950001;2;True;7;1;78.06677857041421
388;388;1449484996;2.12797808647;0.7947183847429999;0.0686814337969;2;True;7;1;78.06677857041421
389;389;1449484996;2.12782597542;0.7949617505069999;0.06877216696739999;2;True;7;1;78.06677857041421
390;390;1449484996;2.12786793709;0.794466435909;0.06878110021350001;2;True;7;1;78.06677857041421
391;391;1449484996;2.12792849541;0.7948091626170001;0.068828471005;2;True;7;1;78.06677857041421
392;392;1449484996;2.12794733047;0.794611811638;0.0686917230487;2;True;7;1;78.06677857041421
393;393;1449484996;2.1280102729799997;0.794802069664;0.0687927231193;2;True;7;1;78.06677857041421
394;394;1449484996;2.1279246807099996;0.794650614262;0.0687641873956;2;True;7;1;78.06677857041421
395;395;1449484996;2.1279532909400003;0.7946711778640001;0.0687106475234;2;True;7;1;78.06677857041421
396;396;1449484996;2.12800240517;0.794812738895;0.0687647163868;2;True;7;1;78.06677857041421
397;397;1449484996;2.1279554367099998;0.7946650981899999;0.0686729848385;2;True;7;1;78.06677857041421
398;398;1449484996;2.1279578208900003;0.7947058081630001;0.068683296442;2;True;7;1;78.06677857041421
399;399;1449484996;2.1279759407;0.794665634632;0.0686857625842;2;True;7;1;78.06677857041421
400;400;1449484996;2.12799954414;0.7947969436650001;0.0687547549605;2;True;7;1;78.06677857041421
401;401;1449484996;2.12798571587;0.794822573662;0.0688167586923;2;True;7;1;78.06677857041421
402;402;1449484996;2.1279082298299996;0.794700026512;0.0687166675925;2;True;7;1;78.06677857041421
403;403;1449484996;2.1279246807099996;0.794713139534;0.0687841400504;2;True;7;1;78.06677857041421
404;404;1449484996;2.12798094749;0.794731080532;0.0687340497971;2;True;7;1;78.06677857041421
405;405;1449484996;2.12794089317;0.794679880142;0.0687499046326;2;True;7;1;78.06677857041421
406;406;1449484996;2.12792849541;0.794750452042;0.0687886327505;2;True;7;1;78.06677857041421
407;407;1449484996;2.12792062759;0.794531047344;0.0686643719673;2;True;7;1;78.06677857041421
408;408;1449484996;2.12795877457;0.7946673631669999;0.068685695529;2;True;7;1;78.06677857041421
409;409;1449484996;2.1278958320599997;0.7945908308030001;0.0687837600708;2;True;7;1;78.06677857041421
410;410;1449484996;2.12791848183;0.794607281685;0.06884678453210001;2;True;7;1;78.06677857041421
411;411;1449484996;2.12796878815;0.794664025307;0.068684540689;2;True;7;1;78.06677857041421
412;412;1449484996;2.12798786163;0.794804394245;0.068671323359;2;True;7;1;78.06677857041421
413;413;1449484996;2.1279695034;0.794686019421;0.068653345108;2;True;7;1;78.06677857041421
414;414;1449484996;2.12788438797;0.7945681214329999;0.06873603910210001;2;True;7;1;78.06677857041421
415;415;1449484996;2.12791776657;0.794749677181;0.0687886029482;2;True;7;1;78.06677857041421
416;416;1449484996;2.12799358368;0.7948542833329999;0.0686875358224;2;True;7;1;78.06677857041421
417;417;1449484996;2.1280026435900004;0.794818580151;0.0686944946647;2;True;7;1;78.06677857041421
418;418;1449484996;2.12788200378;0.7945426106450001;0.068722255528;2;True;7;1;78.06677857041421
419;419;1449484996;2.12792348862;0.7947164177889999;0.0687405094504;2;True;7;1;78.06677857041421
420;420;1449484996;2.12798094749;0.794712245464;0.0686456412077;2;True;7;1;78.06677857041421
421;421;1449484996;2.12799263;0.794693350792;0.0686967000365;2;True;7;1;78.06677857041421
422;422;1449484996;2.1279988288900005;0.7948047518729999;0.06872962415219999;2;True;7;1;78.06677857041421
423;423;1449484996;2.12792778015;0.794638872147;0.0687598437071;2;True;7;1;78.06677857041421
424;424;1449484996;2.12796187401;0.7945972084999999;0.0686561465263;2;True;7;1;78.06677857041421
425;425;1449484996;2.1278605461099995;0.7947501540180001;0.0687554702163;2;True;7;1;78.06677857041421
426;426;1449484996;2.12789845467;0.7946739792820001;0.0687451809645;2;True;7;1;78.06677857041421
427;427;1449484996;2.12793517113;0.794608294964;0.0686704963446;2;True;7;1;78.06677857041421
428;428;1449484996;2.12797141075;0.794694721699;0.0687504261732;2;True;7;1;78.06677857041421
429;429;1449484996;2.1279733181;0.794606924057;0.0686383023858;2;True;7;1;78.06677857041421
430;430;1449484996;2.12799501419;0.7947705388070001;0.06863980740310001;2;True;7;1;78.06677857041421
431;431;1449484996;2.12796068192;0.794658720493;0.06876125931739999;2;True;7;1;78.06677857041421
432;432;1449484996;2.12799739838;0.794720232487;0.0687659010291;2;True;7;1;78.06677857041421
433;433;1449484996;2.1279392242400004;0.7945495843889999;0.0687225162983;2;True;7;1;78.06677857041421
434;434;1449484996;2.12799119949;0.7946622967720001;0.0686463862658;2;True;7;1;78.06677857041421
435;435;1449484996;2.12796115875;0.794632732868;0.0686895474792;2;True;7;1;78.06677857041421
436;436;1449484996;2.12796664238;0.79467612505;0.0687430948019;2;True;7;1;78.06677857041421
437;437;1449484996;2.12795209885;0.794626235962;0.0687674954534;2;True;7;1;78.06677857041421
438;438;1449484996;2.1279044151299997;0.794514834881;0.0687504410744;2;True;7;1;78.06677857041421
439;439;1449484996;2.1279797553999997;0.7948684096340001;0.0686536729336;2;True;7;1;78.06677857041421
440;440;1449484996;2.12786817551;0.794544935226;0.0688556656241;2;True;7;1;78.06677857041421
441;441;1449484996;2.12792539597;0.794588923454;0.0687180608511;2;True;7;1;78.06677857041421
442;442;1449484996;2.12803411484;0.794848620892;0.06881243735550001;2;True;7;1;78.06677857041421
443;443;1449484996;2.12797951698;0.794652819633;0.0686991065741;2;True;7;1;78.06677857041421
444;444;1449484996;2.12796425819;0.794717848301;0.06881974637510001;2;True;7;1;78.06677857041421
445;445;1449484996;2.1280353069299998;0.79476326704;0.0687966793776;2;True;7;1;78.06677857041421
446;446;1449484996;2.12801837921;0.794774353504;0.0687713548541;2;True;7;1;78.06677857041421
447;447;1449484996;2.12798333168;0.794719338417;0.0688076764345;2;True;7;1;78.06677857041421
448;448;1449484996;2.12792372704;0.794688642025;0.068857498467;2;True;7;1;78.06677857041421
449;449;1449484996;2.12804293633;0.7947929501530001;0.0687703043222;2;True;7;1;78.06677857041421
450;450;1449484996;2.12799954414;0.7946733236310001;0.0686878338456;2;True;7;1;78.06677857041421
451;451;1449484996;2.1279821395900003;0.794675707817;0.06874691694969999;2;True;7;1;78.06677857041421
452;452;1449484996;2.12797021866;0.794733583927;0.0687817335129;2;True;7;1;78.06677857041421
453;453;1449484996;2.12801980972;0.794765293598;0.06879352033139999;2;True;7;1;78.06677857041421
454;454;1449484996;2.1280002594;0.794717669487;0.0688010305166;2;True;7;1;78.06677857041421
455;455;1449484996;2.1279733181;0.7946760654449999;0.0687521025538;2;True;7;1;78.06677857041421
456;456;1449484996;2.1280353069299998;0.794893562794;0.068647146225;2;True;7;1;78.06677857041421
457;457;1449484996;2.1279335022;0.7947841286660001;0.06887960433960001;2;True;7;1;78.06677857041421
458;458;1449484996;2.12801647186;0.794802725315;0.06884174048899999;2;True;7;1;78.06677857041421
459;459;1449484996;2.12801289558;0.7946031689640001;0.0688040181994;2;True;7;1;78.06677857041421
460;460;1449484996;2.12794613838;0.7946045398710001;0.06880130618810001;2;True;7;1;78.06677857041421
461;461;1449484996;2.1279463768;0.794603824615;0.0687883496284;2;True;7;1;78.06677857041421
462;462;1449484996;2.12800693512;0.7947127819059999;0.06869799643749999;2;True;7;1;78.06677857041421
463;463;1449484996;2.1279990673099998;0.794698596001;0.0687799751759;2;True;7;1;78.06677857041421
464;464;1449484996;2.12801170349;0.7946856021879999;0.06873348355289999;2;True;7;1;78.06677857041421
465;465;1449484996;2.12802505493;0.7946493625640001;0.0687238946557;2;True;7;1;78.06677857041421
466;466;1449484996;2.12797093391;0.794676661491;0.0688429400325;2;True;7;1;78.06677857041421
467;467;1449484996;2.12803578377;0.794742763042;0.0687741190195;2;True;7;1;78.06677857041421
468;468;1449484996;2.12790775299;0.794468939304;0.0688438042998;2;True;7;1;78.06677857041421
469;469;1449484996;2.12806487083;0.794805288315;0.068817153573;2;True;7;1;78.06677857041421
470;470;1449484996;2.12799668312;0.794918298721;0.06869492679830001;2;True;7;1;78.06677857041421
471;471;1449484996;2.12805318832;0.7947902083399999;0.0687438175082;2;True;7;1;78.06677857041421
472;472;1449484996;2.12810587883;0.794596374035;0.0687797889113;2;True;7;1;78.06677857041421
473;473;1449484996;2.12801098824;0.7947012782100001;0.0688932463527;2;True;7;1;78.06677857041421
474;474;1449484996;2.12801122665;0.794655442238;0.0688432306051;2;True;7;1;78.06677857041421
475;475;1449484996;2.12806344032;0.794802725315;0.0688272118568;2;True;7;1;78.06677857041421
476;476;1449484996;2.1280291080500002;0.794645309448;0.0688184946775;2;True;7;1;78.06677857041421
477;477;1449484996;2.12802815437;0.794648468494;0.06885317713019999;2;True;7;1;78.06677857041421
478;478;1449484996;2.1279988288900005;0.7946591377259999;0.0688522905111;2;True;7;1;78.06677857041421
479;479;1449484996;2.12805604935;0.794724524021;0.06880459189410001;2;True;7;1;78.06677857041421
480;480;1449484996;2.12801265717;0.7947472333910001;0.0688695907593;2;True;7;1;78.06677857041421
481;481;1449484996;2.12803721428;0.794645309448;0.0687705054879;2;True;7;1;78.06677857041421
482;482;1449484996;2.1280219554900004;0.794783294201;0.068871602416;2;True;7;1;78.06677857041421
483;483;1449484996;2.1280319690700003;0.794808447361;0.0688856393099;2;True;7;1;78.06677857041421
484;484;1449484996;2.1280875206;0.794890761375;0.068763628602;2;True;7;1;78.06677857041421
485;485;1449484996;2.12800860405;0.794732868671;0.0688750296831;2;True;7;1;78.06677857041421
486;486;1449484996;2.1280961036700003;0.794747650623;0.068838223815;2;True;7;1;78.06677857041421
487;487;1449484996;2.12801265717;0.794747769833;0.0688677430153;2;True;7;1;78.06677857041421
488;488;1449484996;2.12798929214;0.7947052121160001;0.06882558017969999;2;True;7;1;78.06677857041421
489;489;1449484996;2.12797880173;0.7947290539740001;0.0688268691301;2;True;7;1;78.06677857041421
490;490;1449484996;2.12798571587;0.794613718987;0.0687688961625;2;True;7;1;78.06677857041421
491;491;1449484996;2.12802815437;0.794808089733;0.0687942281365;2;True;7;1;78.06677857041421
492;492;1449484996;2.12802553177;0.794758677483;0.06889128685;2;True;7;1;78.06677857041421
493;493;1449484996;2.12805128098;0.7947413921359999;0.0688051134348;2;True;7;1;78.06677857041421
494;494;1449484996;2.1280310154;0.7947465777399999;0.0688468515873;2;True;7;1;78.06677857041421
495;495;1449484996;2.12800168991;0.794734477997;0.06878567487000001;2;True;7;1;78.06677857041421
496;496;1449484996;2.1279697418200003;0.794750571251;0.0689256712794;2;True;7;1;78.06677857041421
497;497;1449484996;2.1280257701900003;0.794737756252;0.06877063959839999;2;True;7;1;78.06677857041421
498;498;1449484996;2.1280376911200003;0.7946909070010001;0.0688186809421;2;True;7;1;78.06677857041421
499;499;1449484996;2.12802410126;0.7947718501090001;0.0688363835216;2;True;7;1;78.06677857041421
500;500;1449484996;2.1279723644299997;0.7947413325309999;0.0688277557492;2;True;7;1;78.06677857041421
501;501;1449484996;2.1279830932599997;0.7946807146070001;0.0687731578946;2;True;7;1;78.06677857041421
502;502;1449484996;2.1280419826499997;0.7947424054150001;0.0688015371561;2;True;7;1;78.06677857041421
503;503;1449484996;2.1280369758599997;0.7949791550640001;0.0687450915575;2;True;7;1;78.06677857041421
504;504;1449484996;2.1280159950299997;0.794750809669;0.0688032209873;2;True;7;1;78.06677857041421
505;505;1449484996;2.128074646;0.7948162555689999;0.0687798038125;2;True;7;1;78.06677857041421
506;506;1449484996;2.1279392242400004;0.794528126717;0.0686697661877;2;True;7;1;78.06677857041421
507;507;1449484996;2.12793207169;0.794582247734;0.06869381666180001;2;True;7;1;78.06677857041421
508;508;1449484996;2.12789845467;0.794556081295;0.068835042417;2;True;7;1;78.06677857041421
509;509;1449484996;2.12789726257;0.794597625732;0.0687615796924;2;True;7;1;78.06677857041421
510;510;1449484996;2.1279091835;0.794527828693;0.0687714144588;2;True;7;1;78.06677857041421
511;511;1449484996;2.12792682648;0.794771373272;0.06877387315030001;2;True;7;1;78.06677857041421
512;512;1449484996;2.12789773941;0.794821023941;0.0687482431531;2;True;7;1;78.06677857041421
513;513;1449484996;2.1279590129900003;0.794813096523;0.0687894225121;2;True;7;1;78.06677857041421
514;514;1449484996;2.12794423103;0.794641196728;0.0687263011932;2;True;7;1;78.06677857041421
515;515;1449484996;2.12800431252;0.79482871294;0.0687369331717;2;True;7;1;78.06677857041421
516;516;1449484996;2.1278607845299997;0.79483294487;0.06876916438339999;2;True;7;1;78.06677857041421
517;517;1449484996;2.12792801857;0.794758915901;0.0688259527087;2;True;7;1;78.06677857041421
518;518;1449484996;2.1279437542;0.794783651829;0.06882075220350001;2;True;7;1;78.06677857041421
519;519;1449484996;2.12792134285;0.794569790363;0.0686621814966;2;True;7;1;78.06677857041421
520;520;1449484996;2.1278603076900002;0.7946426868440001;0.0686745047569;2;True;7;1;78.06677857041421
521;521;1449484996;2.12789988518;0.7947842478749999;0.0686620101333;2;True;7;1;78.06677857041421
522;522;1449484996;2.1279335022;0.7947084903720001;0.06868012994530001;2;True;7;1;78.06677857041421
523;523;1449484996;2.1279160976400004;0.794757664204;0.06876062601800001;2;True;7;1;78.06677857041421
524;524;1449484996;2.12794589996;0.794649600983;0.068745136261;2;True;7;1;78.06677857041421
525;525;1449484996;2.12789869308;0.794768095016;0.0687906891108;2;True;7;1;78.06677857041421
526;526;1449484996;2.12790369987;0.794588804245;0.0686750933528;2;True;7;1;78.06677857041421
527;527;1449484996;2.12794566154;0.794671595097;0.06863406300540001;2;True;7;1;78.06677857041421
528;528;1449484996;2.12787532806;0.794482052326;0.0686063468456;2;True;7;1;78.06677857041421
529;529;1449484996;2.12790846825;0.7947364449500001;0.06877151131630001;2;True;7;1;78.06677857041421
530;530;1449484996;2.12789034843;0.7945095896719999;0.0686327368021;2;True;7;1;78.06677857041421
531;531;1449484996;2.12792491913;0.7946624159810001;0.06865946948530001;2;True;7;1;78.06677857041421
532;532;1449484996;2.12792730331;0.794670462608;0.0686603114009;2;True;7;1;78.06677857041421
533;533;1449484996;2.12788939476;0.7945168018340001;0.06865020096300001;2;True;7;1;78.06677857041421
534;534;1449484996;2.12784719467;0.7944606542589999;0.06874459981919999;2;True;7;1;78.06677857041421
535;535;1449484996;2.12794733047;0.79475402832;0.0686957985163;2;True;7;1;78.06677857041421
536;536;1449484996;2.12793755531;0.7947162985799999;0.0686658918858;2;True;7;1;78.06677857041421
537;537;1449484996;2.12796592712;0.7948990464210001;0.06874626874919999;2;True;7;1;78.06677857041421
538;538;1449484996;2.1278851032299997;0.794466376305;0.0686297044158;2;True;7;1;78.06677857041421
539;539;1449484996;2.12791728973;0.794601082802;0.068667255342;2;True;7;1;78.06677857041421
540;540;1449484996;2.12791442871;0.794567763805;0.06865017116069999;2;True;7;1;78.06677857041421
541;541;1449484996;2.12804484367;0.794595301151;0.0686687752604;2;True;7;1;78.06677857041421
542;542;1449484996;2.12795758247;0.794773101807;0.06872229278089999;2;True;7;1;78.06677857041421
543;543;1449484996;2.12793254852;0.7946665883059999;0.0687027275562;2;True;7;1;78.06677857041421
544;544;1449484996;2.12797212601;0.794755578041;0.0686427280307;2;True;7;1;78.06677857041421
545;545;1449484996;2.12792944908;0.794717013836;0.06875807046889999;2;True;7;1;78.06677857041421
546;546;1449484996;2.1278860569;0.794464886189;0.0686500519514;2;True;7;1;78.06677857041421
547;547;1449484996;2.12792682648;0.794674038887;0.0687966570258;2;True;7;1;78.06677857041421
548;548;1449484996;2.1279153823900003;0.7946438789370001;0.0688269808888;2;True;7;1;78.06677857041421
549;549;1449484996;2.1279673576400002;0.7947927713390001;0.0687662363052;2;True;7;1;78.06677857041421
550;550;1449484996;2.12783789635;0.7945454120640001;0.06882341206069999;2;True;7;1;78.06677857041421
551;551;1449484996;2.1278603076900002;0.79451495409;0.0689243525267;2;True;7;1;78.06677857041421
552;552;1449484996;2.1279451847099997;0.794739484787;0.06875765323639998;2;True;7;1;78.06677857041421
553;553;1449484996;2.12792229652;0.79453086853;0.0686384215951;2;True;7;1;78.06677857041421
554;554;1449484996;2.1279928684200002;0.794766187668;0.0687638744712;2;True;7;1;78.06677857041421
555;555;1449484996;2.1279497146599997;0.794777393341;0.0688028112054;2;True;7;1;78.06677857041421
556;556;1449484996;2.12797474861;0.7947570085529999;0.0686713308096;2;True;7;1;78.06677857041421
557;557;1449484996;2.12796592712;0.7946782708169999;0.0687543973327;2;True;7;1;78.06677857041421
558;558;1449484996;2.12792515755;0.7945631146430001;0.0687063932419;2;True;7;1;78.06677857041421
559;559;1449484996;2.12793445587;0.7945508360860001;0.0686930939555;2;True;7;1;78.06677857041421
560;560;1449484996;2.1279673576400002;0.794709503651;0.06876613199710001;2;True;7;1;78.06677857041421
561;561;1449484996;2.1279532909400003;0.7946555018420001;0.0686741769314;2;True;7;1;78.06677857041421
562;562;1449484996;2.12792944908;0.794593989849;0.0688375011086;2;True;7;1;78.06677857041421
563;563;1449484996;2.1278488636;0.794564902782;0.0688565000892;2;True;7;1;78.06677857041421
564;564;1449484996;2.12799215317;0.7947400212289999;0.06875854730610001;2;True;7;1;78.06677857041421
565;565;1449484996;2.12791705132;0.79464495182;0.068821631372;2;True;7;1;78.06677857041421
566;566;1449484996;2.1279630661;0.7946639657019999;0.068843357265;2;True;7;1;78.06677857041421
567;567;1449484996;2.12801265717;0.794809699059;0.0688350573182;2;True;7;1;78.06677857041421
568;568;1449484996;2.1279883384700002;0.794673025608;0.06883057951930001;2;True;7;1;78.06677857041421
569;569;1449484996;2.12798070908;0.7946720719339999;0.0687084421515;2;True;7;1;78.06677857041421
570;570;1449484996;2.1279673576400002;0.794636130333;0.06882143020630001;2;True;7;1;78.06677857041421
571;571;1449484996;2.12800979614;0.794703066349;0.06872041523460001;2;True;7;1;78.06677857041421
572;572;1449484996;2.1279797553999997;0.794698596001;0.0687585771084;2;True;7;1;78.06677857041421
573;573;1449484996;2.1279504299200003;0.7947061061859999;0.0688368603587;2;True;7;1;78.06677857041421
574;574;1449484996;2.12799096107;0.794709265232;0.06879735738039999;2;True;7;1;78.06677857041421
575;575;1449484996;2.12794423103;0.794549167156;0.06876181811089999;2;True;7;1;78.06677857041421
576;576;1449484996;2.12800788879;0.7947830557819999;0.06872283667330001;2;True;7;1;78.06677857041421
577;577;1449484996;2.1279335022;0.7947357296940001;0.0688425153494;2;True;7;1;78.06677857041421
578;578;1449484996;2.12794709206;0.794773638248;0.06894067674880001;2;True;7;1;78.06677857041421
579;579;1449484996;2.12798237801;0.7946427464489999;0.0688337534666;2;True;7;1;78.06677857041421
580;580;1449484996;2.12798190117;0.794756710529;0.0687715932727;2;True;7;1;78.06677857041421
581;581;1449484996;2.12797141075;0.794604182243;0.0688644722104;2;True;7;1;78.06677857041421
582;582;1449484996;2.12798643112;0.7946931719779999;0.0687988922;2;True;7;1;78.06677857041421
583;583;1449484996;2.12801861763;0.7946896553039999;0.06878992915149999;2;True;7;1;78.06677857041421
584;584;1449484996;2.12806653976;0.794638395309;0.068792745471;2;True;7;1;78.06677857041421
585;585;1449484996;2.12787508965;0.794848740101;0.0688494443893;2;True;7;1;78.06677857041421
586;586;1449484996;2.1279928684200002;0.7947365045550001;0.06879582256080001;2;True;7;1;78.06677857041421
587;587;1449484996;2.1280353069299998;0.794975996017;0.0688057988882;2;True;7;1;78.06677857041421
588;588;1449484996;2.12793087959;0.794677019119;0.0688435658813;2;True;7;1;78.06677857041421
589;589;1449484996;2.12795615196;0.7947331070899999;0.0688804164529;2;True;7;1;78.06677857041421
590;590;1449484996;2.12796664238;0.794725358486;0.0688656792045;2;True;7;1;78.06677857041421
591;591;1449484996;2.12798905373;0.794709265232;0.0688182041049;2;True;7;1;78.06677857041421
592;592;1449484996;2.12800931931;0.7946999669079999;0.06875641644;2;True;7;1;78.06677857041421
593;593;1449484996;2.12796068192;0.7947241067890001;0.06886326521639999;2;True;7;1;78.06677857041421
594;594;1449484996;2.12797403336;0.7945881485940001;0.0687441155314;2;True;7;1;78.06677857041421
595;595;1449484996;2.12794232368;0.7945448160169999;0.068747960031;2;True;7;1;78.06677857041421
596;596;1449484996;2.12792944908;0.7948126792910001;0.068790063262;2;True;7;1;78.06677857041421
597;597;1449484996;2.1279332637799997;0.7947289347650001;0.0687987208366;2;True;7;1;78.06677857041421
598;598;1449484996;2.12795162201;0.79463070631;0.06877819448710001;2;True;7;1;78.06677857041421
599;599;1449484996;2.1279771328;0.794725298882;0.06880410760639999;2;True;7;1;78.06677857041421
600;600;1449484996;2.12792634964;0.794495999813;0.0686968415976;2;True;7;1;78.06677857041421
601;601;1449484996;2.1279962062799997;0.794750452042;0.0688307136297;2;True;7;1;78.06677857041421
602;602;1449484996;2.1279821395900003;0.7947768568989999;0.0688451826572;2;True;7;1;78.06677857041421
603;603;1449484996;2.12800049782;0.794713556767;0.06878803670410001;2;True;7;1;78.06677857041421
604;604;1449484996;2.1279830932599997;0.794658541679;0.06870931386950001;2;True;7;1;78.06677857041421
605;605;1449484996;2.12789058685;0.794466376305;0.06869418919089999;2;True;7;1;78.06677857041421
606;606;1449484996;2.12794065475;0.794618606567;0.0687919333577;2;True;7;1;78.06677857041421
607;607;1449484996;2.12794184685;0.794597506523;0.06871123611930001;2;True;7;1;78.06677857041421
608;608;1449484996;2.12792801857;0.794585764408;0.0686593279243;2;True;7;1;78.06677857041421
609;609;1449484996;2.1278653144799997;0.794553816319;0.06883738189939999;2;True;7;1;78.06677857041421
610;610;1449484997;2.12797212601;0.7947181463240001;0.0687614530325;3;True;7;1;78.06677857041421
611;611;1449484997;2.12791442871;0.7946238517759999;0.0687635838985;3;True;7;1;78.06677857041421
612;612;1449484997;2.12791466713;0.794723331928;0.06878226250410001;3;True;7;1;78.06677857041421
613;613;1449484997;2.12784004211;0.79464840889;0.0687385872006;3;True;7;1;78.06677857041421
614;614;1449484997;2.12795424461;0.794789791107;0.0687604099512;3;True;7;1;78.06677857041421
615;615;1449484997;2.1279065609;0.7947010993960001;0.0687661617994;3;True;7;1;78.06677857041421
