;Unnamed: 0;header_stamp_secs;pose_position_x;pose_position_y;pose_position_z;seconds;drop_values;flight_number;label;dtw
0;0;1449485325;2.12922859192;0.811406075954;0.0684497430921;0;True;8;1;80.55000787228391
1;1;1449485325;2.12924647331;0.811534464359;0.0684488937259;0;True;8;1;80.55000787228391
2;2;1449485325;2.1292543411300002;0.811210036278;0.0684516578913;0;True;8;1;80.55000787228391
3;3;1449485325;2.12922883034;0.811434328556;0.0685633867979;0;True;8;1;80.55000787228391
4;4;1449485325;2.12920022011;0.8114052414890001;0.06843712925909999;0;True;8;1;80.55000787228391
5;5;1449485325;2.1292245388;0.8116456270219999;0.068341627717;0;True;8;1;80.55000787228391
6;6;1449485325;2.12923789024;0.811511218548;0.0684732496738;0;True;8;1;80.55000787228391
7;7;1449485325;2.12921857834;0.8114055991169999;0.06853464245799999;0;True;8;1;80.55000787228391
8;8;1449485325;2.12922692299;0.8114163875579999;0.0684309378266;0;True;8;1;80.55000787228391
9;9;1449485325;2.12923598289;0.811565756798;0.06844908744099999;0;True;8;1;80.55000787228391
10;10;1449485325;2.12920022011;0.811421573162;0.0684722065926;0;True;8;1;80.55000787228391
11;11;1449485325;2.1292214393599997;0.811526656151;0.0684482455254;0;True;8;1;80.55000787228391
12;12;1449485325;2.12921833992;0.8114891648289999;0.0684071630239;0;True;8;1;80.55000787228391
13;13;1449485325;2.12925362587;0.811568498611;0.0685343444347;0;True;8;1;80.55000787228391
14;14;1449485325;2.12922382355;0.811480939388;0.06836624443530001;0;True;8;1;80.55000787228391
15;15;1449485325;2.12919449806;0.8115032911300001;0.06859782338140001;0;True;8;1;80.55000787228391
16;16;1449485325;2.12922763824;0.811483323574;0.06845426559449999;0;True;8;1;80.55000787228391
17;17;1449485325;2.12915015221;0.811920464039;0.068321287632;0;True;8;1;80.55000787228391
18;18;1449485325;2.12923359871;0.811514317989;0.0684646517038;0;True;8;1;80.55000787228391
19;19;1449485325;2.12922859192;0.8116129040719999;0.0683969035745;0;True;8;1;80.55000787228391
20;20;1449485325;2.12920713425;0.8113126754760001;0.0685731470585;0;True;8;1;80.55000787228391
21;21;1449485325;2.1292283535;0.811527132988;0.06842187047;0;True;8;1;80.55000787228391
22;22;1449485325;2.1291246414200002;0.811814546585;0.06832046061750001;0;True;8;1;80.55000787228391
23;23;1449485325;2.12919807434;0.8116481900220001;0.06851027160880001;0;True;8;1;80.55000787228391
24;24;1449485325;2.1291821003;0.811558783054;0.0684702172875;0;True;8;1;80.55000787228391
25;25;1449485325;2.1292214393599997;0.8115035891529999;0.0683862641454;0;True;8;1;80.55000787228391
26;26;1449485325;2.12923240662;0.811788439751;0.06837414950130001;0;True;8;1;80.55000787228391
27;27;1449485325;2.12920665741;0.8115618228910001;0.0683344081044;0;True;8;1;80.55000787228391
28;28;1449485325;2.12915754318;0.811877071857;0.0682908073068;0;True;8;1;80.55000787228391
29;29;1449485325;2.12924051285;0.811498522758;0.0684568658471;0;True;8;1;80.55000787228391
30;30;1449485325;2.12920761108;0.811539232731;0.06844600290059999;0;True;8;1;80.55000787228391
31;31;1449485325;2.12918400764;0.811597526073;0.0683889091015;0;True;8;1;80.55000787228391
32;32;1449485325;2.12922406197;0.811517119408;0.0684340000153;0;True;8;1;80.55000787228391
33;33;1449485325;2.12916612625;0.811466217041;0.06838051229719999;0;True;8;1;80.55000787228391
34;34;1449485325;2.12921309471;0.8115283846860001;0.0684831812978;0;True;8;1;80.55000787228391
35;35;1449485325;2.12922120094;0.811490118504;0.0684305429459;0;True;8;1;80.55000787228391
36;36;1449485325;2.1292057037400003;0.811528563499;0.06846389174459999;0;True;8;1;80.55000787228391
37;37;1449485325;2.1291975975;0.8114991784100001;0.0683357864618;0;True;8;1;80.55000787228391
38;38;1449485325;2.12922000885;0.8115260005;0.068429723382;0;True;8;1;80.55000787228391
39;39;1449485325;2.12921333313;0.811505258083;0.06837689131500001;0;True;8;1;80.55000787228391
40;40;1449485325;2.12922525406;0.811564028263;0.06841610372069999;0;True;8;1;80.55000787228391
41;41;1449485325;2.12914776802;0.8114380836489999;0.0686082094908;0;True;8;1;80.55000787228391
42;42;1449485325;2.1292150020599996;0.811486005783;0.0683984458447;0;True;8;1;80.55000787228391
43;43;1449485325;2.12922906876;0.811885476112;0.0683411061764;0;True;8;1;80.55000787228391
44;44;1449485325;2.12920618057;0.811548709869;0.0683942735195;0;True;8;1;80.55000787228391
45;45;1449485325;2.1292226314500002;0.811553359032;0.0684973746538;0;True;8;1;80.55000787228391
46;46;1449485325;2.1292386055000003;0.811727464199;0.0684108957648;0;True;8;1;80.55000787228391
47;47;1449485325;2.1292219162;0.8115699291230001;0.0684710815549;0;True;8;1;80.55000787228391
48;48;1449485325;2.1291956901599995;0.811244904995;0.0685787051916;0;True;8;1;80.55000787228391
49;49;1449485325;2.1292169094099997;0.811547040939;0.0684160068631;0;True;8;1;80.55000787228391
50;50;1449485325;2.1292209625200003;0.811453163624;0.0685240924358;0;True;8;1;80.55000787228391
51;51;1449485325;2.12922763824;0.8115147948270001;0.068455465138;0;True;8;1;80.55000787228391
52;52;1449485325;2.12923598289;0.8114465475079999;0.0684912353754;0;True;8;1;80.55000787228391
53;53;1449485325;2.12922763824;0.8114790320399999;0.0684861019254;0;True;8;1;80.55000787228391
54;54;1449485325;2.12922000885;0.811544179916;0.0684074983001;0;True;8;1;80.55000787228391
55;55;1449485325;2.12912392616;0.8114645481110001;0.06847769767049999;0;True;8;1;80.55000787228391
56;56;1449485325;2.12918972969;0.811490833759;0.0685064643621;0;True;8;1;80.55000787228391
57;57;1449485325;2.12922167778;0.811523616314;0.0684194341302;0;True;8;1;80.55000787228391
58;58;1449485325;2.1292221546200003;0.8112109303470001;0.0683775395155;0;True;8;1;80.55000787228391
59;59;1449485325;2.1292109489400004;0.811559677124;0.0684301629663;0;True;8;1;80.55000787228391
60;60;1449485325;2.1290884017900003;0.8113688230509999;0.06865482032300001;0;True;8;1;80.55000787228391
61;61;1449485325;2.12921333313;0.8115680813789999;0.0684365779161;0;True;8;1;80.55000787228391
62;62;1449485325;2.12922692299;0.8116753697399999;0.06843554228540001;0;True;8;1;80.55000787228391
63;63;1449485325;2.1291058063499997;0.8114549517630001;0.0685020089149;0;True;8;1;80.55000787228391
64;64;1449485325;2.12921714783;0.811537742615;0.0683674663305;0;True;8;1;80.55000787228391
65;65;1449485325;2.12921738625;0.8115238547329999;0.0684256926179;0;True;8;1;80.55000787228391
66;66;1449485325;2.1292390823400003;0.8115208745;0.0684461221099;0;True;8;1;80.55000787228391
67;67;1449485325;2.12922048569;0.811913728714;0.0683474168181;0;True;8;1;80.55000787228391
68;68;1449485325;2.1292243003799998;0.811919271946;0.0683452114463;0;True;8;1;80.55000787228391
69;69;1449485325;2.12921190262;0.811492443085;0.0684077143669;0;True;8;1;80.55000787228391
70;70;1449485325;2.12915706635;0.811817288399;0.06830120831730001;0;True;8;1;80.55000787228391
71;71;1449485325;2.12920308113;0.811475336552;0.06846107542510001;0;True;8;1;80.55000787228391
72;72;1449485325;2.1292312145200003;0.81148660183;0.06841391325;0;True;8;1;80.55000787228391
73;73;1449485325;2.12923359871;0.811437129974;0.0684926137328;0;True;8;1;80.55000787228391
74;74;1449485325;2.12918496132;0.811349868774;0.0685845687985;0;True;8;1;80.55000787228391
75;75;1449485325;2.12924194336;0.8117890357969999;0.0684639960527;0;True;8;1;80.55000787228391
76;76;1449485325;2.1292257309;0.8115128874779999;0.06844134628769999;0;True;8;1;80.55000787228391
77;77;1449485325;2.12919521332;0.8111718893050001;0.0685800388455;0;True;8;1;80.55000787228391
78;78;1449485325;2.12919282913;0.811513841152;0.06852749735119999;0;True;8;1;80.55000787228391
79;79;1449485325;2.1292049884799997;0.811557769775;0.0685161873698;0;True;8;1;80.55000787228391
80;80;1449485325;2.12918519974;0.8114403486249999;0.0683903619647;0;True;8;1;80.55000787228391
81;81;1449485325;2.1291322708099996;0.8116416335109999;0.0684251859784;0;True;8;1;80.55000787228391
82;82;1449485325;2.12921071053;0.811513602734;0.0684256926179;0;True;8;1;80.55000787228391
83;83;1449485325;2.12915754318;0.8118789792059999;0.068295173347;0;True;8;1;80.55000787228391
84;84;1449485325;2.12922382355;0.81153345108;0.06841116398569999;0;True;8;1;80.55000787228391
85;85;1449485325;2.12923002243;0.811526119709;0.0684346184134;0;True;8;1;80.55000787228391
86;86;1449485325;2.12922000885;0.811479866505;0.0683964788914;0;True;8;1;80.55000787228391
87;87;1449485325;2.12921905518;0.81138497591;0.0685036480427;0;True;8;1;80.55000787228391
88;88;1449485325;2.1292073726700003;0.8113869428630001;0.068505294621;0;True;8;1;80.55000787228391
89;89;1449485325;2.1292209625200003;0.811438202858;0.0685143843293;0;True;8;1;80.55000787228391
90;90;1449485325;2.12915420532;0.811493217945;0.068566121161;0;True;8;1;80.55000787228391
91;91;1449485325;2.12923431396;0.8115056753159999;0.0684587359428;0;True;8;1;80.55000787228391
92;92;1449485325;2.1291806697799998;0.811488032341;0.06837513297799999;0;True;8;1;80.55000787228391
93;93;1449485325;2.12919378281;0.811198830605;0.0685720741749;0;True;8;1;80.55000787228391
94;94;1449485325;2.12923979759;0.811485350132;0.06849353760480001;0;True;8;1;80.55000787228391
95;95;1449485325;2.12915062904;0.811883091927;0.06830601394180001;0;True;8;1;80.55000787228391
96;96;1449485325;2.12916994095;0.811512410641;0.06840061396359999;0;True;8;1;80.55000787228391
97;97;1449485325;2.1292142868;0.8114654421809999;0.0684667900205;0;True;8;1;80.55000787228391
98;98;1449485325;2.12920308113;0.811452746391;0.06855066865680001;0;True;8;1;80.55000787228391
99;99;1449485325;2.12917804718;0.811242938042;0.0685660541058;0;True;8;1;80.55000787228391
100;100;1449485325;2.12924385071;0.811501145363;0.0684706643224;0;True;8;1;80.55000787228391
101;101;1449485325;2.12922549248;0.81148815155;0.0684020593762;0;True;8;1;80.55000787228391
102;102;1449485325;2.1291408538799996;0.811479508877;0.068579107523;0;True;8;1;80.55000787228391
103;103;1449485325;2.12922883034;0.8113999366760001;0.0684187933803;0;True;8;1;80.55000787228391
104;104;1449485325;2.12918400764;0.811503648758;0.06851521134380001;0;True;8;1;80.55000787228391
105;105;1449485325;2.12922477722;0.8114379644390001;0.06849676370619999;0;True;8;1;80.55000787228391
106;106;1449485325;2.12915372849;0.811314582825;0.0685348436236;0;True;8;1;80.55000787228391
107;107;1449485325;2.1292412281;0.8114970922470001;0.0684402659535;0;True;8;1;80.55000787228391
108;108;1449485325;2.12919521332;0.811271905899;0.0683497786522;0;True;8;1;80.55000787228391
109;109;1449485325;2.12920832634;0.8116228580470001;0.06833704561000001;0;True;8;1;80.55000787228391
110;110;1449485325;2.1292102336900003;0.811415672302;0.0684104263783;0;True;8;1;80.55000787228391
111;111;1449485325;2.12918639183;0.8114257454870001;0.06851007789369999;0;True;8;1;80.55000787228391
112;112;1449485325;2.1292090416;0.811426103115;0.0684605836868;0;True;8;1;80.55000787228391
113;113;1449485325;2.1292195320099996;0.8113087415700001;0.0684026926756;0;True;8;1;80.55000787228391
114;114;1449485325;2.1292154789;0.81153178215;0.0684214606881;0;True;8;1;80.55000787228391
115;115;1449485325;2.12920713425;0.8115130662919999;0.0684821158648;0;True;8;1;80.55000787228391
116;116;1449485325;2.12919235229;0.8114530444149999;0.06835899502039999;0;True;8;1;80.55000787228391
117;117;1449485325;2.12922501564;0.811427414417;0.06848664581780001;0;True;8;1;80.55000787228391
118;118;1449485325;2.12922620773;0.8114969730380001;0.0684336796403;0;True;8;1;80.55000787228391
119;119;1449485325;2.12914633751;0.8114851713179999;0.0684583261609;0;True;8;1;80.55000787228391
120;120;1449485325;2.1292123794599997;0.811494708061;0.0684503465891;0;True;8;1;80.55000787228391
121;121;1449485325;2.12920022011;0.8111954927439999;0.0683681592345;0;True;8;1;80.55000787228391
122;122;1449485325;2.12922024727;0.811587929726;0.06838548183439999;0;True;8;1;80.55000787228391
123;123;1449485325;2.12920236588;0.811423659325;0.068403929472;0;True;8;1;80.55000787228391
124;124;1449485325;2.12919735909;0.811327040195;0.068447701633;0;True;8;1;80.55000787228391
125;125;1449485325;2.12921190262;0.811464190483;0.06846473366019999;0;True;8;1;80.55000787228391
126;126;1449485325;2.12922000885;0.8115004897120001;0.0684232711792;0;True;8;1;80.55000787228391
127;127;1449485325;2.12921380997;0.811488091946;0.068390570581;0;True;8;1;80.55000787228391
128;128;1449485325;2.12917685509;0.8114427328110001;0.068373568356;0;True;8;1;80.55000787228391
129;129;1449485325;2.12918543816;0.811456501484;0.0684612989426;0;True;8;1;80.55000787228391
130;130;1449485325;2.1291394233700003;0.8119100332260001;0.0682905241847;0;True;8;1;80.55000787228391
131;131;1449485325;2.12919211388;0.811250209808;0.06850947439669999;0;True;8;1;80.55000787228391
132;132;1449485325;2.1292207241099996;0.811883926392;0.06832200288769999;0;True;8;1;80.55000787228391
133;133;1449485325;2.1292295455900003;0.8116813898090001;0.0684087797999;0;True;8;1;80.55000787228391
134;134;1449485325;2.1291770935099996;0.811447501183;0.068351753056;0;True;8;1;80.55000787228391
135;135;1449485325;2.1291878223400005;0.811524033546;0.06846144795419999;0;True;8;1;80.55000787228391
136;136;1449485325;2.12921762466;0.8114496469499999;0.0685043931007;0;True;8;1;80.55000787228391
137;137;1449485325;2.12916469574;0.811468541622;0.068449690938;0;True;8;1;80.55000787228391
138;138;1449485325;2.12920236588;0.811538159847;0.06830041110519999;0;True;8;1;80.55000787228391
139;139;1449485325;2.12917208672;0.811414897442;0.0685052201152;0;True;8;1;80.55000787228391
140;140;1449485325;2.12921643257;0.811477303505;0.06850197911259999;0;True;8;1;80.55000787228391
141;141;1449485325;2.12918901443;0.811392486095;0.0684995949268;0;True;8;1;80.55000787228391
142;142;1449485325;2.12915754318;0.811817765236;0.06828434020280001;0;True;8;1;80.55000787228391
143;143;1449485325;2.1292052269;0.811543166637;0.06833543628449999;0;True;8;1;80.55000787228391
144;144;1449485325;2.12915062904;0.811494588852;0.0685263052583;0;True;8;1;80.55000787228391
145;145;1449485325;2.1292102336900003;0.8114462494850001;0.0685058012605;0;True;8;1;80.55000787228391
146;146;1449485325;2.12922334671;0.811488807201;0.0683881267905;0;True;8;1;80.55000787228391
147;147;1449485325;2.12919974327;0.811496913433;0.0683346614242;0;True;8;1;80.55000787228391
148;148;1449485325;2.12920880318;0.8116659522059999;0.068317130208;0;True;8;1;80.55000787228391
149;149;1449485325;2.12914037704;0.81187081337;0.0682911649346;0;True;8;1;80.55000787228391
150;150;1449485325;2.12921881676;0.811499416828;0.0685402899981;0;True;8;1;80.55000787228391
151;151;1449485325;2.1292407512700002;0.811514317989;0.0684439912438;0;True;8;1;80.55000787228391
152;152;1449485325;2.12922120094;0.811522364616;0.0684229582548;0;True;8;1;80.55000787228391
153;153;1449485325;2.12918567657;0.81136983633;0.0685542300344;0;True;8;1;80.55000787228391
154;154;1449485325;2.1292266845700003;0.811892271042;0.0683466494083;0;True;8;1;80.55000787228391
155;155;1449485325;2.1292078494999997;0.811708211899;0.0683211311698;0;True;8;1;80.55000787228391
156;156;1449485325;2.1292321681999997;0.8119222521780001;0.0683420747519;0;True;8;1;80.55000787228391
157;157;1449485325;2.12908697128;0.8114374279979999;0.06847994029519999;0;True;8;1;80.55000787228391
158;158;1449485325;2.12921786308;0.811529040337;0.0684312433004;0;True;8;1;80.55000787228391
159;159;1449485325;2.1292390823400003;0.811897814274;0.0683468207717;0;True;8;1;80.55000787228391
160;160;1449485325;2.12922334671;0.8115074038510001;0.0684368610382;0;True;8;1;80.55000787228391
161;161;1449485325;2.1292352676400004;0.8114987611769999;0.06839492172;0;True;8;1;80.55000787228391
162;162;1449485325;2.12919712067;0.811486005783;0.0685055926442;0;True;8;1;80.55000787228391
163;163;1449485325;2.1292181015000002;0.811494529247;0.0683865398169;0;True;8;1;80.55000787228391
164;164;1449485325;2.1292073726700003;0.811130821705;0.06840140372510001;0;True;8;1;80.55000787228391
165;165;1449485325;2.1292095184299997;0.811464309692;0.0683575198054;0;True;8;1;80.55000787228391
166;166;1449485325;2.12922477722;0.81189596653;0.0683274045587;0;True;8;1;80.55000787228391
167;167;1449485325;2.12916398048;0.811505615711;0.0686311647296;0;True;8;1;80.55000787228391
168;168;1449485325;2.12916350365;0.811870992184;0.06828833371399999;0;True;8;1;80.55000787228391
169;169;1449485325;2.1291916370400004;0.8114247322079999;0.0683675557375;0;True;8;1;80.55000787228391
170;170;1449485325;2.12920999527;0.8115699887279999;0.0684748589993;0;True;8;1;80.55000787228391
171;171;1449485325;2.12923264503;0.811401546001;0.0684695839882;0;True;8;1;80.55000787228391
172;172;1449485325;2.12921071053;0.811203062534;0.0683593675494;0;True;8;1;80.55000787228391
173;173;1449485325;2.1292207241099996;0.811470031738;0.0684008225799;0;True;8;1;80.55000787228391
174;174;1449485325;2.12922167778;0.811441302299;0.068399310112;0;True;8;1;80.55000787228391
175;175;1449485325;2.1291995048500003;0.811435878277;0.0685287043452;0;True;8;1;80.55000787228391
176;176;1449485325;2.1292321681999997;0.811365962029;0.0684624686837;0;True;8;1;80.55000787228391
177;177;1449485325;2.1292207241099996;0.8114076256749999;0.068391405046;0;True;8;1;80.55000787228391
178;178;1449485325;2.12922334671;0.811651110649;0.0684218257666;0;True;8;1;80.55000787228391
179;179;1449485325;2.12916469574;0.8118195533750001;0.06829322874549999;0;True;8;1;80.55000787228391
180;180;1449485325;2.1292295455900003;0.81139755249;0.0684992223978;0;True;8;1;80.55000787228391
181;181;1449485325;2.1291911602;0.8115238547329999;0.0684899166226;0;True;8;1;80.55000787228391
182;182;1449485325;2.12915110588;0.811898112297;0.0683042183518;0;True;8;1;80.55000787228391
183;183;1449485325;2.12923240662;0.8115668296809999;0.06843900680540001;0;True;8;1;80.55000787228391
184;184;1449485325;2.12918949127;0.811417937279;0.0684099942446;0;True;8;1;80.55000787228391
185;185;1449485325;2.12923192978;0.81153690815;0.0683771297336;0;True;8;1;80.55000787228391
186;186;1449485325;2.12928247452;0.811243951321;0.06846296787259999;0;True;8;1;80.55000787228391
187;187;1449485325;2.1292195320099996;0.8115353584289999;0.0683850571513;0;True;8;1;80.55000787228391
188;188;1449485325;2.12923884392;0.811503231525;0.06847763806580001;0;True;8;1;80.55000787228391
189;189;1449485325;2.12915706635;0.8115171790119999;0.0684605836868;0;True;8;1;80.55000787228391
190;190;1449485325;2.12922024727;0.81155192852;0.0683672428131;0;True;8;1;80.55000787228391
191;191;1449485325;2.1292407512700002;0.811516940594;0.068445622921;0;True;8;1;80.55000787228391
192;192;1449485325;2.1292445659599997;0.811601698399;0.06839964538809999;0;True;8;1;80.55000787228391
193;193;1449485325;2.12925887108;0.811596274376;0.0685233846307;0;True;8;1;80.55000787228391
194;194;1449485325;2.12923383713;0.8114918470379999;0.0684370025992;0;True;8;1;80.55000787228391
195;195;1449485325;2.1292355060599997;0.8114963769910001;0.0684162825346;0;True;8;1;80.55000787228391
196;196;1449485325;2.12923049927;0.8116530776019999;0.068348094821;0;True;8;1;80.55000787228391
197;197;1449485325;2.12917947769;0.811463773251;0.06841617822650001;0;True;8;1;80.55000787228391
198;198;1449485325;2.12922310829;0.8111265897750001;0.0684081539512;0;True;8;1;80.55000787228391
199;199;1449485325;2.12923383713;0.8115171790119999;0.0684451982379;0;True;8;1;80.55000787228391
200;200;1449485325;2.12921595573;0.8116781115530001;0.0683280304074;0;True;8;1;80.55000787228391
201;201;1449485325;2.1292407512700002;0.81153100729;0.06845489144330001;0;True;8;1;80.55000787228391
202;202;1449485325;2.12923431396;0.811453461647;0.06838843971490001;0;True;8;1;80.55000787228391
203;203;1449485325;2.12916350365;0.811292767525;0.0685789659619;0;True;8;1;80.55000787228391
204;204;1449485325;2.12923049927;0.8114997744560001;0.0684029236436;0;True;8;1;80.55000787228391
205;205;1449485325;2.12923431396;0.811532855034;0.06844583153719999;0;True;8;1;80.55000787228391
206;206;1449485325;2.12923288345;0.811438679695;0.0684223845601;0;True;8;1;80.55000787228391
207;207;1449485325;2.1291637420700003;0.811947226524;0.0683275982738;0;True;8;1;80.55000787228391
208;208;1449485325;2.12923288345;0.8114865422249999;0.06851142644880001;0;True;8;1;80.55000787228391
209;209;1449485325;2.1292221546200003;0.8112789392470001;0.06845999509100001;0;True;8;1;80.55000787228391
210;210;1449485325;2.12923884392;0.8113246560100001;0.06844869256019999;0;True;8;1;80.55000787228391
211;211;1449485325;2.12920856476;0.811471223831;0.06847324222330001;0;True;8;1;80.55000787228391
212;212;1449485325;2.12922024727;0.811572253704;0.0684458389878;0;True;8;1;80.55000787228391
213;213;1449485325;2.12922239304;0.8113239407539999;0.0685694441199;0;True;8;1;80.55000787228391
214;214;1449485325;2.12924551964;0.811525344849;0.0684554353356;0;True;8;1;80.55000787228391
215;215;1449485325;2.12925338745;0.811654627323;0.06849771738049999;0;True;8;1;80.55000787228391
216;216;1449485325;2.1292309761;0.81152766943;0.06846688687800001;0;True;8;1;80.55000787228391
217;217;1449485325;2.12920618057;0.81142860651;0.0684167891741;0;True;8;1;80.55000787228391
218;218;1449485325;2.12919425964;0.811562478542;0.0685259848833;0;True;8;1;80.55000787228391
219;219;1449485325;2.12922859192;0.811174333096;0.0683901906013;0;True;8;1;80.55000787228391
220;220;1449485325;2.1292281150799997;0.811572432518;0.0684258267283;0;True;8;1;80.55000787228391
221;221;1449485325;2.1294503212;0.811542749405;0.0685537755489;0;True;8;1;80.55000787228391
222;222;1449485325;2.12925195694;0.8115423917769999;0.0684314370155;0;True;8;1;80.55000787228391
223;223;1449485325;2.12909889221;0.811640024185;0.0686018466949;0;True;8;1;80.55000787228391
224;224;1449485325;2.12920379639;0.8114123344419999;0.068449318409;0;True;8;1;80.55000787228391
225;225;1449485325;2.12906599045;0.8118473887440001;0.0684477388859;0;True;8;1;80.55000787228391
226;226;1449485326;2.12921261787;0.811485469341;0.0684795752168;1;True;8;1;80.55000787228391
227;227;1449485326;2.1292345523800003;0.811525762081;0.0684448853135;1;True;8;1;80.55000787228391
228;228;1449485326;2.12923717499;0.81145209074;0.0684856176376;1;True;8;1;80.55000787228391
229;229;1449485326;2.1292226314500002;0.811640501022;0.0683812052011;1;True;8;1;80.55000787228391
230;230;1449485326;2.12924170494;0.811422467232;0.0684553235769;1;True;8;1;80.55000787228391
231;231;1449485326;2.12923383713;0.8114861845970001;0.06845921278;1;True;8;1;80.55000787228391
232;232;1449485326;2.12920284271;0.811528861523;0.06835566461090001;1;True;8;1;80.55000787228391
233;233;1449485326;2.12924313545;0.811467111111;0.0684700906277;1;True;8;1;80.55000787228391
234;234;1449485326;2.12925934792;0.811662197113;0.0684911906719;1;True;8;1;80.55000787228391
235;235;1449485326;2.12922644615;0.811637759209;0.0684238448739;1;True;8;1;80.55000787228391
236;236;1449485326;2.12922692299;0.811529159546;0.068420574069;1;True;8;1;80.55000787228391
237;237;1449485326;2.1292219162;0.811503410339;0.06845682859419999;1;True;8;1;80.55000787228391
238;238;1449485326;2.1291434764900004;0.8118018507960001;0.0682956799865;1;True;8;1;80.55000787228391
239;239;1449485326;2.12919139862;0.811524450779;0.06836340576410001;1;True;8;1;80.55000787228391
240;240;1449485326;2.1292142868;0.811441838741;0.0683960318565;1;True;8;1;80.55000787228391
241;241;1449485326;2.1292009353599997;0.8115468025210001;0.06855593621730001;1;True;8;1;80.55000787228391
242;242;1449485326;2.1291449069999997;0.811845004559;0.0682717114687;1;True;8;1;80.55000787228391
243;243;1449485326;2.1292219162;0.811650216579;0.06838427484040001;1;True;8;1;80.55000787228391
244;244;1449485326;2.12920284271;0.811482846737;0.0684675350785;1;True;8;1;80.55000787228391
245;245;1449485326;2.12920475006;0.811447918415;0.0684482306242;1;True;8;1;80.55000787228391
246;246;1449485326;2.12911653519;0.81190007925;0.0683034956455;1;True;8;1;80.55000787228391
247;247;1449485326;2.12918019295;0.811080813408;0.0683868825436;1;True;8;1;80.55000787228391
248;248;1449485326;2.1291437149;0.8118963241580001;0.0682788789272;1;True;8;1;80.55000787228391
249;249;1449485326;2.12913107872;0.8118882775309999;0.0682750195265;1;True;8;1;80.55000787228391
250;250;1449485326;2.1291875839200003;0.811456024647;0.0683924630284;1;True;8;1;80.55000787228391
251;251;1449485326;2.1291878223400005;0.8116592764849999;0.0683009028435;1;True;8;1;80.55000787228391
252;252;1449485326;2.12918686867;0.811425089836;0.0684007555246;1;True;8;1;80.55000787228391
253;253;1449485326;2.12916898727;0.811444461346;0.06834726035590001;1;True;8;1;80.55000787228391
254;254;1449485326;2.12916398048;0.811185240746;0.06853247433899999;1;True;8;1;80.55000787228391
255;255;1449485326;2.12900161743;0.811530292034;0.0684950947762;1;True;8;1;80.55000787228391
256;256;1449485326;2.12914204597;0.8115264177320001;0.0684487819672;1;True;8;1;80.55000787228391
257;257;1449485326;2.1291756629900003;0.81134980917;0.0685969442129;1;True;8;1;80.55000787228391
258;258;1449485326;2.1291091442099996;0.8115040659899999;0.06858675926919999;1;True;8;1;80.55000787228391
259;259;1449485326;2.12919211388;0.8115515112880001;0.06840293854480001;1;True;8;1;80.55000787228391
260;260;1449485326;2.12917733192;0.8114688396449999;0.0684425160289;1;True;8;1;80.55000787228391
261;261;1449485326;2.1292004585299997;0.811523258686;0.06843201816080001;1;True;8;1;80.55000787228391
262;262;1449485326;2.12913012505;0.811735033989;0.06838570535180001;1;True;8;1;80.55000787228391
263;263;1449485326;2.1291873455;0.811091899872;0.0683733075857;1;True;8;1;80.55000787228391
264;264;1449485326;2.1292109489400004;0.811405062675;0.06843508034939999;1;True;8;1;80.55000787228391
265;265;1449485326;2.12919807434;0.8114269375800001;0.06837737560269999;1;True;8;1;80.55000787228391
266;266;1449485326;2.1291959285699997;0.811493337154;0.0684621408582;1;True;8;1;80.55000787228391
267;267;1449485326;2.12918353081;0.811522424221;0.0684912353754;1;True;8;1;80.55000787228391
268;268;1449485326;2.12914681435;0.811617672443;0.06839490681890001;1;True;8;1;80.55000787228391
269;269;1449485326;2.1291995048500003;0.811440885067;0.06851261109109999;1;True;8;1;80.55000787228391
270;270;1449485326;2.12920308113;0.8114884495739999;0.0683805420995;1;True;8;1;80.55000787228391
271;271;1449485326;2.12921571732;0.8114369511599999;0.0684143900871;1;True;8;1;80.55000787228391
272;272;1449485326;2.1291821003;0.811391592026;0.0685994550586;1;True;8;1;80.55000787228391
273;273;1449485326;2.1291685104400004;0.811472296715;0.0683816894889;1;True;8;1;80.55000787228391
274;274;1449485326;2.1292095184299997;0.811524927616;0.0683703944087;1;True;8;1;80.55000787228391
275;275;1449485326;2.12922310829;0.811513781548;0.068437948823;1;True;8;1;80.55000787228391
276;276;1449485326;2.12922787666;0.811482131481;0.0684600770473;1;True;8;1;80.55000787228391
277;277;1449485326;2.12919020653;0.8115495443340001;0.06839454919099999;1;True;8;1;80.55000787228391
278;278;1449485326;2.12924170494;0.8117936253550001;0.068415351212;1;True;8;1;80.55000787228391
279;279;1449485326;2.1292281150799997;0.811528921127;0.0684356763959;1;True;8;1;80.55000787228391
280;280;1449485326;2.12918281555;0.8114801645280001;0.0683935135603;1;True;8;1;80.55000787228391
281;281;1449485326;2.1292390823400003;0.811516821384;0.0684402361512;1;True;8;1;80.55000787228391
282;282;1449485326;2.12922716141;0.811483621597;0.0684625133872;1;True;8;1;80.55000787228391
283;283;1449485326;2.12916707993;0.811521112919;0.06851966679100001;1;True;8;1;80.55000787228391
284;284;1449485326;2.12923502922;0.811889231205;0.0683532133698;1;True;8;1;80.55000787228391
285;285;1449485326;2.1292235851299997;0.811533510685;0.0683744028211;1;True;8;1;80.55000787228391
286;286;1449485326;2.12915039062;0.811835706234;0.0683201625943;1;True;8;1;80.55000787228391
287;287;1449485326;2.12923312187;0.8116855621340001;0.0684566646814;1;True;8;1;80.55000787228391
288;288;1449485326;2.12923240662;0.811412513256;0.0685097277164;1;True;8;1;80.55000787228391
289;289;1449485326;2.12920999527;0.8115592002869999;0.0685161873698;1;True;8;1;80.55000787228391
290;290;1449485326;2.12922620773;0.811779141426;0.06837757676839999;1;True;8;1;80.55000787228391
291;291;1449485326;2.1292259693099997;0.811483204365;0.0684381574392;1;True;8;1;80.55000787228391
292;292;1449485326;2.12922525406;0.811414003372;0.0684426352382;1;True;8;1;80.55000787228391
293;293;1449485326;2.1291809082;0.8114229440690001;0.0683955028653;1;True;8;1;80.55000787228391
294;294;1449485326;2.1291637420700003;0.8118421435359999;0.06830231100319999;1;True;8;1;80.55000787228391
295;295;1449485326;2.12915468216;0.811845064163;0.0682974085212;1;True;8;1;80.55000787228391
296;296;1449485326;2.12922120094;0.811416506767;0.0684500262141;1;True;8;1;80.55000787228391
297;297;1449485326;2.12922477722;0.811431109905;0.06847087293859999;1;True;8;1;80.55000787228391
298;298;1449485326;2.12921333313;0.811553120613;0.06843341887;1;True;8;1;80.55000787228391
299;299;1449485326;2.12922310829;0.8114883899690001;0.0684755519032;1;True;8;1;80.55000787228391
300;300;1449485326;2.1292312145200003;0.811494290829;0.0684658288956;1;True;8;1;80.55000787228391
301;301;1449485326;2.12920594215;0.8114791512489999;0.0684034004807;1;True;8;1;80.55000787228391
302;302;1449485326;2.12920594215;0.811317324638;0.0684662163258;1;True;8;1;80.55000787228391
303;303;1449485326;2.12920975685;0.8115155100820001;0.06839577853680001;1;True;8;1;80.55000787228391
304;304;1449485326;2.12914729118;0.811871409416;0.0682990476489;1;True;8;1;80.55000787228391
305;305;1449485326;2.1291744709000002;0.811486005783;0.0684795230627;1;True;8;1;80.55000787228391
306;306;1449485326;2.1292243003799998;0.8114830255509999;0.0684735104442;1;True;8;1;80.55000787228391
307;307;1449485326;2.1292111873599997;0.811420977116;0.0684672966599;1;True;8;1;80.55000787228391
308;308;1449485326;2.12922477722;0.81153023243;0.06843921542169999;1;True;8;1;80.55000787228391
309;309;1449485326;2.12917685509;0.811425089836;0.0684827193618;1;True;8;1;80.55000787228391
310;310;1449485326;2.12921142578;0.811499595642;0.0684974864125;1;True;8;1;80.55000787228391
311;311;1449485326;2.1292169094099997;0.811426818371;0.06844037771219999;1;True;8;1;80.55000787228391
312;312;1449485326;2.12921786308;0.811254262924;0.0684333369136;1;True;8;1;80.55000787228391
313;313;1449485326;2.1292111873599997;0.811292350292;0.0684378370643;1;True;8;1;80.55000787228391
314;314;1449485326;2.1292257309;0.8115312457080001;0.06839607656;1;True;8;1;80.55000787228391
315;315;1449485326;2.12922000885;0.811533093452;0.0684183761477;1;True;8;1;80.55000787228391
316;316;1449485326;2.12922859192;0.811424672604;0.068444378674;1;True;8;1;80.55000787228391
317;317;1449485326;2.12920284271;0.8113973140719999;0.068442068994;1;True;8;1;80.55000787228391
318;318;1449485326;2.12922930717;0.8114990592;0.06847712397580001;1;True;8;1;80.55000787228391
319;319;1449485326;2.1292243003799998;0.8114939928049999;0.0684703961015;1;True;8;1;80.55000787228391
320;320;1449485326;2.12920165062;0.811557352543;0.0683450400829;1;True;8;1;80.55000787228391
321;321;1449485326;2.12920761108;0.811320841312;0.0684804394841;1;True;8;1;80.55000787228391
322;322;1449485326;2.1291568279299997;0.8114718794820001;0.0685440078378;1;True;8;1;80.55000787228391
323;323;1449485326;2.12922310829;0.8115033507350001;0.0684456601739;1;True;8;1;80.55000787228391
324;324;1449485326;2.1291482448599997;0.811922550201;0.06831085681919999;1;True;8;1;80.55000787228391
325;325;1449485326;2.12923645973;0.811576664448;0.0685031935573;1;True;8;1;80.55000787228391
326;326;1449485326;2.12919688225;0.811571061611;0.068345926702;1;True;8;1;80.55000787228391
327;327;1449485326;2.12923884392;0.811487436295;0.06847496330740001;1;True;8;1;80.55000787228391
328;328;1449485326;2.1290085315700003;0.811620891094;0.0687400400639;1;True;8;1;80.55000787228391
329;329;1449485326;2.12918400764;0.8114571571349999;0.0683697983623;1;True;8;1;80.55000787228391
330;330;1449485326;2.12911891937;0.811502635479;0.0686238482594;1;True;8;1;80.55000787228391
331;331;1449485326;2.12923789024;0.811676561832;0.068459123373;1;True;8;1;80.55000787228391
332;332;1449485326;2.1291999816900002;0.811649680138;0.06832391768690001;1;True;8;1;80.55000787228391
333;333;1449485326;2.1292266845700003;0.8118876814839999;0.0683496370912;1;True;8;1;80.55000787228391
334;334;1449485326;2.1291844844799996;0.811457812786;0.0683798417449;1;True;8;1;80.55000787228391
335;335;1449485326;2.12922310829;0.811421871185;0.0684103295207;1;True;8;1;80.55000787228391
336;336;1449485326;2.12916898727;0.8111789226530001;0.0685773342848;1;True;8;1;80.55000787228391
337;337;1449485326;2.12922930717;0.8114243149760001;0.0684170201421;1;True;8;1;80.55000787228391
338;338;1449485326;2.1292123794599997;0.8116714358329999;0.0683210119605;1;True;8;1;80.55000787228391
339;339;1449485326;2.12919783592;0.8115382790569999;0.0685057640076;1;True;8;1;80.55000787228391
340;340;1449485326;2.12921309471;0.811416625977;0.06839981675149999;1;True;8;1;80.55000787228391
341;341;1449485326;2.12923574448;0.8115223050120001;0.0684445127845;1;True;8;1;80.55000787228391
342;342;1449485326;2.1292169094099997;0.8116115331649999;0.0683864876628;1;True;8;1;80.55000787228391
343;343;1449485326;2.1291685104400004;0.811420440674;0.0684820264578;1;True;8;1;80.55000787228391
344;344;1449485326;2.12921214104;0.811589896679;0.06846477836369999;1;True;8;1;80.55000787228391
345;345;1449485326;2.1291790008500002;0.811275660992;0.06854417920110001;1;True;8;1;80.55000787228391
346;346;1449485326;2.12918639183;0.811525583267;0.0685007944703;1;True;8;1;80.55000787228391
347;347;1449485326;2.1292295455900003;0.81154102087;0.068513199687;1;True;8;1;80.55000787228391
348;348;1449485326;2.12922978401;0.811889827251;0.06833492219449999;1;True;8;1;80.55000787228391
349;349;1449485326;2.1291480064400004;0.8118637800220001;0.0683059170842;1;True;8;1;80.55000787228391
350;350;1449485326;2.1292169094099997;0.811425447464;0.0683965906501;1;True;8;1;80.55000787228391
351;351;1449485326;2.12918639183;0.811447203159;0.0683814585209;1;True;8;1;80.55000787228391
352;352;1449485326;2.1292245388;0.811504542828;0.0684407129884;1;True;8;1;80.55000787228391
353;353;1449485326;2.12923169136;0.811848640442;0.0683183595538;1;True;8;1;80.55000787228391
354;354;1449485326;2.12922406197;0.8119140267370001;0.068338021636;1;True;8;1;80.55000787228391
355;355;1449485326;2.12919712067;0.811548769474;0.0683317258954;1;True;8;1;80.55000787228391
356;356;1449485326;2.1292009353599997;0.811427533627;0.0683946982026;1;True;8;1;80.55000787228391
357;357;1449485326;2.12914299965;0.8118495345119999;0.0682817846537;1;True;8;1;80.55000787228391
358;358;1449485326;2.1291873455;0.8113074898720001;0.0684483423829;1;True;8;1;80.55000787228391
359;359;1449485326;2.1291949749000003;0.811519861221;0.06836878508330001;1;True;8;1;80.55000787228391
360;360;1449485326;2.12921857834;0.8114904761310001;0.06847495585680001;1;True;8;1;80.55000787228391
361;361;1449485326;2.1292004585299997;0.8113126754760001;0.0684698671103;1;True;8;1;80.55000787228391
362;362;1449485326;2.12924957275;0.811638772488;0.06843224912880001;1;True;8;1;80.55000787228391
363;363;1449485326;2.12916922569;0.811593592167;0.0683347061276;1;True;8;1;80.55000787228391
364;364;1449485326;2.1291615963;0.8113086819650001;0.0685418397188;1;True;8;1;80.55000787228391
365;365;1449485326;2.12920308113;0.8115149140360001;0.06837047636509999;1;True;8;1;80.55000787228391
366;366;1449485326;2.1292045116400002;0.81150829792;0.06843805313109999;1;True;8;1;80.55000787228391
367;367;1449485326;2.12919831276;0.811467051506;0.0683922544122;1;True;8;1;80.55000787228391
368;368;1449485326;2.1292181015000002;0.8115006089210001;0.0684635490179;1;True;8;1;80.55000787228391
369;369;1449485326;2.12922525406;0.8114931583399999;0.0684641823173;1;True;8;1;80.55000787228391
370;370;1449485326;2.12915229797;0.8114878535269999;0.0685799717903;1;True;8;1;80.55000787228391
371;371;1449485326;2.12920665741;0.811511218548;0.0684324130416;1;True;8;1;80.55000787228391
372;372;1449485326;2.12920618057;0.811164915562;0.0683595091105;1;True;8;1;80.55000787228391
373;373;1449485326;2.12919235229;0.811519384384;0.0684433802962;1;True;8;1;80.55000787228391
374;374;1449485326;2.1291964054099997;0.811569750309;0.0684674009681;1;True;8;1;80.55000787228391
375;375;1449485326;2.1292102336900003;0.811766982079;0.0684505477548;1;True;8;1;80.55000787228391
376;376;1449485326;2.12921380997;0.811511695385;0.0684563815594;1;True;8;1;80.55000787228391
377;377;1449485326;2.12918543816;0.8116686940189999;0.0684980601072;1;True;8;1;80.55000787228391
378;378;1449485326;2.1291475296;0.811849892139;0.06828217953440001;1;True;8;1;80.55000787228391
379;379;1449485326;2.12920546532;0.811494410038;0.0683784857392;1;True;8;1;80.55000787228391
380;380;1449485326;2.1292169094099997;0.811928033829;0.06834562867880001;1;True;8;1;80.55000787228391
381;381;1449485326;2.12911748886;0.8118181824680001;0.0683039799333;1;True;8;1;80.55000787228391
382;382;1449485326;2.12916970253;0.8115931153300001;0.0684509128332;1;True;8;1;80.55000787228391
383;383;1449485326;2.12921190262;0.811361670494;0.0684427767992;1;True;8;1;80.55000787228391
384;384;1449485326;2.1292004585299997;0.8114110231399999;0.0684553533792;1;True;8;1;80.55000787228391
385;385;1449485326;2.1291859149900003;0.8114875555040001;0.0683352872729;1;True;8;1;80.55000787228391
386;386;1449485326;2.12921404839;0.811759591103;0.0683701708913;1;True;8;1;80.55000787228391
387;387;1449485326;2.12918996811;0.811666607857;0.06831141561269999;1;True;8;1;80.55000787228391
388;388;1449485326;2.1291878223400005;0.811534166336;0.0683202594519;1;True;8;1;80.55000787228391
389;389;1449485326;2.12921714783;0.81155115366;0.0684900730848;1;True;8;1;80.55000787228391
390;390;1449485326;2.12918877602;0.8115488290790001;0.0683957636356;1;True;8;1;80.55000787228391
391;391;1449485326;2.1292035579700004;0.8115056753159999;0.0684055611491;1;True;8;1;80.55000787228391
392;392;1449485326;2.1292309761;0.811563551426;0.0684635564685;1;True;8;1;80.55000787228391
393;393;1449485326;2.12921261787;0.811475872993;0.0684365406632;1;True;8;1;80.55000787228391
394;394;1449485326;2.12919712067;0.811537027359;0.0684305950999;1;True;8;1;80.55000787228391
395;395;1449485326;2.1291410923;0.811897516251;0.06828803569080001;1;True;8;1;80.55000787228391
396;396;1449485326;2.12919712067;0.811480104923;0.06840100139380001;1;True;8;1;80.55000787228391
397;397;1449485326;2.1291954517400002;0.811473250389;0.0684099271894;1;True;8;1;80.55000787228391
398;398;1449485326;2.12919139862;0.811561763287;0.0684739053249;1;True;8;1;80.55000787228391
399;399;1449485326;2.1291449069999997;0.811412513256;0.0683894827962;1;True;8;1;80.55000787228391
400;400;1449485326;2.12920689583;0.8115140795710001;0.0683992579579;1;True;8;1;80.55000787228391
401;401;1449485326;2.1291995048500003;0.811376333237;0.0684557333589;1;True;8;1;80.55000787228391
402;402;1449485326;2.12921309471;0.811450898647;0.068449549377;1;True;8;1;80.55000787228391
403;403;1449485326;2.12921762466;0.81160235405;0.06838596612219999;1;True;8;1;80.55000787228391
404;404;1449485326;2.1292123794599997;0.811576783657;0.06852208077909999;1;True;8;1;80.55000787228391
405;405;1449485326;2.12918949127;0.8113756775859999;0.0683904960752;1;True;8;1;80.55000787228391
406;406;1449485326;2.12921261787;0.811495542526;0.06843370944260001;1;True;8;1;80.55000787228391
407;407;1449485326;2.1292090416;0.8115055561069999;0.0684040412307;1;True;8;1;80.55000787228391
408;408;1449485326;2.1292197704299998;0.81166690588;0.0684272125363;1;True;8;1;80.55000787228391
409;409;1449485326;2.1291620731400003;0.8115991353990001;0.0682994276285;1;True;8;1;80.55000787228391
410;410;1449485326;2.12915754318;0.811853528023;0.0682853907347;1;True;8;1;80.55000787228391
411;411;1449485326;2.12919354439;0.811657905579;0.0683115497231;1;True;8;1;80.55000787228391
412;412;1449485326;2.12920260429;0.811429679394;0.06840378046040001;1;True;8;1;80.55000787228391
413;413;1449485326;2.1291744709000002;0.8114170432089999;0.068347223103;1;True;8;1;80.55000787228391
414;414;1449485326;2.1292152404799998;0.8115211725229999;0.06837240606549999;1;True;8;1;80.55000787228391
415;415;1449485326;2.1292243003799998;0.811530530453;0.0684811249375;1;True;8;1;80.55000787228391
416;416;1449485326;2.12917375565;0.811424136162;0.06852266937490001;1;True;8;1;80.55000787228391
417;417;1449485326;2.12917351723;0.811418831348;0.06853081285950001;1;True;8;1;80.55000787228391
418;418;1449485326;2.1292078494999997;0.811463713646;0.0684885457158;1;True;8;1;80.55000787228391
419;419;1449485326;2.12931776047;0.8115320801729999;0.0684797689319;1;True;8;1;80.55000787228391
420;420;1449485326;2.12917757034;0.8114060163500001;0.0684296786785;1;True;8;1;80.55000787228391
421;421;1449485326;2.12923645973;0.81150919199;0.0684385150671;1;True;8;1;80.55000787228391
422;422;1449485326;2.12920475006;0.811385154724;0.0684291347861;1;True;8;1;80.55000787228391
423;423;1449485326;2.12921905518;0.811457812786;0.0684113875031;1;True;8;1;80.55000787228391
424;424;1449485326;2.12922048569;0.8114522695540001;0.0684429034591;1;True;8;1;80.55000787228391
425;425;1449485326;2.1291475296;0.811867415905;0.0683144032955;1;True;8;1;80.55000787228391
426;426;1449485326;2.1292181015000002;0.811536967754;0.06843406707050001;1;True;8;1;80.55000787228391
427;427;1449485326;2.1292295455900003;0.8114746809010001;0.06841167807580001;1;True;8;1;80.55000787228391
428;428;1449485326;2.12923622131;0.811515212059;0.06842371821399999;1;True;8;1;80.55000787228391
429;429;1449485326;2.12904715538;0.811522364616;0.0684674158692;1;True;8;1;80.55000787228391
430;430;1449485326;2.12920689583;0.811492323875;0.0684588029981;1;True;8;1;80.55000787228391
431;431;1449485326;2.1291821003;0.8114922642710001;0.06848832964900001;1;True;8;1;80.55000787228391
432;432;1449485326;2.1292450428;0.811533331871;0.0684601217508;1;True;8;1;80.55000787228391
433;433;1449485326;2.12920331955;0.811538934708;0.0684342831373;1;True;8;1;80.55000787228391
434;434;1449485326;2.12922167778;0.811515331268;0.0684423968196;1;True;8;1;80.55000787228391
435;435;1449485326;2.12922620773;0.8115010857580001;0.0684635862708;1;True;8;1;80.55000787228391
436;436;1449485326;2.12920284271;0.8114619255069999;0.0684615671635;1;True;8;1;80.55000787228391
437;437;1449485326;2.12918519974;0.811529040337;0.0683486387134;1;True;8;1;80.55000787228391
438;438;1449485326;2.1292057037400003;0.8111462593080001;0.06839697062969999;1;True;8;1;80.55000787228391
439;439;1449485326;2.1291518211400002;0.811882317066;0.0683184862137;1;True;8;1;80.55000787228391
440;440;1449485326;2.1292307376900004;0.811580598354;0.0684204101562;1;True;8;1;80.55000787228391
441;441;1449485326;2.12920928001;0.8119081854819999;0.0683389231563;1;True;8;1;80.55000787228391
442;442;1449485326;2.12919402122;0.8112350106239999;0.068354010582;1;True;8;1;80.55000787228391
443;443;1449485326;2.1292102336900003;0.811596155167;0.0683888047934;1;True;8;1;80.55000787228391
444;444;1449485326;2.12920689583;0.811446726322;0.06839815527200001;1;True;8;1;80.55000787228391
445;445;1449485326;2.12920689583;0.811506748199;0.0683413669467;1;True;8;1;80.55000787228391
446;446;1449485326;2.12920999527;0.811480641365;0.0683944970369;1;True;8;1;80.55000787228391
447;447;1449485326;2.12921285629;0.81149160862;0.06840357929469999;1;True;8;1;80.55000787228391
448;448;1449485326;2.12916779518;0.8114682435989999;0.0685087293386;1;True;8;1;80.55000787228391
449;449;1449485326;2.1292057037400003;0.8115153908730001;0.06847669929269999;1;True;8;1;80.55000787228391
450;450;1449485326;2.1291732788099997;0.811498999596;0.0684953480959;1;True;8;1;80.55000787228391
451;451;1449485326;2.1292035579700004;0.811111748219;0.0684133395553;1;True;8;1;80.55000787228391
452;452;1449485326;2.1291296482099997;0.8113809227940001;0.0684959068894;1;True;8;1;80.55000787228391
453;453;1449485326;2.12922716141;0.811657011509;0.06855522096160001;1;True;8;1;80.55000787228391
454;454;1449485326;2.12917208672;0.811407387257;0.06850874423980001;1;True;8;1;80.55000787228391
455;455;1449485326;2.12919044495;0.811475992203;0.0683954507113;1;True;8;1;80.55000787228391
456;456;1449485326;2.1292219162;0.811899363995;0.0683427155018;1;True;8;1;80.55000787228391
457;457;1449485326;2.12920379639;0.8111839890479999;0.0683816820383;1;True;8;1;80.55000787228391
458;458;1449485326;2.12922906876;0.811450183392;0.0684220567346;1;True;8;1;80.55000787228391
459;459;1449485326;2.1292078494999997;0.8111346960070001;0.06841629743580001;1;True;8;1;80.55000787228391
460;460;1449485326;2.12913918495;0.8114939928049999;0.068361826241;1;True;8;1;80.55000787228391
461;461;1449485326;2.1292049884799997;0.811152100563;0.0683775022626;1;True;8;1;80.55000787228391
462;462;1449485326;2.12921833992;0.811437010765;0.0685025975108;1;True;8;1;80.55000787228391
463;463;1449485326;2.12914586067;0.811889946461;0.0682855844498;1;True;8;1;80.55000787228391
464;464;1449485326;2.12920427322;0.811128616333;0.0684125125408;1;True;8;1;80.55000787228391
465;465;1449485326;2.12920975685;0.8119175434110001;0.0683286041021;1;True;8;1;80.55000787228391
466;466;1449485327;2.1292281150799997;0.8114885687829999;0.06844657659530001;2;True;8;1;80.55000787228391
467;467;1449485327;2.1292123794599997;0.8115129470829999;0.0684431642294;2;True;8;1;80.55000787228391
468;468;1449485327;2.1291103363;0.811604678631;0.068596161902;2;True;8;1;80.55000787228391
469;469;1449485327;2.1292283535;0.811517417431;0.0684248581529;2;True;8;1;80.55000787228391
470;470;1449485327;2.1291959285699997;0.8114905357359999;0.0683231726289;2;True;8;1;80.55000787228391
471;471;1449485327;2.12922000885;0.8115108013150001;0.0684331282973;2;True;8;1;80.55000787228391
472;472;1449485327;2.1292073726700003;0.811611950397;0.0684263706207;2;True;8;1;80.55000787228391
473;473;1449485327;2.12920546532;0.811456441879;0.0685175955296;2;True;8;1;80.55000787228391
474;474;1449485327;2.12914037704;0.811497569084;0.068522632122;2;True;8;1;80.55000787228391
475;475;1449485327;2.1292221546200003;0.811514019966;0.06843563914300001;2;True;8;1;80.55000787228391
476;476;1449485327;2.12922716141;0.811505913734;0.068471133709;2;True;8;1;80.55000787228391
477;477;1449485327;2.12917757034;0.811500966549;0.0685808956623;2;True;8;1;80.55000787228391
478;478;1449485327;2.1292266845700003;0.811502337456;0.0684244483709;2;True;8;1;80.55000787228391
479;479;1449485327;2.12922477722;0.8115055561069999;0.0684351697564;2;True;8;1;80.55000787228391
480;480;1449485327;2.1292090416;0.811568319798;0.06833554804330001;2;True;8;1;80.55000787228391
481;481;1449485327;2.1291925907099998;0.81128257513;0.06855703890319999;2;True;8;1;80.55000787228391
482;482;1449485327;2.1292154789;0.811301827431;0.06851156055930001;2;True;8;1;80.55000787228391
483;483;1449485327;2.1291573047599996;0.811492919922;0.0685702860355;2;True;8;1;80.55000787228391
484;484;1449485327;2.12922310829;0.81151509285;0.06837426126;2;True;8;1;80.55000787228391
485;485;1449485327;2.1291975975;0.811499238014;0.068330898881;2;True;8;1;80.55000787228391
486;486;1449485327;2.12923049927;0.8114953637119999;0.068389646709;2;True;8;1;80.55000787228391
487;487;1449485327;2.1290423870099997;0.811476647854;0.0684960111976;2;True;8;1;80.55000787228391
488;488;1449485327;2.12924051285;0.811525404453;0.0684272572398;2;True;8;1;80.55000787228391
489;489;1449485327;2.1292281150799997;0.811442673206;0.0684289857745;2;True;8;1;80.55000787228391
490;490;1449485327;2.12922716141;0.8115469813349999;0.06839105486870001;2;True;8;1;80.55000787228391
491;491;1449485327;2.1292493343400003;0.811884403229;0.0683465003967;2;True;8;1;80.55000787228391
492;492;1449485327;2.12915563583;0.811937093735;0.0683077350259;2;True;8;1;80.55000787228391
493;493;1449485327;2.12923645973;0.811621367931;0.06841222941880001;2;True;8;1;80.55000787228391
494;494;1449485327;2.12922906876;0.811420500278;0.0684207826853;2;True;8;1;80.55000787228391
495;495;1449485327;2.12920594215;0.8115577101710001;0.0684273168445;2;True;8;1;80.55000787228391
496;496;1449485327;2.1292579174;0.811423718929;0.0685189217329;2;True;8;1;80.55000787228391
497;497;1449485327;2.1292526722;0.8116525411609999;0.0684194117785;2;True;8;1;80.55000787228391
498;498;1449485327;2.12915325165;0.811883211136;0.0683065578341;2;True;8;1;80.55000787228391
499;499;1449485327;2.1291809082;0.811484158039;0.06847973912949999;2;True;8;1;80.55000787228391
500;500;1449485327;2.12921261787;0.8114413619040001;0.06839631497859999;2;True;8;1;80.55000787228391
501;501;1449485327;2.1291873455;0.811161398888;0.0685683190823;2;True;8;1;80.55000787228391
502;502;1449485327;2.1292219162;0.811428070068;0.06850831210609999;2;True;8;1;80.55000787228391
503;503;1449485327;2.1291308403;0.811427175999;0.06859140098090001;2;True;8;1;80.55000787228391
504;504;1449485327;2.1292064189900004;0.8116815090180001;0.0683311447501;2;True;8;1;80.55000787228391
505;505;1449485327;2.1292321681999997;0.8114884495739999;0.0684718117118;2;True;8;1;80.55000787228391
506;506;1449485327;2.12921643257;0.81147223711;0.0684357210994;2;True;8;1;80.55000787228391
507;507;1449485327;2.12920713425;0.8114810585979999;0.0683574825525;2;True;8;1;80.55000787228391
508;508;1449485327;2.1292095184299997;0.8115917444230001;0.0683532431722;2;True;8;1;80.55000787228391
509;509;1449485327;2.12922978401;0.8114926815029999;0.0684595778584;2;True;8;1;80.55000787228391
510;510;1449485327;2.12924718857;0.81151509285;0.0684696957469;2;True;8;1;80.55000787228391
511;511;1449485327;2.12922167778;0.811720430851;0.06833849847319999;2;True;8;1;80.55000787228391
512;512;1449485327;2.1292245388;0.811575293541;0.068501740694;2;True;8;1;80.55000787228391
513;513;1449485327;2.12924718857;0.8118754029269999;0.0683527961373;2;True;8;1;80.55000787228391
514;514;1449485327;2.12922644615;0.811460256577;0.0684274733067;2;True;8;1;80.55000787228391
515;515;1449485327;2.12924909592;0.811657547951;0.0684818774462;2;True;8;1;80.55000787228391
516;516;1449485327;2.12923693657;0.8116308450699999;0.0684366971254;2;True;8;1;80.55000787228391
517;517;1449485327;2.12921047211;0.811492443085;0.068366765976;2;True;8;1;80.55000787228391
518;518;1449485327;2.1292469501499998;0.811466872692;0.0685067027807;2;True;8;1;80.55000787228391
519;519;1449485327;2.12923336029;0.8114157319069999;0.06852584332230001;2;True;8;1;80.55000787228391
520;520;1449485327;2.1292393207599996;0.8115097880359999;0.0684745162725;2;True;8;1;80.55000787228391
521;521;1449485327;2.12922692299;0.8115387558939999;0.0683608278632;2;True;8;1;80.55000787228391
522;522;1449485327;2.12923026085;0.811430990696;0.06852172315119999;2;True;8;1;80.55000787228391
523;523;1449485327;2.12923598289;0.8115260005;0.06845414638519999;2;True;8;1;80.55000787228391
524;524;1449485327;2.12925410271;0.811903357506;0.0683754980564;2;True;8;1;80.55000787228391
525;525;1449485327;2.1292393207599996;0.811558246613;0.0684012249112;2;True;8;1;80.55000787228391
526;526;1449485327;2.12922978401;0.8113639354709999;0.0684396475554;2;True;8;1;80.55000787228391
527;527;1449485327;2.12923979759;0.811511218548;0.0684124156833;2;True;8;1;80.55000787228391
528;528;1449485327;2.1292428970299997;0.811443269253;0.06853824853900001;2;True;8;1;80.55000787228391
529;529;1449485327;2.1292102336900003;0.811334133148;0.0684665068984;2;True;8;1;80.55000787228391
530;530;1449485327;2.12923169136;0.8112469911579999;0.06839438527819999;2;True;8;1;80.55000787228391
531;531;1449485327;2.1292347908;0.811545848846;0.0686012282968;2;True;8;1;80.55000787228391
532;532;1449485327;2.12922549248;0.8115121722220001;0.0684513151646;2;True;8;1;80.55000787228391
533;533;1449485327;2.12924385071;0.8114604353899999;0.06843283772469999;2;True;8;1;80.55000787228391
534;534;1449485327;2.1292312145200003;0.811445116997;0.06848122924569999;2;True;8;1;80.55000787228391
535;535;1449485327;2.1292245388;0.811665534973;0.0683427229524;2;True;8;1;80.55000787228391
536;536;1449485327;2.1292395591699997;0.811507940292;0.0684552118182;2;True;8;1;80.55000787228391
537;537;1449485327;2.1292467117299996;0.811514556408;0.0684748664498;2;True;8;1;80.55000787228391
538;538;1449485327;2.12921190262;0.811476409435;0.068454220891;2;True;8;1;80.55000787228391
539;539;1449485327;2.12923598289;0.811545848846;0.0684207826853;2;True;8;1;80.55000787228391
540;540;1449485327;2.12921905518;0.811496853828;0.0685032531619;2;True;8;1;80.55000787228391
541;541;1449485327;2.12925767899;0.8115097880359999;0.0685357600451;2;True;8;1;80.55000787228391
542;542;1449485327;2.12924146652;0.8115419745450001;0.0684612840414;2;True;8;1;80.55000787228391
543;543;1449485327;2.1292452812200002;0.811585962772;0.0685665681958;2;True;8;1;80.55000787228391
544;544;1449485327;2.12922930717;0.811193048954;0.0684157162905;2;True;8;1;80.55000787228391
545;545;1449485327;2.12922739983;0.811456859112;0.0684035569429;2;True;8;1;80.55000787228391
546;546;1449485327;2.12925577164;0.8116222620010001;0.0684321895242;2;True;8;1;80.55000787228391
547;547;1449485327;2.1292488575;0.811614513397;0.06842388212679999;2;True;8;1;80.55000787228391
548;548;1449485327;2.1292219162;0.811326861382;0.0685347542167;2;True;8;1;80.55000787228391
549;549;1449485327;2.1291558742500003;0.8113774061200001;0.0685616359115;2;True;8;1;80.55000787228391
550;550;1449485327;2.12925887108;0.811509132385;0.06843287497759999;2;True;8;1;80.55000787228391
551;551;1449485327;2.12923789024;0.81154447794;0.0684835836291;2;True;8;1;80.55000787228391
552;552;1449485327;2.12924575806;0.811543762684;0.06845361739400001;2;True;8;1;80.55000787228391
553;553;1449485327;2.12925553322;0.811593651772;0.0685186311603;2;True;8;1;80.55000787228391
554;554;1449485327;2.1290800571400004;0.8118978738779999;0.068416506052;2;True;8;1;80.55000787228391
555;555;1449485327;2.12924599648;0.8115452528;0.06839692592619999;2;True;8;1;80.55000787228391
556;556;1449485327;2.12927341461;0.8115053772930001;0.0684573799372;2;True;8;1;80.55000787228391
557;557;1449485327;2.12917137146;0.811189234257;0.0686934143305;2;True;8;1;80.55000787228391
558;558;1449485327;2.1292355060599997;0.811530292034;0.0684594884515;2;True;8;1;80.55000787228391
559;559;1449485327;2.1292243003799998;0.811830937862;0.0684976428747;2;True;8;1;80.55000787228391
560;560;1449485327;2.12917399406;0.8114950656890001;0.06856865435840001;2;True;8;1;80.55000787228391
561;561;1449485327;2.12925314903;0.8115821480750001;0.0684528425336;2;True;8;1;80.55000787228391
562;562;1449485327;2.12923431396;0.811738312244;0.0683586299419;2;True;8;1;80.55000787228391
563;563;1449485327;2.12922859192;0.8115488290790001;0.0683914348483;2;True;8;1;80.55000787228391
564;564;1449485327;2.1292245388;0.811535954475;0.06851473450659999;2;True;8;1;80.55000787228391
565;565;1449485327;2.1292488575;0.8115481138230001;0.0684459060431;2;True;8;1;80.55000787228391
566;566;1449485327;2.12924432755;0.811506509781;0.0684181973338;2;True;8;1;80.55000787228391
567;567;1449485327;2.1292393207599996;0.811561107635;0.0684120208025;2;True;8;1;80.55000787228391
568;568;1449485327;2.12922859192;0.811534047127;0.0684815868735;2;True;8;1;80.55000787228391
569;569;1449485327;2.12925362587;0.8115141987800001;0.0684616267681;2;True;8;1;80.55000787228391
570;570;1449485327;2.12922883034;0.8113325834270001;0.0685098916292;2;True;8;1;80.55000787228391
571;571;1449485327;2.12927222252;0.811657905579;0.0685039907694;2;True;8;1;80.55000787228391
572;572;1449485327;2.1291995048500003;0.8113992214200001;0.0685352906585;2;True;8;1;80.55000787228391
573;573;1449485327;2.12924909592;0.811506330967;0.068461611867;2;True;8;1;80.55000787228391
574;574;1449485327;2.12905573845;0.8118034601209999;0.0684632286429;2;True;8;1;80.55000787228391
575;575;1449485327;2.1292045116400002;0.811167359352;0.0685489401221;2;True;8;1;80.55000787228391
576;576;1449485327;2.12924480438;0.8115047216419999;0.0684069097042;2;True;8;1;80.55000787228391
577;577;1449485327;2.12912726402;0.811525344849;0.0684890300035;2;True;8;1;80.55000787228391
578;578;1449485327;2.12917256355;0.8118923306470001;0.0682960227132;2;True;8;1;80.55000787228391
579;579;1449485327;2.12924599648;0.8116027116779999;0.0685156658292;2;True;8;1;80.55000787228391
580;580;1449485327;2.12924575806;0.8115469813349999;0.0684424042702;2;True;8;1;80.55000787228391
581;581;1449485327;2.12931251526;0.8113856911660001;0.0684600025415;2;True;8;1;80.55000787228391
582;582;1449485327;2.12909555435;0.811890602112;0.0683853849769;2;True;8;1;80.55000787228391
583;583;1449485327;2.1292500495900004;0.811490833759;0.0684508234262;2;True;8;1;80.55000787228391
584;584;1449485327;2.12926101685;0.811626493931;0.068359926343;2;True;8;1;80.55000787228391
585;585;1449485327;2.1292469501499998;0.811421513557;0.0684626400471;2;True;8;1;80.55000787228391
586;586;1449485327;2.1291682720200003;0.811931788921;0.0682991594076;2;True;8;1;80.55000787228391
587;587;1449485327;2.12928533554;0.811602890491;0.06843326985840001;2;True;8;1;80.55000787228391
588;588;1449485327;2.12922739983;0.8115426898;0.0684140920639;2;True;8;1;80.55000787228391
589;589;1449485327;2.1291925907099998;0.8115568161010001;0.068528316915;2;True;8;1;80.55000787228391
590;590;1449485327;2.1292486190799997;0.8115332126620001;0.0684352070093;2;True;8;1;80.55000787228391
591;591;1449485327;2.12919068336;0.8114798069;0.068392470479;2;True;8;1;80.55000787228391
592;592;1449485327;2.1292295455900003;0.811443328857;0.0684780701995;2;True;8;1;80.55000787228391
593;593;1449485327;2.1292498111700002;0.811541140079;0.06843110173940001;2;True;8;1;80.55000787228391
594;594;1449485327;2.1292219162;0.8118167519570001;0.0683926567435;2;True;8;1;80.55000787228391
595;595;1449485327;2.12922286987;0.8114087581630001;0.0685090944171;2;True;8;1;80.55000787228391
596;596;1449485327;2.12919044495;0.811582446098;0.0683538168669;2;True;8;1;80.55000787228391
597;597;1449485327;2.1292467117299996;0.811435937881;0.0683386325836;2;True;8;1;80.55000787228391
598;598;1449485327;2.12919783592;0.811539888382;0.0684751570225;2;True;8;1;80.55000787228391
599;599;1449485327;2.12912726402;0.8116022348399999;0.06861311942340001;2;True;8;1;80.55000787228391
600;600;1449485327;2.12920689583;0.811394274235;0.0684975460172;2;True;8;1;80.55000787228391
601;601;1449485327;2.12918329239;0.811497807503;0.0684660077095;2;True;8;1;80.55000787228391
602;602;1449485327;2.12921595573;0.811717867851;0.0684135630727;2;True;8;1;80.55000787228391
603;603;1449485327;2.12912797928;0.811481714249;0.0684403851628;2;True;8;1;80.55000787228391
604;604;1449485327;2.1292207241099996;0.811549305916;0.06835220754150001;2;True;8;1;80.55000787228391
605;605;1449485327;2.12921071053;0.8115258812899999;0.0683792829514;2;True;8;1;80.55000787228391
606;606;1449485327;2.12921404839;0.811430931091;0.0683623999357;2;True;8;1;80.55000787228391
607;607;1449485327;2.12918949127;0.81123906374;0.06847356259819999;2;True;8;1;80.55000787228391
608;608;1449485327;2.12922883034;0.811579942703;0.06851372867819999;2;True;8;1;80.55000787228391
609;609;1449485327;2.12914562225;0.811944246292;0.0682989135385;2;True;8;1;80.55000787228391
610;610;1449485327;2.12923312187;0.8119304180149999;0.06834065914149999;2;True;8;1;80.55000787228391
611;611;1449485327;2.1292538642900003;0.8114344477650001;0.06851207464930001;2;True;8;1;80.55000787228391
612;612;1449485327;2.12921643257;0.8114076256749999;0.06844907253980001;2;True;8;1;80.55000787228391
613;613;1449485327;2.12921047211;0.811492741108;0.0683715716004;2;True;8;1;80.55000787228391
614;614;1449485327;2.1292111873599997;0.811530470848;0.0684090182185;2;True;8;1;80.55000787228391
615;615;1449485327;2.1291518211400002;0.811768233776;0.06828764826059999;2;True;8;1;80.55000787228391
