;Unnamed: 0;header_stamp_secs;pose_position_x;pose_position_y;pose_position_z;seconds;drop_values;flight_number;label;dtw
0;0;1445940954;2.13521313667;0.731071412563;0.0345700085163;0;True;9;1;0.1287049725566045
1;1;1445940954;2.13521456718;0.7310716509819999;0.0345659926534;0;True;9;1;0.1287049725566045
2;2;1445940954;2.13523697853;0.7310765385629999;0.0345676168799;0;True;9;1;0.1287049725566045
3;3;1445940954;2.13532209396;0.731151223183;0.0345272310078;0;True;9;1;0.1287049725566045
4;4;1445940954;2.13519978523;0.73099988699;0.034578826278400004;0;True;9;1;0.1287049725566045
5;5;1445940954;2.13530659676;0.7311334013940001;0.0345350243151;0;True;9;1;0.1287049725566045
6;6;1445940954;2.13519763947;0.731065928936;0.0345662795007;0;True;9;1;0.1287049725566045
7;7;1445940954;2.13530373573;0.731101930141;0.0345433391631;0;True;9;1;0.1287049725566045
8;8;1445940954;2.13528060913;0.7310755848880001;0.034540031105300004;0;True;9;1;0.1287049725566045
9;9;1445940954;2.13520431519;0.730999231339;0.0345805734396;0;True;9;1;0.1287049725566045
10;10;1445940954;2.1352915763900002;0.73119789362;0.034547559917;0;True;9;1;0.1287049725566045
11;11;1445940954;2.13530683517;0.7311570048330001;0.034538269043;0;True;9;1;0.1287049725566045
12;12;1445940954;2.13517785072;0.7310884594920001;0.034581173211300005;0;True;9;1;0.1287049725566045
13;13;1445940954;2.13516426086;0.731025099754;0.0345850661397;0;True;9;1;0.1287049725566045
14;14;1445940954;2.1352198123900004;0.731108248234;0.0345859490335;0;True;9;1;0.1287049725566045
15;15;1445940954;2.1352083683000003;0.731116235256;0.034582726657400004;0;True;9;1;0.1287049725566045
16;16;1445940954;2.13513016701;0.731111824512;0.0346613116562;0;True;9;1;0.1287049725566045
17;17;1445940954;2.1352965831799997;0.731131255627;0.0345726162195;0;True;9;1;0.1287049725566045
18;18;1445940954;2.1353096962;0.73114413023;0.0345629788935;0;True;9;1;0.1287049725566045
19;19;1445940954;2.1352252960199998;0.731004178524;0.034602239728;0;True;9;1;0.1287049725566045
20;20;1445940954;2.13518714905;0.7310144305230001;0.0345930829644;0;True;9;1;0.1287049725566045
21;21;1445940954;2.13524866104;0.7311449050900001;0.0345664359629;0;True;9;1;0.1287049725566045
22;22;1445940954;2.1352956295;0.731127798557;0.0345710292459;0;True;9;1;0.1287049725566045
23;23;1445940954;2.13514518738;0.7310329079629999;0.03469263017180001;0;True;9;1;0.1287049725566045
24;24;1445940954;2.13530945778;0.731120824814;0.0345610976219;0;True;9;1;0.1287049725566045
25;25;1445940954;2.13527154922;0.731080174446;0.034625988453599994;0;True;9;1;0.1287049725566045
26;26;1445940954;2.13529777527;0.731146037579;0.0345501601696;0;True;9;1;0.1287049725566045
27;27;1445940954;2.13526129723;0.731081902981;0.034575875848500005;0;True;9;1;0.1287049725566045
28;28;1445940954;2.13527822495;0.731166064739;0.0345748327672;0;True;9;1;0.1287049725566045
29;29;1445940954;2.13521051407;0.731005609035;0.034592472016800005;0;True;9;1;0.1287049725566045
30;30;1445940954;2.13522219658;0.7310731410979999;0.034594591707;0;True;9;1;0.1287049725566045
31;31;1445940954;2.13519906998;0.7309771180149999;0.034626897424499994;0;True;9;1;0.1287049725566045
32;32;1445940954;2.13521170616;0.731139421463;0.0345870479941;0;True;9;1;0.1287049725566045
33;33;1445940954;2.1352529525799997;0.7310037016869999;0.034587264060999996;0;True;9;1;0.1287049725566045
34;34;1445940954;2.13521146774;0.7310776710510001;0.0345810689032;0;True;9;1;0.1287049725566045
35;35;1445940954;2.1352720260599996;0.7310947775839999;0.034585908055300006;0;True;9;1;0.1287049725566045
36;36;1445940954;2.13528561592;0.7310696244239999;0.0345617309213;0;True;9;1;0.1287049725566045
37;37;1445940954;2.13527774811;0.731067419052;0.034570414573;0;True;9;1;0.1287049725566045
38;38;1445940954;2.13532185555;0.731118440628;0.0345496051013;0;True;9;1;0.1287049725566045
39;39;1445940954;2.13531565666;0.7311373949050001;0.0345682092011;0;True;9;1;0.1287049725566045
40;40;1445940954;2.13530302048;0.731155633926;0.034561894834;0;True;9;1;0.1287049725566045
41;41;1445940954;2.13520812988;0.73101323843;0.0346022695303;0;True;9;1;0.1287049725566045
42;42;1445940954;2.13515949249;0.730972766876;0.0346035994589;0;True;9;1;0.1287049725566045
43;43;1445940954;2.1353111267099996;0.73109459877;0.0345544666052;0;True;9;1;0.1287049725566045
44;44;1445940954;2.1353058815;0.7312007546420001;0.0345616675913;0;True;9;1;0.1287049725566045
45;45;1445940954;2.13529992104;0.7311253547669999;0.034573741257199996;0;True;9;1;0.1287049725566045
46;46;1445940954;2.13525557518;0.7310197353360001;0.0345966629684;0;True;9;1;0.1287049725566045
47;47;1445940954;2.13530945778;0.731107413769;0.03456004336480001;0;True;9;1;0.1287049725566045
48;48;1445940954;2.13526201248;0.731054484844;0.0345703586936;0;True;9;1;0.1287049725566045
49;49;1445940954;2.13517141342;0.730913996696;0.0347621925175;0;True;9;1;0.1287049725566045
50;50;1445940954;2.1353344917299997;0.731138646603;0.034550473094;0;True;9;1;0.1287049725566045
51;51;1445940954;2.13521814346;0.731129705906;0.0345837958157;0;True;9;1;0.1287049725566045
52;52;1445940954;2.13520669937;0.7310810685160001;0.0345825888216;0;True;9;1;0.1287049725566045
53;53;1445940954;2.13522744179;0.731080889702;0.0346015356481;0;True;9;1;0.1287049725566045
54;54;1445940954;2.13511300087;0.7308697104449999;0.034617636352800005;0;True;9;1;0.1287049725566045
55;55;1445940954;2.13530492783;0.731069684029;0.0345537438989;0;True;9;1;0.1287049725566045
56;56;1445940954;2.13531780243;0.73110884428;0.0345469452441;0;True;9;1;0.1287049725566045
57;57;1445940954;2.13524603844;0.73104095459;0.034570027142800004;0;True;9;1;0.1287049725566045
58;58;1445940954;2.13529610634;0.731090307236;0.034569583833199996;0;True;9;1;0.1287049725566045
59;59;1445940954;2.1351430416099997;0.7309110760690001;0.0346118696034;0;True;9;1;0.1287049725566045
60;60;1445940954;2.13521742821;0.7309879064560001;0.034590747207400005;0;True;9;1;0.1287049725566045
61;61;1445940954;2.13527321815;0.7311313152310001;0.034559875726699996;0;True;9;1;0.1287049725566045
62;62;1445940954;2.1351733207700003;0.730994701385;0.0346880741417;0;True;9;1;0.1287049725566045
63;63;1445940954;2.13532543182;0.7310936450959999;0.0345537401736;0;True;9;1;0.1287049725566045
64;64;1445940954;2.1352503299700003;0.7310460209849999;0.0345996208489;0;True;9;1;0.1287049725566045
65;65;1445940954;2.13532757759;0.731117129326;0.034553959965699994;0;True;9;1;0.1287049725566045
66;66;1445940954;2.1352038383500003;0.7310832142829999;0.034587182104599996;0;True;9;1;0.1287049725566045
67;67;1445940954;2.13526511192;0.731087386608;0.034586854279;0;True;9;1;0.1287049725566045
68;68;1445940954;2.1352627277400003;0.7310756444930001;0.0345745868981;0;True;9;1;0.1287049725566045
69;69;1445940954;2.13518333435;0.731082320213;0.0346145406365;0;True;9;1;0.1287049725566045
70;70;1445940954;2.1351251602200003;0.730925142765;0.0345368683338;0;True;9;1;0.1287049725566045
71;71;1445940954;2.13529896736;0.7310793399809999;0.034618847072099994;0;True;9;1;0.1287049725566045
72;72;1445940954;2.1353197097799996;0.731183946133;0.0345477536321;0;True;9;1;0.1287049725566045
73;73;1445940954;2.13528466225;0.73106867075;0.03455555439;0;True;9;1;0.1287049725566045
74;74;1445940954;2.13530826569;0.7311834096909999;0.034553330391599996;0;True;9;1;0.1287049725566045
75;75;1445940954;2.13528037071;0.731055378914;0.034565374255199996;0;True;9;1;0.1287049725566045
76;76;1445940954;2.1351063251499998;0.731060326099;0.034693695604800005;0;True;9;1;0.1287049725566045
77;77;1445940954;2.13530302048;0.731210172176;0.0345614589751;0;True;9;1;0.1287049725566045
78;78;1445940954;2.13526701927;0.731137871742;0.0345594286919;0;True;9;1;0.1287049725566045
79;79;1445940954;2.1351966857900004;0.731028258801;0.034587737172800004;0;True;9;1;0.1287049725566045
80;80;1445940954;2.13529896736;0.7310996651649999;0.0345607474446;0;True;9;1;0.1287049725566045
81;81;1445940954;2.13527011871;0.7310874462129999;0.034564267844;0;True;9;1;0.1287049725566045
82;82;1445940954;2.13510727882;0.730960726738;0.0346541590989;0;True;9;1;0.1287049725566045
83;83;1445940954;2.1352677345299997;0.7310836315160001;0.0345666408539;0;True;9;1;0.1287049725566045
84;84;1445940954;2.13526701927;0.7311105132100001;0.034569416195199994;0;True;9;1;0.1287049725566045
85;85;1445940954;2.13519763947;0.7311217784880001;0.0345712900162;0;True;9;1;0.1287049725566045
86;86;1445940954;2.13531208038;0.731120228767;0.0345426574349;0;True;9;1;0.1287049725566045
87;87;1445940954;2.1352441310900003;0.7310668230060001;0.03453136608;0;True;9;1;0.1287049725566045
88;88;1445940954;2.13524389267;0.7311040759090001;0.034572094678899996;0;True;9;1;0.1287049725566045
89;89;1445940954;2.13519096375;0.731074690819;0.0345865301788;0;True;9;1;0.1287049725566045
90;90;1445940954;2.13509559631;0.730908334255;0.0346725732088;0;True;9;1;0.1287049725566045
91;91;1445940954;2.1352038383500003;0.731063783169;0.0345712378621;0;True;9;1;0.1287049725566045
92;92;1445940954;2.1352834701499996;0.73110383749;0.0345523655415;0;True;9;1;0.1287049725566045
93;93;1445940954;2.13528299332;0.731099903584;0.0345256738365;0;True;9;1;0.1287049725566045
94;94;1445940954;2.13518381119;0.730969905853;0.0345895476639;0;True;9;1;0.1287049725566045
95;95;1445940954;2.13527798653;0.731096744537;0.0345378033817;0;True;9;1;0.1287049725566045
96;96;1445940954;2.13528728485;0.731197357178;0.034536335617300004;0;True;9;1;0.1287049725566045
97;97;1445940954;2.1352560520200004;0.7310674786570001;0.034545470029099995;0;True;9;1;0.1287049725566045
98;98;1445940954;2.13515019417;0.7310192584990001;0.03459493443369999;0;True;9;1;0.1287049725566045
99;99;1445940954;2.13524913788;0.7310827374459999;0.034549277275800004;0;True;9;1;0.1287049725566045
100;100;1445940954;2.13510584831;0.730929791927;0.0345481298864;0;True;9;1;0.1287049725566045
101;101;1445940954;2.1352870464300002;0.7311450243000001;0.034531570971;0;True;9;1;0.1287049725566045
102;102;1445940954;2.13524699211;0.7310025095939999;0.0345432423055;0;True;9;1;0.1287049725566045
103;103;1445940954;2.1351993084;0.7310423851010001;0.034543476998800005;0;True;9;1;0.1287049725566045
104;104;1445940954;2.13519716263;0.7310615181919999;0.034551139920900004;0;True;9;1;0.1287049725566045
105;105;1445940954;2.13520669937;0.7310545444490001;0.0345409847796;0;True;9;1;0.1287049725566045
106;106;1445940954;2.1352589130400004;0.7310414314270001;0.0345302186906;0;True;9;1;0.1287049725566045
107;107;1445940954;2.13528680801;0.7311989068979999;0.03452824428680001;0;True;9;1;0.1287049725566045
108;108;1445940954;2.13523459435;0.731120407581;0.0345596298575;0;True;9;1;0.1287049725566045
109;109;1445940954;2.13522100449;0.731028854847;0.0345417670906;0;True;9;1;0.1287049725566045
110;110;1445940954;2.13520288467;0.7311255931849999;0.0345519408584;0;True;9;1;0.1287049725566045
111;111;1445940954;2.13526582718;0.7310553193089999;0.0345396138728;0;True;9;1;0.1287049725566045
112;112;1445940954;2.13521695137;0.731073915958;0.034555092454;0;True;9;1;0.1287049725566045
113;113;1445940954;2.13520121574;0.7309916019439999;0.034581694752;0;True;9;1;0.1287049725566045
114;114;1445940954;2.1352791786200003;0.731091618538;0.034534756094199995;0;True;9;1;0.1287049725566045
115;115;1445940954;2.13529825211;0.731129050255;0.0345326699317;0;True;9;1;0.1287049725566045
116;116;1445940954;2.13530015945;0.731206893921;0.0345360524952;0;True;9;1;0.1287049725566045
117;117;1445940954;2.1351964473700003;0.731043159962;0.0345693677664;0;True;9;1;0.1287049725566045
118;118;1445940954;2.13518238068;0.731088280678;0.0345597118139;0;True;9;1;0.1287049725566045
119;119;1445940954;2.13522171974;0.731045365334;0.0345564596355;0;True;9;1;0.1287049725566045
120;120;1445940954;2.1352660656;0.731050252914;0.0345220603049;0;True;9;1;0.1287049725566045
121;121;1445940954;2.13526844978;0.7310970425609999;0.034541994333300005;0;True;9;1;0.1287049725566045
122;122;1445940954;2.1351656913799997;0.731108725071;0.034596931189300004;0;True;9;1;0.1287049725566045
123;123;1445940954;2.13530564308;0.7311851382260001;0.0345297269523;0;True;9;1;0.1287049725566045
124;124;1445940954;2.13519740105;0.7311084270479999;0.0345649421215;0;True;9;1;0.1287049725566045
125;125;1445940954;2.13522958755;0.7310919761660001;0.0345604456961;0;True;9;1;0.1287049725566045
126;126;1445940954;2.13515400887;0.730989694595;0.0345949828625;0;True;9;1;0.1287049725566045
127;127;1445940954;2.13520550728;0.731073915958;0.034564640373;0;True;9;1;0.1287049725566045
128;128;1445940954;2.13523483276;0.731078445911;0.0345560237765;0;True;9;1;0.1287049725566045
129;129;1445940954;2.13521003723;0.731007575989;0.0345560908318;0;True;9;1;0.1287049725566045
130;130;1445940954;2.13529682159;0.731196165085;0.034537255764;0;True;9;1;0.1287049725566045
131;131;1445940954;2.1352517604799996;0.731029033661;0.0345497839153;0;True;9;1;0.1287049725566045
132;132;1445940954;2.1352910995500003;0.7310840487479999;0.0345410443842;0;True;9;1;0.1287049725566045
133;133;1445940954;2.1351017952;0.730886757374;0.0346872881055;0;True;9;1;0.1287049725566045
134;134;1445940954;2.13523125648;0.731065988541;0.0345721058547;0;True;9;1;0.1287049725566045
135;135;1445940954;2.13525128365;0.7311435937880001;0.034562479704599997;0;True;9;1;0.1287049725566045
136;136;1445940954;2.13524389267;0.7311021685600001;0.034611530602;0;True;9;1;0.1287049725566045
137;137;1445940954;2.13520240784;0.7310961484909999;0.034591458737900004;0;True;9;1;0.1287049725566045
138;138;1445940954;2.13519334793;0.731137096882;0.0345832817256;0;True;9;1;0.1287049725566045
139;139;1445940954;2.13526511192;0.73102158308;0.0345751494169;0;True;9;1;0.1287049725566045
140;140;1445940954;2.13526391983;0.7310540080069999;0.0345615334809;0;True;9;1;0.1287049725566045
141;141;1445940954;2.13522911072;0.731138527393;0.0345591157675;0;True;9;1;0.1287049725566045
142;142;1445940954;2.1352891922;0.731098592281;0.034549422562099995;0;True;9;1;0.1287049725566045
143;143;1445940954;2.13531374931;0.7311334609990001;0.0345517247915;0;True;9;1;0.1287049725566045
144;144;1445940954;2.13522791862;0.731082320213;0.0345689877868;0;True;9;1;0.1287049725566045
145;145;1445940954;2.1353123188;0.731085538864;0.034543424844699994;0;True;9;1;0.1287049725566045
146;146;1445940954;2.1352753639200004;0.731167256832;0.0345583073795;0;True;9;1;0.1287049725566045
147;147;1445940954;2.1351964473700003;0.7310081124310001;0.034575127065199995;0;True;9;1;0.1287049725566045
148;148;1445940954;2.1352007389099996;0.7310004234309999;0.0345812886953;0;True;9;1;0.1287049725566045
149;149;1445940954;2.1352007389099996;0.7310900688169999;0.0345642380416;0;True;9;1;0.1287049725566045
150;150;1445940954;2.13528633118;0.7310851812360001;0.0345596335828;0;True;9;1;0.1287049725566045
151;151;1445940954;2.13530611992;0.731191158295;0.0345505550504;0;True;9;1;0.1287049725566045
152;152;1445940954;2.13520407677;0.731123328209;0.034585699439;0;True;9;1;0.1287049725566045
153;153;1445940954;2.13525676727;0.7310579419140001;0.0345665253699;0;True;9;1;0.1287049725566045
154;154;1445940954;2.1352574825299997;0.7310376167300001;0.0345601812005;0;True;9;1;0.1287049725566045
155;155;1445940954;2.13520956039;0.731091618538;0.0345676876605;0;True;9;1;0.1287049725566045
156;156;1445940954;2.1352925300599996;0.7311084270479999;0.0345515049994;0;True;9;1;0.1287049725566045
157;157;1445940954;2.1352186203;0.731133759022;0.0345706902444;0;True;9;1;0.1287049725566045
158;158;1445940954;2.13527870178;0.73111140728;0.034558635205;0;True;9;1;0.1287049725566045
159;159;1445940954;2.1352481842;0.73096871376;0.0345794670284;0;True;9;1;0.1287049725566045
160;160;1445940954;2.1352014541599997;0.731068730354;0.034591332078;0;True;9;1;0.1287049725566045
161;161;1445940954;2.1352767944299997;0.731090962887;0.034575365483800004;0;True;9;1;0.1287049725566045
162;162;1445940954;2.13522982597;0.7311251759530001;0.034573070704900004;0;True;9;1;0.1287049725566045
163;163;1445940954;2.13522195816;0.73100733757;0.0345821343362;0;True;9;1;0.1287049725566045
164;164;1445940954;2.13526391983;0.7310681343080001;0.0345508232713;0;True;9;1;0.1287049725566045
165;165;1445940954;2.1353278160099998;0.731215953827;0.0345503129065;0;True;9;1;0.1287049725566045
166;166;1445940954;2.1352627277400003;0.7311207652089999;0.0345719121397;0;True;9;1;0.1287049725566045
167;167;1445940954;2.13520884514;0.731082856655;0.0345618464053;0;True;9;1;0.1287049725566045
168;168;1445940954;2.13521313667;0.7310989499089999;0.034568909555699995;0;True;9;1;0.1287049725566045
169;169;1445940954;2.13533210754;0.731106936932;0.0345399193466;0;True;9;1;0.1287049725566045
170;170;1445940954;2.1353302002000003;0.7311390638349999;0.0345575585961;0;True;9;1;0.1287049725566045
171;171;1445940954;2.1352534294099996;0.7310308218000001;0.0345701090991;0;True;9;1;0.1287049725566045
172;172;1445940954;2.1353278160099998;0.731101214886;0.0345493294299;0;True;9;1;0.1287049725566045
173;173;1445940954;2.13526010513;0.7311373353;0.0345634780824;0;True;9;1;0.1287049725566045
174;174;1445940954;2.13526105881;0.731117069721;0.0345836281776;0;True;9;1;0.1287049725566045
175;175;1445940954;2.13528132439;0.731063604355;0.034554686397300007;0;True;9;1;0.1287049725566045
176;176;1445940954;2.13515400887;0.7309554815289999;0.034632746130199996;0;True;9;1;0.1287049725566045
177;177;1445940954;2.13532924652;0.731205284595;0.0345558784902;0;True;9;1;0.1287049725566045
178;178;1445940954;2.1352887153599998;0.731100022793;0.0345736443996;0;True;9;1;0.1287049725566045
179;179;1445940954;2.1353328228;0.7312151193619999;0.0345456190407;0;True;9;1;0.1287049725566045
180;180;1445940954;2.13527870178;0.7310798168179999;0.034551672637499996;0;True;9;1;0.1287049725566045
181;181;1445940954;2.13521814346;0.7311307787899999;0.034593619406199996;0;True;9;1;0.1287049725566045
182;182;1445940954;2.13523125648;0.731026291847;0.0345859788358;0;True;9;1;0.1287049725566045
183;183;1445940954;2.13530659676;0.731211006641;0.034550674259699994;0;True;9;1;0.1287049725566045
184;184;1445940954;2.13526558876;0.731054365635;0.034557383507500004;0;True;9;1;0.1287049725566045
185;185;1445940954;2.13522195816;0.731053709984;0.0345875173807;0;True;9;1;0.1287049725566045
186;186;1445940954;2.13521838188;0.7310601472849999;0.0346007943153;0;True;9;1;0.1287049725566045
187;187;1445940955;2.1352057457;0.731093406677;0.034565635025499995;1;True;9;1;0.1287049725566045
188;188;1445940955;2.1352281570400002;0.730990111828;0.034591510891900004;1;True;9;1;0.1287049725566045
189;189;1445940955;2.13531041145;0.731106579304;0.0345512479544;1;True;9;1;0.1287049725566045
190;190;1445940955;2.13524246216;0.731118321419;0.0345734320581;1;True;9;1;0.1287049725566045
191;191;1445940955;2.13525938988;0.731103301048;0.0345745608211;1;True;9;1;0.1287049725566045
192;192;1445940955;2.13521504402;0.731103122234;0.0345635153353;1;True;9;1;0.1287049725566045
193;193;1445940955;2.13517689705;0.731062412262;0.0345990434289;1;True;9;1;0.1287049725566045
194;194;1445940955;2.1352622509;0.731069505215;0.034555029124;1;True;9;1;0.1287049725566045
195;195;1445940955;2.13530158997;0.731220245361;0.0345512926579;1;True;9;1;0.1287049725566045
196;196;1445940955;2.13530564308;0.731209158897;0.0345515497029;1;True;9;1;0.1287049725566045
197;197;1445940955;2.1350557804099997;0.730991363525;0.0345766022801;1;True;9;1;0.1287049725566045
198;198;1445940955;2.1352057457;0.7310088276860001;0.0345899425447;1;True;9;1;0.1287049725566045
199;199;1445940955;2.13526248932;0.731089055538;0.0346063226461;1;True;9;1;0.1287049725566045
200;200;1445940955;2.13527798653;0.731189370155;0.0345695316792;1;True;9;1;0.1287049725566045
201;201;1445940955;2.13531470299;0.731150150299;0.0345493257046;1;True;9;1;0.1287049725566045
202;202;1445940955;2.1351661682099996;0.730997025967;0.0346000492573;1;True;9;1;0.1287049725566045
203;203;1445940955;2.13528847694;0.7311133742329999;0.0345500931144;1;True;9;1;0.1287049725566045
204;204;1445940955;2.1352796554599998;0.731161534786;0.034551393240699994;1;True;9;1;0.1287049725566045
205;205;1445940955;2.13520622253;0.731014668941;0.0346085727215;1;True;9;1;0.1287049725566045
206;206;1445940955;2.1353070735900004;0.73114913702;0.0345480442047;1;True;9;1;0.1287049725566045
207;207;1445940955;2.13528752327;0.731091022491;0.0345504507422;1;True;9;1;0.1287049725566045
208;208;1445940955;2.13521337509;0.7310138344760001;0.0346000492573;1;True;9;1;0.1287049725566045
209;209;1445940955;2.1352834701499996;0.7310953736310001;0.034544385969599994;1;True;9;1;0.1287049725566045
210;210;1445940955;2.13530063629;0.731131732464;0.034539885819;1;True;9;1;0.1287049725566045
211;211;1445940955;2.1352014541599997;0.731136322021;0.0345698036253;1;True;9;1;0.1287049725566045
212;212;1445940955;2.13522744179;0.731053352356;0.0345585420728;1;True;9;1;0.1287049725566045
213;213;1445940955;2.13530755043;0.731112003326;0.0345496833324;1;True;9;1;0.1287049725566045
214;214;1445940955;2.13519454002;0.731043696404;0.0345733910799;1;True;9;1;0.1287049725566045
215;215;1445940955;2.13521337509;0.731086313725;0.0345871224999;1;True;9;1;0.1287049725566045
216;216;1445940955;2.13522100449;0.731115221977;0.0345778651536;1;True;9;1;0.1287049725566045
217;217;1445940955;2.13526535034;0.7310994863510001;0.034567371010800006;1;True;9;1;0.1287049725566045
218;218;1445940955;2.13527083397;0.731197059155;0.0345661975443;1;True;9;1;0.1287049725566045
219;219;1445940955;2.13525700569;0.7310560345649999;0.0345667973161;1;True;9;1;0.1287049725566045
220;220;1445940955;2.13525629044;0.731031358242;0.0345665775239;1;True;9;1;0.1287049725566045
221;221;1445940955;2.13523507118;0.730972707272;0.0345849730074;1;True;9;1;0.1287049725566045
222;222;1445940955;2.13524866104;0.7311151027680001;0.034576009959;1;True;9;1;0.1287049725566045
223;223;1445940955;2.13529920578;0.7311899662019999;0.034546174109;1;True;9;1;0.1287049725566045
224;224;1445940955;2.13530826569;0.731145203114;0.0345376990736;1;True;9;1;0.1287049725566045
225;225;1445940955;2.13520407677;0.731070458889;0.0345729030669;1;True;9;1;0.1287049725566045
226;226;1445940955;2.13520264626;0.73100733757;0.0345873348415;1;True;9;1;0.1287049725566045
227;227;1445940955;2.1352682113599997;0.731135725975;0.0345491319895;1;True;9;1;0.1287049725566045
228;228;1445940955;2.13519835472;0.7310731410979999;0.0345924682915;1;True;9;1;0.1287049725566045
229;229;1445940955;2.13525676727;0.731068611145;0.0345613993704;1;True;9;1;0.1287049725566045
230;230;1445940955;2.1352789402;0.7312068343160001;0.0345563106239;1;True;9;1;0.1287049725566045
231;231;1445940955;2.13526511192;0.7311390638349999;0.0345593728125;1;True;9;1;0.1287049725566045
232;232;1445940955;2.13517308235;0.7311164736750001;0.0345854051411;1;True;9;1;0.1287049725566045
233;233;1445940955;2.13530492783;0.731090605259;0.0345564372838;1;True;9;1;0.1287049725566045
234;234;1445940955;2.1351635456099998;0.7311010360719999;0.0346003174782;1;True;9;1;0.1287049725566045
235;235;1445940955;2.1352391243;0.7311069965360001;0.034566454589400004;1;True;9;1;0.1287049725566045
236;236;1445940955;2.13524103165;0.7310853600499999;0.034568015486;1;True;9;1;0.1287049725566045
237;237;1445940955;2.1352677345299997;0.731164932251;0.0345527455211;1;True;9;1;0.1287049725566045
238;238;1445940955;2.13519263268;0.7310763597490001;0.0345791056752;1;True;9;1;0.1287049725566045
239;239;1445940955;2.13522672653;0.7310799360279999;0.0346188396215;1;True;9;1;0.1287049725566045
240;240;1445940955;2.13517451286;0.731068015099;0.034582924097800005;1;True;9;1;0.1287049725566045
241;241;1445940955;2.1352682113599997;0.731099188328;0.034554071724400004;1;True;9;1;0.1287049725566045
242;242;1445940955;2.13525009155;0.7310989499089999;0.0345590077341;1;True;9;1;0.1287049725566045
243;243;1445940955;2.13521003723;0.7310867309569999;0.034588564187300004;1;True;9;1;0.1287049725566045
244;244;1445940955;2.13529229164;0.731202363968;0.034536797553300004;1;True;9;1;0.1287049725566045
245;245;1445940955;2.13526654243;0.7310790419580001;0.03454406932;1;True;9;1;0.1287049725566045
246;246;1445940955;2.1351866722099997;0.731129705906;0.034578360617199995;1;True;9;1;0.1287049725566045
247;247;1445940955;2.13517785072;0.7310029864309999;0.034584835171699996;1;True;9;1;0.1287049725566045
248;248;1445940955;2.13519382477;0.731022059917;0.0345835722983;1;True;9;1;0.1287049725566045
249;249;1445940955;2.13527131081;0.7311028838160001;0.0345403924584;1;True;9;1;0.1287049725566045
250;250;1445940955;2.13516068459;0.731087684631;0.0346084609628;1;True;9;1;0.1287049725566045
251;251;1445940955;2.13523483276;0.7310839295389999;0.034575305879099995;1;True;9;1;0.1287049725566045
252;252;1445940955;2.13520622253;0.730956912041;0.03459649533030001;1;True;9;1;0.1287049725566045
253;253;1445940955;2.13524365425;0.731085717678;0.0345567725599;1;True;9;1;0.1287049725566045
254;254;1445940955;2.1352880001099996;0.7311178445819999;0.034542683512;1;True;9;1;0.1287049725566045
255;255;1445940955;2.13520336151;0.7310113310809999;0.0345762744546;1;True;9;1;0.1287049725566045
256;256;1445940955;2.13529491425;0.73114413023;0.03455374762419999;1;True;9;1;0.1287049725566045
257;257;1445940955;2.13520956039;0.73108792305;0.0345677770674;1;True;9;1;0.1287049725566045
258;258;1445940955;2.13526082039;0.731097877026;0.034568179398800004;1;True;9;1;0.1287049725566045
259;259;1445940955;2.1352627277400003;0.7310993671420001;0.034573860466499996;1;True;9;1;0.1287049725566045
260;260;1445940955;2.13526105881;0.731099247932;0.034572806209300005;1;True;9;1;0.1287049725566045
261;261;1445940955;2.13525676727;0.731128334999;0.0345691777766;1;True;9;1;0.1287049725566045
262;262;1445940955;2.13521766663;0.7310804724690001;0.034577768296;1;True;9;1;0.1287049725566045
263;263;1445940955;2.1352007389099996;0.731063187122;0.0345767065883;1;True;9;1;0.1287049725566045
264;264;1445940955;2.13527822495;0.731115281582;0.0345656685531;1;True;9;1;0.1287049725566045
265;265;1445940955;2.13530063629;0.731212258339;0.0345487296581;1;True;9;1;0.1287049725566045
266;266;1445940955;2.1352686882;0.731083989143;0.0345512032509;1;True;9;1;0.1287049725566045
267;267;1445940955;2.13523077965;0.7310190200810001;0.0345726199448;1;True;9;1;0.1287049725566045
268;268;1445940955;2.1352672576900003;0.7310587167739999;0.0345528200269;1;True;9;1;0.1287049725566045
269;269;1445940955;2.13529038429;0.731124699116;0.034554313868300005;1;True;9;1;0.1287049725566045
270;270;1445940955;2.13531327248;0.731230378151;0.034550640732;1;True;9;1;0.1287049725566045
271;271;1445940955;2.1352360248599997;0.731125771999;0.034602098166900006;1;True;9;1;0.1287049725566045
272;272;1445940955;2.1353063583400003;0.7312115430830001;0.0345551036298;1;True;9;1;0.1287049725566045
273;273;1445940955;2.13530421257;0.7311095595360001;0.034552231431;1;True;9;1;0.1287049725566045
274;274;1445940955;2.13531541824;0.731138586998;0.034553468227400005;1;True;9;1;0.1287049725566045
275;275;1445940955;2.13516235352;0.731049001217;0.034605663269800004;1;True;9;1;0.1287049725566045
276;276;1445940955;2.13529872894;0.731108248234;0.0345611907542;1;True;9;1;0.1287049725566045
277;277;1445940955;2.13522720337;0.731108009815;0.0346098169684;1;True;9;1;0.1287049725566045
278;278;1445940955;2.13510990143;0.7310231328010001;0.0346081890166;1;True;9;1;0.1287049725566045
279;279;1445940955;2.13519740105;0.7310523390770001;0.034608498215699994;1;True;9;1;0.1287049725566045
280;280;1445940955;2.13522553444;0.7310249209399999;0.0345791652799;1;True;9;1;0.1287049725566045
281;281;1445940955;2.1353170871700002;0.731144547462;0.03455770015719999;1;True;9;1;0.1287049725566045
282;282;1445940955;2.1353070735900004;0.731199145317;0.034553408622699996;1;True;9;1;0.1287049725566045
283;283;1445940955;2.1352753639200004;0.731073915958;0.0345685258508;1;True;9;1;0.1287049725566045
284;284;1445940955;2.13521718979;0.7310688495640001;0.0346244089305;1;True;9;1;0.1287049725566045
285;285;1445940955;2.13524103165;0.731107831001;0.034573625773199994;1;True;9;1;0.1287049725566045
286;286;1445940955;2.13510656357;0.7310104966159999;0.034650851041099995;1;True;9;1;0.1287049725566045
287;287;1445940955;2.1353204250299997;0.731207489967;0.0345625802875;1;True;9;1;0.1287049725566045
288;288;1445940955;2.13524365425;0.731079995632;0.034594286233199996;1;True;9;1;0.1287049725566045
289;289;1445940955;2.13523936272;0.731119573116;0.0345742627978;1;True;9;1;0.1287049725566045
290;290;1445940955;2.13528037071;0.731117606163;0.034582521766400004;1;True;9;1;0.1287049725566045
291;291;1445940955;2.13531327248;0.731145560741;0.0345590561628;1;True;9;1;0.1287049725566045
292;292;1445940955;2.13525700569;0.731052517891;0.034590002149300005;1;True;9;1;0.1287049725566045
293;293;1445940955;2.1352789402;0.731086790562;0.0345727056265;1;True;9;1;0.1287049725566045
294;294;1445940955;2.13528728485;0.731083035469;0.0345663912594;1;True;9;1;0.1287049725566045
295;295;1445940955;2.1352097988099996;0.731014549732;0.0346072018147;1;True;9;1;0.1287049725566045
296;296;1445940955;2.13523864746;0.7310416698459999;0.0345835760236;1;True;9;1;0.1287049725566045
297;297;1445940955;2.13529896736;0.7312075495720001;0.034566204994900006;1;True;9;1;0.1287049725566045
298;298;1445940955;2.13518118858;0.731080234051;0.0345934145153;1;True;9;1;0.1287049725566045
299;299;1445940955;2.13516187668;0.7310339212420001;0.034619357436900006;1;True;9;1;0.1287049725566045
300;300;1445940955;2.13526129723;0.7310544252399999;0.0345752164721;1;True;9;1;0.1287049725566045
301;301;1445940955;2.1352357864400004;0.731119573116;0.0346030332148;1;True;9;1;0.1287049725566045
302;302;1445940955;2.1351137161300002;0.73106098175;0.034619387239199995;1;True;9;1;0.1287049725566045
303;303;1445940955;2.13520622253;0.730958402157;0.034617893397800005;1;True;9;1;0.1287049725566045
304;304;1445940955;2.135212183;0.731011867523;0.0346156060696;1;True;9;1;0.1287049725566045
305;305;1445940955;2.1352984905200003;0.7312007546420001;0.0345707722008;1;True;9;1;0.1287049725566045
306;306;1445940955;2.1352751255;0.731056690216;0.0345778018236;1;True;9;1;0.1287049725566045
307;307;1445940955;2.1352887153599998;0.731080114841;0.034578088671;1;True;9;1;0.1287049725566045
308;308;1445940955;2.1353170871700002;0.731122732162;0.0345684438944;1;True;9;1;0.1287049725566045
309;309;1445940955;2.1352674961099996;0.731060087681;0.034583132714;1;True;9;1;0.1287049725566045
310;310;1445940955;2.1352283954599995;0.731150448322;0.034594163298599996;1;True;9;1;0.1287049725566045
311;311;1445940955;2.13527274132;0.7311676144600001;0.034588079899499996;1;True;9;1;0.1287049725566045
312;312;1445940955;2.13522338867;0.731021165848;0.034619964659199996;1;True;9;1;0.1287049725566045
313;313;1445940955;2.1353263855;0.731097877026;0.0345661342144;1;True;9;1;0.1287049725566045
314;314;1445940955;2.1352560520200004;0.731054782867;0.0345796085894;1;True;9;1;0.1287049725566045
315;315;1445940955;2.1352200508099997;0.7310425043109999;0.034581463784;1;True;9;1;0.1287049725566045
316;316;1445940955;2.13530611992;0.731090247631;0.0345649272203;1;True;9;1;0.1287049725566045
317;317;1445940955;2.1352925300599996;0.731170594692;0.0345730856061;1;True;9;1;0.1287049725566045
318;318;1445940955;2.1352314949;0.731083571911;0.0345578975976;1;True;9;1;0.1287049725566045
319;319;1445940955;2.13532710075;0.731124520302;0.03454802930359999;1;True;9;1;0.1287049725566045
320;320;1445940955;2.1351063251499998;0.731016457081;0.0346824899316;1;True;9;1;0.1287049725566045
321;321;1445940955;2.13531947136;0.7311317920679999;0.034544318914400005;1;True;9;1;0.1287049725566045
322;322;1445940955;2.13532829285;0.731135547161;0.0345406159759;1;True;9;1;0.1287049725566045
323;323;1445940955;2.13519096375;0.731078624725;0.0345821343362;1;True;9;1;0.1287049725566045
324;324;1445940955;2.13529324532;0.7311191558840001;0.0345405414701;1;True;9;1;0.1287049725566045
325;325;1445940955;2.1351799964900002;0.731094717979;0.0346074476838;1;True;9;1;0.1287049725566045
326;326;1445940955;2.13525915146;0.731085836887;0.034560021013;1;True;9;1;0.1287049725566045
327;327;1445940955;2.13526964188;0.731051564217;0.03455846384169999;1;True;9;1;0.1287049725566045
328;328;1445940955;2.1352303028099997;0.7309818267820001;0.034572474658499996;1;True;9;1;0.1287049725566045
329;329;1445940955;2.13521575928;0.7310048937800001;0.0345650725067;1;True;9;1;0.1287049725566045
330;330;1445940955;2.13528633118;0.73108702898;0.0345431528986;1;True;9;1;0.1287049725566045
331;331;1445940955;2.13519430161;0.7309677004809999;0.0345827788115;1;True;9;1;0.1287049725566045
332;332;1445940955;2.13521409035;0.73097550869;0.034590527415300006;1;True;9;1;0.1287049725566045
333;333;1445940955;2.13521361351;0.731027901173;0.034566491842300005;1;True;9;1;0.1287049725566045
334;334;1445940955;2.1352622509;0.731058180332;0.034549836069300004;1;True;9;1;0.1287049725566045
335;335;1445940955;2.13524723053;0.731097877026;0.0345587879419;1;True;9;1;0.1287049725566045
336;336;1445940955;2.13519573212;0.730965435505;0.0345904417336;1;True;9;1;0.1287049725566045
337;337;1445940955;2.13531732559;0.7310946583750001;0.034536246210300006;1;True;9;1;0.1287049725566045
338;338;1445940955;2.13525867462;0.731042742729;0.034545883536300004;1;True;9;1;0.1287049725566045
339;339;1445940955;2.13522315025;0.731029987335;0.0345616601408;1;True;9;1;0.1287049725566045
340;340;1445940955;2.1351339816999997;0.7309309244159999;0.0345783866942;1;True;9;1;0.1287049725566045
341;341;1445940955;2.1352725029;0.73103928566;0.0345470607281;1;True;9;1;0.1287049725566045
342;342;1445940955;2.13529419899;0.731099247932;0.0345299616456;1;True;9;1;0.1287049725566045
343;343;1445940955;2.13513875008;0.730917394161;0.0346084311604;1;True;9;1;0.1287049725566045
344;344;1445940955;2.1352832317400003;0.731066524982;0.0345491394401;1;True;9;1;0.1287049725566045
345;345;1445940955;2.13521885872;0.731049418449;0.0345830693841;1;True;9;1;0.1287049725566045
346;346;1445940955;2.13510370255;0.7308785319329999;0.0345717035234;1;True;9;1;0.1287049725566045
347;347;1445940955;2.13520908356;0.73107790947;0.034592375159300005;1;True;9;1;0.1287049725566045
348;348;1445940955;2.13525724411;0.7311105132100001;0.0345763750374;1;True;9;1;0.1287049725566045
349;349;1445940955;2.1352877616900003;0.7311425805089999;0.0345526076853;1;True;9;1;0.1287049725566045
350;350;1445940955;2.1351172924;0.731023788452;0.0345388166606;1;True;9;1;0.1287049725566045
351;351;1445940955;2.13531398773;0.731130838394;0.034550867974800004;1;True;9;1;0.1287049725566045
352;352;1445940955;2.13525557518;0.731083035469;0.034575451165400006;1;True;9;1;0.1287049725566045
353;353;1445940955;2.13525700569;0.7310891747470001;0.034577600657900005;1;True;9;1;0.1287049725566045
354;354;1445940955;2.1352014541599997;0.731112062931;0.0345803871751;1;True;9;1;0.1287049725566045
355;355;1445940955;2.13525104523;0.731071233749;0.0345755703747;1;True;9;1;0.1287049725566045
356;356;1445940955;2.13520169258;0.731016039848;0.0345902740955;1;True;9;1;0.1287049725566045
357;357;1445940955;2.13529634476;0.7310743331910001;0.0345595516264;1;True;9;1;0.1287049725566045
358;358;1445940955;2.13525819778;0.731145262718;0.0345561690629;1;True;9;1;0.1287049725566045
359;359;1445940955;2.1353130340599997;0.7311281561849999;0.03456006199119999;1;True;9;1;0.1287049725566045
360;360;1445940955;2.13523459435;0.730980098248;0.0345831252635;1;True;9;1;0.1287049725566045
361;361;1445940955;2.13524246216;0.731080114841;0.034594617784000005;1;True;9;1;0.1287049725566045
362;362;1445940955;2.1352634429900004;0.7310829758640001;0.0345715135336;1;True;9;1;0.1287049725566045
363;363;1445940955;2.13529515266;0.7311081886290001;0.034555077552800004;1;True;9;1;0.1287049725566045
364;364;1445940955;2.13522934914;0.7310526370999999;0.0345662795007;1;True;9;1;0.1287049725566045
365;365;1445940955;2.13529014587;0.731076598167;0.0345418602228;1;True;9;1;0.1287049725566045
366;366;1445940955;2.13520646095;0.730996072292;0.0345715172589;1;True;9;1;0.1287049725566045
367;367;1445940955;2.1352763176;0.731042087078;0.0345995724201;1;True;9;1;0.1287049725566045
368;368;1445940955;2.13519835472;0.73104685545;0.0345912724733;1;True;9;1;0.1287049725566045
369;369;1445940955;2.13530230522;0.731113731861;0.0345410704613;1;True;9;1;0.1287049725566045
370;370;1445940955;2.13516402245;0.731034934521;0.034604087472;1;True;9;1;0.1287049725566045
371;371;1445940955;2.13519144058;0.731100380421;0.034588765353;1;True;9;1;0.1287049725566045
372;372;1445940955;2.13530063629;0.731130361557;0.034550156444300005;1;True;9;1;0.1287049725566045
373;373;1445940955;2.1352891922;0.731099903584;0.0345479957759;1;True;9;1;0.1287049725566045
374;374;1445940955;2.1351969242099997;0.731024324894;0.0345833189785;1;True;9;1;0.1287049725566045
375;375;1445940955;2.13524866104;0.731021165848;0.034578017890499996;1;True;9;1;0.1287049725566045
376;376;1445940955;2.13520741463;0.7310110926629999;0.0345990806818;1;True;9;1;0.1287049725566045
377;377;1445940955;2.13522267342;0.7310907244679999;0.0345682278275;1;True;9;1;0.1287049725566045
378;378;1445940955;2.13522028923;0.7311047911640001;0.0345622971654;1;True;9;1;0.1287049725566045
379;379;1445940955;2.13522934914;0.7310512065889999;0.034564323723300004;1;True;9;1;0.1287049725566045
380;380;1445940955;2.1352450847599997;0.7310140132899999;0.0345661230385;1;True;9;1;0.1287049725566045
381;381;1445940955;2.13525700569;0.7310532331470001;0.0345569625497;1;True;9;1;0.1287049725566045
382;382;1445940955;2.13519358635;0.7310645580290001;0.034573193639500004;1;True;9;1;0.1287049725566045
383;383;1445940955;2.1352584362;0.7310806512829999;0.0345677733421;1;True;9;1;0.1287049725566045
384;384;1445940955;2.1352720260599996;0.731064021587;0.034552466124300005;1;True;9;1;0.1287049725566045
385;385;1445940955;2.13521838188;0.7311204671860001;0.034563098102800005;1;True;9;1;0.1287049725566045
386;386;1445940955;2.1352925300599996;0.7311962246889999;0.0345573201776;1;True;9;1;0.1287049725566045
387;387;1445940955;2.13529133797;0.7311823368070001;0.0345558784902;1;True;9;1;0.1287049725566045
388;388;1445940955;2.1351647377000003;0.7311138510699999;0.034602906554900004;1;True;9;1;0.1287049725566045
389;389;1445940955;2.13526153564;0.731081902981;0.034577153623099995;1;True;9;1;0.1287049725566045
390;390;1445940955;2.13531565666;0.731142759323;0.034549895674;1;True;9;1;0.1287049725566045
391;391;1445940955;2.13524770737;0.731153845787;0.0345769524574;1;True;9;1;0.1287049725566045
392;392;1445940955;2.13530564308;0.7311041951180001;0.0345535688102;1;True;9;1;0.1287049725566045
393;393;1445940955;2.1352014541599997;0.731052935123;0.0346031337976;1;True;9;1;0.1287049725566045
394;394;1445940955;2.1352050304400003;0.731044888496;0.0345809496939;1;True;9;1;0.1287049725566045
395;395;1445940955;2.13519287109;0.731073319912;0.034573964774599994;1;True;9;1;0.1287049725566045
396;396;1445940955;2.13522315025;0.730943024158;0.0346001535654;1;True;9;1;0.1287049725566045
397;397;1445940955;2.13524794579;0.731079280376;0.0345788486302;1;True;9;1;0.1287049725566045
398;398;1445940955;2.13529205322;0.731081426144;0.034561417996900004;1;True;9;1;0.1287049725566045
399;399;1445940955;2.1352589130400004;0.731080055237;0.034573122859;1;True;9;1;0.1287049725566045
400;400;1445940955;2.13521075249;0.73106521368;0.0345795452595;1;True;9;1;0.1287049725566045
401;401;1445940955;2.13528823853;0.731064975262;0.0345635339618;1;True;9;1;0.1287049725566045
402;402;1445940955;2.1353058815;0.7311789393420001;0.0345616489649;1;True;9;1;0.1287049725566045
403;403;1445940955;2.13526105881;0.7310757637019999;0.0345751531422;1;True;9;1;0.1287049725566045
404;404;1445940955;2.13520622253;0.730987727642;0.0345961786807;1;True;9;1;0.1287049725566045
405;405;1445940955;2.13520097733;0.73097461462;0.034606844186800004;1;True;9;1;0.1287049725566045
406;406;1445940955;2.13521766663;0.731002271175;0.0346032828093;1;True;9;1;0.1287049725566045
407;407;1445940955;2.13520288467;0.731124341488;0.0345896184444;1;True;9;1;0.1287049725566045
408;408;1445940955;2.13520121574;0.731006979942;0.0345939844847;1;True;9;1;0.1287049725566045
409;409;1445940955;2.13525462151;0.731045603752;0.034577392041699996;1;True;9;1;0.1287049725566045
410;410;1445940955;2.13524913788;0.731080889702;0.0346088856459;1;True;9;1;0.1287049725566045
411;411;1445940955;2.13521075249;0.730983912945;0.0345861166716;1;True;9;1;0.1287049725566045
412;412;1445940955;2.13524627686;0.731098175049;0.034570951014800004;1;True;9;1;0.1287049725566045
413;413;1445940955;2.13521099091;0.731100201607;0.03459110111;1;True;9;1;0.1287049725566045
414;414;1445940955;2.13526296616;0.731077373028;0.0345868691802;1;True;9;1;0.1287049725566045
415;415;1445940955;2.13522768021;0.731001257896;0.0345850624144;1;True;9;1;0.1287049725566045
416;416;1445940955;2.1353070735900004;0.7311173677439999;0.034560672938800004;1;True;9;1;0.1287049725566045
417;417;1445940955;2.13529276848;0.7310680747030001;0.034552261233300005;1;True;9;1;0.1287049725566045
418;418;1445940955;2.1352956295;0.7310607433319999;0.034555558115199995;1;True;9;1;0.1287049725566045
419;419;1445940955;2.13521742821;0.730982661247;0.0346234440804;1;True;9;1;0.1287049725566045
420;420;1445940955;2.13526415825;0.731112778187;0.0345747917891;1;True;9;1;0.1287049725566045
421;421;1445940955;2.13521003723;0.731079518795;0.034564848989199995;1;True;9;1;0.1287049725566045
422;422;1445940955;2.13530015945;0.731106698513;0.034545999020300006;1;True;9;1;0.1287049725566045
423;423;1445940955;2.1352627277400003;0.7310023307800001;0.0345687456429;1;True;9;1;0.1287049725566045
424;424;1445940955;2.13526797295;0.731037795544;0.03453939035530001;1;True;9;1;0.1287049725566045
425;425;1445940955;2.13525795937;0.731068730354;0.03456477820869999;1;True;9;1;0.1287049725566045
426;426;1445940956;2.13529324532;0.731078624725;0.0345302522182;2;True;9;1;0.1287049725566045
427;427;1445940956;2.13521361351;0.730978369713;0.0345730185509;2;True;9;1;0.1287049725566045
428;428;1445940956;2.1352443695099996;0.7310770154;0.0345561914146;2;True;9;1;0.1287049725566045
429;429;1445940956;2.13531422615;0.7311450839040001;0.034530330449300005;2;True;9;1;0.1287049725566045
430;430;1445940956;2.13520216942;0.7310920357699999;0.0345605202019;2;True;9;1;0.1287049725566045
431;431;1445940956;2.13524627686;0.7311322689059999;0.034550022333900005;2;True;9;1;0.1287049725566045
432;432;1445940956;2.13511610031;0.730931222439;0.0346902124584;2;True;9;1;0.1287049725566045
433;433;1445940956;2.1352212428999997;0.73108369112;0.0345502384007;2;True;9;1;0.1287049725566045
434;434;1445940956;2.1351137161300002;0.7309213280679999;0.0346614643931;2;True;9;1;0.1287049725566045
435;435;1445940956;2.13527131081;0.731102585793;0.0345391966403;2;True;9;1;0.1287049725566045
436;436;1445940956;2.13519382477;0.7310097813609999;0.0345823690295;2;True;9;1;0.1287049725566045
437;437;1445940956;2.13524723053;0.73104596138;0.0345402806997;2;True;9;1;0.1287049725566045
438;438;1445940956;2.1352391243;0.73105931282;0.0345644317567;2;True;9;1;0.1287049725566045
439;439;1445940956;2.13529133797;0.731119453907;0.0345424152911;2;True;9;1;0.1287049725566045
440;440;1445940956;2.1351907253299998;0.731068611145;0.0345886051655;2;True;9;1;0.1287049725566045
441;441;1445940956;2.13529610634;0.7311661839489999;0.034521557390699995;2;True;9;1;0.1287049725566045
442;442;1445940956;2.13522911072;0.731127619743;0.0345540121198;2;True;9;1;0.1287049725566045
443;443;1445940956;2.13519287109;0.731098651886;0.034547496587;2;True;9;1;0.1287049725566045
444;444;1445940956;2.1352574825299997;0.731105625629;0.0345381200314;2;True;9;1;0.1287049725566045
445;445;1445940956;2.1352915763900002;0.7311080694200001;0.034527666866800005;2;True;9;1;0.1287049725566045
446;446;1445940956;2.135201931;0.7310512065889999;0.0345525220037;2;True;9;1;0.1287049725566045
447;447;1445940956;2.1351621151;0.731124699116;0.0345838069916;2;True;9;1;0.1287049725566045
448;448;1445940956;2.1352212428999997;0.7309601306919999;0.034563947469;2;True;9;1;0.1287049725566045
449;449;1445940956;2.13518643379;0.731092512608;0.034552939236199995;2;True;9;1;0.1287049725566045
450;450;1445940956;2.13529086113;0.7311360836030001;0.0345293059945;2;True;9;1;0.1287049725566045
451;451;1445940956;2.13524222374;0.7310826182369999;0.0345587134361;2;True;9;1;0.1287049725566045
452;452;1445940956;2.13529205322;0.7311900258059999;0.0345258414745;2;True;9;1;0.1287049725566045
453;453;1445940956;2.13524127007;0.7310576438899999;0.0345320031047;2;True;9;1;0.1287049725566045
454;454;1445940956;2.1352965831799997;0.731200575829;0.0345224812627;2;True;9;1;0.1287049725566045
455;455;1445940956;2.13527059555;0.731094539165;0.034545499831400005;2;True;9;1;0.1287049725566045
456;456;1445940956;2.13527774811;0.731109321117;0.034519869834199995;2;True;9;1;0.1287049725566045
457;457;1445940956;2.1352880001099996;0.73119366169;0.034524057060500005;2;True;9;1;0.1287049725566045
458;458;1445940956;2.1352057457;0.7309908866879999;0.0345989204943;2;True;9;1;0.1287049725566045
459;459;1445940956;2.13519906998;0.730993449688;0.0346016213298;2;True;9;1;0.1287049725566045
460;460;1445940956;2.13530540466;0.731159448624;0.0345319136977;2;True;9;1;0.1287049725566045
461;461;1445940956;2.13525700569;0.7310961484909999;0.0345509424806;2;True;9;1;0.1287049725566045
462;462;1445940956;2.13514351845;0.7310880422589999;0.0345722213387;2;True;9;1;0.1287049725566045
463;463;1445940956;2.1352722644799997;0.7310866117479999;0.034528613090499996;2;True;9;1;0.1287049725566045
464;464;1445940956;2.1350901126900004;0.730934381485;0.0345303229988;2;True;9;1;0.1287049725566045
465;465;1445940956;2.1352589130400004;0.7311070561409999;0.034539844840800006;2;True;9;1;0.1287049725566045
466;466;1445940956;2.1352939605700003;0.731129646301;0.0345292016864;2;True;9;1;0.1287049725566045
467;467;1445940956;2.13529419899;0.7311547994609999;0.034534037113199995;2;True;9;1;0.1287049725566045
468;468;1445940956;2.13521075249;0.731067657471;0.0345705747604;2;True;9;1;0.1287049725566045
469;469;1445940956;2.1352198123900004;0.731110155582;0.034541487693800006;2;True;9;1;0.1287049725566045
470;470;1445940956;2.13520860672;0.7310846447939999;0.0345819443464;2;True;9;1;0.1287049725566045
471;471;1445940956;2.13521552086;0.731126248837;0.0345777720213;2;True;9;1;0.1287049725566045
472;472;1445940956;2.1351251602200003;0.730990171432;0.0346552655101;2;True;9;1;0.1287049725566045
473;473;1445940956;2.1351890564;0.7310075163840001;0.034585058689099994;2;True;9;1;0.1287049725566045
474;474;1445940956;2.1352159977;0.731085598469;0.034561522305;2;True;9;1;0.1287049725566045
475;475;1445940956;2.13530659676;0.7311926484110001;0.0345371961594;2;True;9;1;0.1287049725566045
476;476;1445940956;2.13523697853;0.7310252189640001;0.0346194878221;2;True;9;1;0.1287049725566045
477;477;1445940956;2.1352243423500004;0.731071412563;0.0345504805446;2;True;9;1;0.1287049725566045
478;478;1445940956;2.1353130340599997;0.731196582317;0.0345380157232;2;True;9;1;0.1287049725566045
479;479;1445940956;2.1352517604799996;0.7310836315160001;0.034564245492199996;2;True;9;1;0.1287049725566045
480;480;1445940956;2.13531208038;0.731209456921;0.034531425684699996;2;True;9;1;0.1287049725566045
481;481;1445940956;2.13521265984;0.7310109138490001;0.0345728285611;2;True;9;1;0.1287049725566045
482;482;1445940956;2.13524389267;0.731079876423;0.0345632880926;2;True;9;1;0.1287049725566045
483;483;1445940956;2.1352820396400003;0.731061339378;0.0345496982336;2;True;9;1;0.1287049725566045
484;484;1445940956;2.1353182792700003;0.7311334013940001;0.034537564963099995;2;True;9;1;0.1287049725566045
485;485;1445940956;2.13528633118;0.731100618839;0.0345525965095;2;True;9;1;0.1287049725566045
486;486;1445940956;2.13527774811;0.7310510277750001;0.0345399044454;2;True;9;1;0.1287049725566045
487;487;1445940956;2.1352152824400004;0.731044232845;0.0345768779516;2;True;9;1;0.1287049725566045
488;488;1445940956;2.1353063583400003;0.731113672256;0.0345278903842;2;True;9;1;0.1287049725566045
489;489;1445940956;2.13520169258;0.7310628294939999;0.0345849208534;2;True;9;1;0.1287049725566045
490;490;1445940956;2.13527154922;0.731085598469;0.034558556973900006;2;True;9;1;0.1287049725566045
491;491;1445940956;2.13530755043;0.731217980385;0.0345258936286;2;True;9;1;0.1287049725566045
492;492;1445940956;2.13527131081;0.731180071831;0.034557554870800006;2;True;9;1;0.1287049725566045
493;493;1445940956;2.1352791786200003;0.731166660786;0.03454654291269999;2;True;9;1;0.1287049725566045
494;494;1445940956;2.13529825211;0.7310970425609999;0.0345386043191;2;True;9;1;0.1287049725566045
495;495;1445940956;2.13527989388;0.7311398983;0.034538555890300006;2;True;9;1;0.1287049725566045
496;496;1445940956;2.1352331638299997;0.731114327908;0.034555535763500005;2;True;9;1;0.1287049725566045
497;497;1445940956;2.13523983955;0.731075167656;0.0345547012985;2;True;9;1;0.1287049725566045
498;498;1445940956;2.1352124214200003;0.7310791015620001;0.0345482155681;2;True;9;1;0.1287049725566045
499;499;1445940956;2.13522171974;0.7310138940809999;0.034563332796099994;2;True;9;1;0.1287049725566045
500;500;1445940956;2.13521289825;0.731066405773;0.0345882102847;2;True;9;1;0.1287049725566045
501;501;1445940956;2.13522648811;0.7310329079629999;0.0345666743815;2;True;9;1;0.1287049725566045
502;502;1445940956;2.13511347771;0.730942249298;0.034702822566;2;True;9;1;0.1287049725566045
503;503;1445940956;2.13520359993;0.730988919735;0.0345908105373;2;True;9;1;0.1287049725566045
504;504;1445940956;2.1353027820599997;0.7311042547229999;0.0345385484397;2;True;9;1;0.1287049725566045
505;505;1445940956;2.1352250576;0.731016755104;0.0345762223005;2;True;9;1;0.1287049725566045
506;506;1445940956;2.135232687;0.731042206287;0.0345550812781;2;True;9;1;0.1287049725566045
507;507;1445940956;2.13520288467;0.731003284454;0.0345715843141;2;True;9;1;0.1287049725566045
508;508;1445940956;2.13527107239;0.7311070561409999;0.0345497056842;2;True;9;1;0.1287049725566045
509;509;1445940956;2.13521432877;0.7310103178020001;0.034555595368099996;2;True;9;1;0.1287049725566045
510;510;1445940956;2.13530302048;0.7311909198759999;0.0345345251262;2;True;9;1;0.1287049725566045
511;511;1445940956;2.1351265907299997;0.730951666832;0.0346217229962;2;True;9;1;0.1287049725566045
512;512;1445940956;2.13520789146;0.7310408353810001;0.034597571939199996;2;True;9;1;0.1287049725566045
513;513;1445940956;2.1353118419599997;0.7311843037610001;0.034536801278599996;2;True;9;1;0.1287049725566045
514;514;1445940956;2.1352925300599996;0.7310878634450001;0.034535702318;2;True;9;1;0.1287049725566045
515;515;1445940956;2.13516974449;0.731097757816;0.034569021314400004;2;True;9;1;0.1287049725566045
516;516;1445940956;2.1352324485799996;0.731082320213;0.0345449186862;2;True;9;1;0.1287049725566045
517;517;1445940956;2.13520908356;0.731074035168;0.0345736891031;2;True;9;1;0.1287049725566045
518;518;1445940956;2.13529634476;0.731114625931;0.0345499143004;2;True;9;1;0.1287049725566045
519;519;1445940956;2.13530755043;0.7311567068100001;0.034542042762;2;True;9;1;0.1287049725566045
520;520;1445940956;2.1352984905200003;0.731135606766;0.034552488476;2;True;9;1;0.1287049725566045
521;521;1445940956;2.1352980136900004;0.7312138080600001;0.0345387794077;2;True;9;1;0.1287049725566045
522;522;1445940956;2.1353025436400004;0.731152951717;0.0345389954746;2;True;9;1;0.1287049725566045
523;523;1445940956;2.13519239426;0.7310818433759999;0.0345883667469;2;True;9;1;0.1287049725566045
524;524;1445940956;2.13515949249;0.731076836586;0.034613188356199996;2;True;9;1;0.1287049725566045
525;525;1445940956;2.1352767944299997;0.7311285734180001;0.0345337018371;2;True;9;1;0.1287049725566045
526;526;1445940956;2.13527655602;0.731106221676;0.034557927399900004;2;True;9;1;0.1287049725566045
527;527;1445940956;2.13527989388;0.7311252951620001;0.0345577448606;2;True;9;1;0.1287049725566045
528;528;1445940956;2.13520693779;0.731124699116;0.034606590867;2;True;9;1;0.1287049725566045
529;529;1445940956;2.1352880001099996;0.731151163578;0.0345576368272;2;True;9;1;0.1287049725566045
530;530;1445940956;2.13528847694;0.7312322855;0.0345486775041;2;True;9;1;0.1287049725566045
531;531;1445940956;2.1352832317400003;0.731224417686;0.0345544181764;2;True;9;1;0.1287049725566045
532;532;1445940956;2.13521647453;0.731103122234;0.0345694944263;2;True;9;1;0.1287049725566045
533;533;1445940956;2.1352152824400004;0.7311570048330001;0.0345692448318;2;True;9;1;0.1287049725566045
534;534;1445940956;2.1351733207700003;0.731026768684;0.0345920175314;2;True;9;1;0.1287049725566045
535;535;1445940956;2.1352956295;0.731147587299;0.034553814679400004;2;True;9;1;0.1287049725566045
536;536;1445940956;2.1352353096;0.731028556824;0.0345755741;2;True;9;1;0.1287049725566045
537;537;1445940956;2.13526415825;0.731130242348;0.034560579806599996;2;True;9;1;0.1287049725566045
538;538;1445940956;2.13523077965;0.731032967567;0.0345718599856;2;True;9;1;0.1287049725566045
539;539;1445940956;2.13525390625;0.731095314026;0.034548562020099996;2;True;9;1;0.1287049725566045
540;540;1445940956;2.13519763947;0.731129050255;0.0345841944218;2;True;9;1;0.1287049725566045
541;541;1445940956;2.1351687908200003;0.731068968773;0.0345959402621;2;True;9;1;0.1287049725566045
542;542;1445940956;2.1352930069;0.731163680553;0.034536752849800005;2;True;9;1;0.1287049725566045
543;543;1445940956;2.13520550728;0.731135249138;0.034584451466800004;2;True;9;1;0.1287049725566045
544;544;1445940956;2.13518357277;0.731108129025;0.034580994397400006;2;True;9;1;0.1287049725566045
545;545;1445940956;2.13522195816;0.7311285734180001;0.0345550142229;2;True;9;1;0.1287049725566045
546;546;1445940956;2.13528227806;0.731142520905;0.0345373339951;2;True;9;1;0.1287049725566045
547;547;1445940956;2.13529706001;0.731232941151;0.0345368459821;2;True;9;1;0.1287049725566045
548;548;1445940956;2.13528943062;0.731098651886;0.0345286205411;2;True;9;1;0.1287049725566045
549;549;1445940956;2.13518643379;0.7309994101520001;0.034579079598199995;2;True;9;1;0.1287049725566045
550;550;1445940956;2.13524675369;0.731073617935;0.0345478728414;2;True;9;1;0.1287049725566045
551;551;1445940956;2.1352925300599996;0.7311463952060001;0.0345374159515;2;True;9;1;0.1287049725566045
552;552;1445940956;2.13510370255;0.731031239033;0.0345994904637;2;True;9;1;0.1287049725566045
553;553;1445940956;2.13513827324;0.73089492321;0.0346722453833;2;True;9;1;0.1287049725566045
554;554;1445940956;2.13525104523;0.731011509895;0.034554630518;2;True;9;1;0.1287049725566045
555;555;1445940956;2.13529491425;0.731215417385;0.0345296263695;2;True;9;1;0.1287049725566045
556;556;1445940956;2.13524699211;0.731141746044;0.034532930701999996;2;True;9;1;0.1287049725566045
557;557;1445940956;2.13527488708;0.7311156988140001;0.0345394164324;2;True;9;1;0.1287049725566045
558;558;1445940956;2.13526678085;0.731004476547;0.0345493480563;2;True;9;1;0.1287049725566045
559;559;1445940956;2.1352789402;0.73107111454;0.0345277227461;2;True;9;1;0.1287049725566045
560;560;1445940956;2.13517379761;0.731067299843;0.0345811136067;2;True;9;1;0.1287049725566045
561;561;1445940956;2.13526415825;0.731024324894;0.034535285085400005;2;True;9;1;0.1287049725566045
562;562;1445940956;2.13532209396;0.731191337109;0.034525591880099994;2;True;9;1;0.1287049725566045
563;563;1445940956;2.13530826569;0.731081604958;0.03452846035359999;2;True;9;1;0.1287049725566045
564;564;1445940956;2.1352405548099997;0.731041252613;0.0345448963344;2;True;9;1;0.1287049725566045
565;565;1445940956;2.1353113651299997;0.731095790863;0.034522555768499996;2;True;9;1;0.1287049725566045
566;566;1445940956;2.13524961472;0.731030285358;0.0345451869071;2;True;9;1;0.1287049725566045
567;567;1445940956;2.1352791786200003;0.731078922749;0.034544404596099997;2;True;9;1;0.1287049725566045
568;568;1445940956;2.13531851768;0.731075167656;0.034528870135499996;2;True;9;1;0.1287049725566045
569;569;1445940956;2.13532376289;0.731095910072;0.0345201455057;2;True;9;1;0.1287049725566045
570;570;1445940956;2.1353256702400003;0.731192469597;0.0345231741667;2;True;9;1;0.1287049725566045
571;571;1445940956;2.1353130340599997;0.731080412865;0.0345203280449;2;True;9;1;0.1287049725566045
572;572;1445940956;2.13524341583;0.730919063091;0.0345726087689;2;True;9;1;0.1287049725566045
573;573;1445940956;2.13524675369;0.731099426746;0.034541066736;2;True;9;1;0.1287049725566045
574;574;1445940956;2.1352517604799996;0.731063842773;0.034543994814199994;2;True;9;1;0.1287049725566045
575;575;1445940956;2.13523697853;0.731074035168;0.0345742627978;2;True;9;1;0.1287049725566045
576;576;1445940956;2.1353316307099997;0.731186151505;0.034515585750300004;2;True;9;1;0.1287049725566045
577;577;1445940956;2.1352283954599995;0.7311046719550001;0.0345825925469;2;True;9;1;0.1287049725566045
578;578;1445940956;2.1352405548099997;0.7309904098510001;0.0345524474978;2;True;9;1;0.1287049725566045
579;579;1445940956;2.13533115387;0.731099247932;0.034534431994;2;True;9;1;0.1287049725566045
580;580;1445940956;2.13525319099;0.7310439348219999;0.0345485694706;2;True;9;1;0.1287049725566045
581;581;1445940956;2.13524651527;0.7309641838070001;0.034580193460000005;2;True;9;1;0.1287049725566045
582;582;1445940956;2.13525414467;0.73105186224;0.034555003047;2;True;9;1;0.1287049725566045
583;583;1445940956;2.13524365425;0.731096744537;0.0345620512962;2;True;9;1;0.1287049725566045
584;584;1445940956;2.1351544856999998;0.73093110323;0.0345879495144;2;True;9;1;0.1287049725566045
585;585;1445940956;2.1352441310900003;0.731109201908;0.0345699153841;2;True;9;1;0.1287049725566045
586;586;1445940956;2.13531565666;0.731131732464;0.0345272086561;2;True;9;1;0.1287049725566045
587;587;1445940956;2.13532400131;0.731098711491;0.034543901681900004;2;True;9;1;0.1287049725566045
588;588;1445940956;2.13517642021;0.731036186218;0.034596722573000005;2;True;9;1;0.1287049725566045
589;589;1445940956;2.13528680801;0.731069087982;0.0345598086715;2;True;9;1;0.1287049725566045
590;590;1445940956;2.1353175640099997;0.731184899807;0.0345333963633;2;True;9;1;0.1287049725566045
591;591;1445940956;2.13533377647;0.731092214584;0.0345301777124;2;True;9;1;0.1287049725566045
592;592;1445940956;2.13529205322;0.731052279472;0.0346033982933;2;True;9;1;0.1287049725566045
593;593;1445940956;2.1352841854099998;0.731076300144;0.034539382904800006;2;True;9;1;0.1287049725566045
594;594;1445940956;2.13514447212;0.730974674225;0.0345923602581;2;True;9;1;0.1287049725566045
595;595;1445940956;2.1352338790900003;0.7310376167300001;0.03458477929230001;2;True;9;1;0.1287049725566045
596;596;1445940956;2.1352236270900002;0.73104518652;0.034568984061500004;2;True;9;1;0.1287049725566045
597;597;1445940956;2.1352832317400003;0.731110095978;0.0345535762608;2;True;9;1;0.1287049725566045
598;598;1445940956;2.13532948494;0.7311260700229999;0.03453417867419999;2;True;9;1;0.1287049725566045
599;599;1445940956;2.1353197097799996;0.7310681343080001;0.0345413275063;2;True;9;1;0.1287049725566045
600;600;1445940956;2.1353256702400003;0.73118519783;0.0345440506935;2;True;9;1;0.1287049725566045
601;601;1445940956;2.13530898094;0.7311275601389999;0.0345338471234;2;True;9;1;0.1287049725566045
602;602;1445940956;2.1353130340599997;0.7311879992489999;0.034542147070199994;2;True;9;1;0.1287049725566045
603;603;1445940956;2.13532996178;0.7311932444570001;0.034544911235599995;2;True;9;1;0.1287049725566045
604;604;1445940956;2.13529133797;0.7310884594920001;0.0345646105707;2;True;9;1;0.1287049725566045
605;605;1445940956;2.13529896736;0.7310695648190001;0.0345390029252;2;True;9;1;0.1287049725566045
606;606;1445940956;2.13528442383;0.731118857861;0.034548137337000004;2;True;9;1;0.1287049725566045
